$GPGGA,052441.20,3542.301685872,N,13943.274682797,E,5,11,1.32,25.503,M,36.997,M,4.2,4107*49
$PMSBATV,052441.20,2,2,-1.01705,0.11287,37.91968,0.000,-0.000,0.000,37.75475,0.000*4D,,,
$GPGGA,052441.30,3542.301685891,N,13943.274682729,E,5,11,1.32,25.502,M,36.997,M,4.3,4107*40
$PMSBATV,052441.30,2,2,-1.01766,0.11631,37.92432,-0.000,0.000,0.000,37.75475,0.000*41,,,
$GPGGA,052441.40,3542.301685918,N,13943.274682665,E,5,11,1.32,25.502,M,36.997,M,4.4,4107*49
$PMSBATV,052441.40,2,2,-1.00688,0.11948,37.92043,0.000,-0.000,-0.000,37.75475,0.000*68,,,
$GPGGA,052441.50,3542.301685929,N,13943.274682597,E,5,11,1.32,25.502,M,36.997,M,4.5,4107*45
$PMSBATV,052441.50,2,2,-1.01108,0.11843,37.91481,-0.000,0.000,0.000,37.75475,0.000*49,,,
$GPGGA,052441.60,3542.301685949,N,13943.274682532,E,5,11,1.32,25.501,M,36.997,M,4.6,4107*4F
$PMSBATV,052441.60,2,2,-1.01051,0.11966,37.91826,-0.000,0.000,0.000,37.75475,0.000*40,,,
$GPGGA,052441.70,3542.301685971,N,13943.274682463,E,5,11,1.32,25.501,M,36.997,M,4.7,4107*41
$PMSBATV,052441.70,2,2,-1.00585,0.12103,37.91949,-0.000,-0.000,0.000,37.75475,0.000*61,,,
$GPGGA,052441.80,3542.301685994,N,13943.274682389,E,5,11,1.32,25.501,M,36.997,M,4.8,4107*49
$PMSBATV,052441.80,2,2,-1.00266,0.12111,37.91934,0.000,0.000,0.000,37.75475,0.000*6D,,,
$GPGGA,052441.90,3542.301686019,N,13943.274682326,E,5,11,1.32,25.500,M,36.997,M,4.9,4107*42
$PMSBATV,052441.90,2,2,-1.00459,0.12462,37.91479,0.000,0.000,-0.000,37.75475,0.000*4E,,,
$GPGGA,052442.00,3542.301686043,N,13943.274682257,E,5,11,1.32,25.500,M,36.997,M,5.0,4107*48
$PMSBATV,052442.00,2,2,-1.00343,0.12570,37.91408,0.000,0.000,0.000,37.75475,0.000*61,,,
$GPGGA,052442.10,3542.301686070,N,13943.274682183,E,5,11,1.32,25.500,M,36.997,M,5.1,4107*42
$PMSBATV,052442.10,2,2,-1.00417,0.12270,37.91634,-0.000,-0.000,0.000,37.75475,0.000*6C,,,
$GPGGA,052442.20,3542.301686096,N,13943.274682115,E,5,11,1.32,25.499,M,36.997,M,5.2,4107*44
$PMSBATV,052442.20,2,2,-1.00649,0.11706,37.91467,-0.000,0.000,-0.000,37.75475,0.000*65,,,
$GPGGA,052442.30,3542.301686127,N,13943.274682046,E,5,11,1.32,25.499,M,36.997,M,5.3,4107*48
$PMSBATV,052442.30,2,2,-1.00398,0.11616,37.91182,0.000,-0.000,0.000,37.75475,0.000*4E,,,
$GPGGA,052442.40,3542.301686159,N,13943.274681981,E,5,12,1.05,25.499,M,36.997,M,5.4,4107*47
$PMSBATV,052442.40,2,2,-1.01087,0.11176,37.90957,0.000,-0.000,0.000,37.75475,0.000*45,,,
$GPGGA,052442.50,3542.301686195,N,13943.274681917,E,5,12,1.05,25.499,M,36.997,M,5.5,4107*48
$PMSBATV,052442.50,2,2,-1.00935,0.11382,37.90528,0.000,-0.000,0.000,37.75475,0.000*48,,,
$GPGGA,052442.60,3542.301686228,N,13943.274681885,E,5,12,1.05,25.498,M,36.997,M,5.6,4107*46
$PMSBATV,052442.60,2,2,-1.00117,0.11454,37.90694,0.000,-0.000,0.000,37.75475,0.000*4B,,,
$GPGGA,052442.70,3542.301686251,N,13943.274681849,E,5,12,1.05,25.498,M,36.997,M,5.7,4107*48
$PMSBATV,052442.70,2,2,-1.00356,0.11732,37.90832,0.000,0.000,0.000,37.75475,0.000*61,,,
$GPGGA,052442.80,3542.301686281,N,13943.274681787,E,5,12,1.05,25.498,M,36.997,M,5.8,4107*48
$PMSBATV,052442.80,2,2,-1.00546,0.11849,37.90136,0.000,-0.000,-0.000,37.75475,0.000*67,,,
$GPGGA,052442.90,3542.301686309,N,13943.274681725,E,5,12,1.05,25.498,M,36.997,M,5.9,4107*41
$PMSBATV,052442.90,2,2,-1.00214,0.11927,37.89965,-0.000,0.000,0.000,37.75475,0.000*44,,,
$GPGGA,052443.00,3542.301686340,N,13943.274681669,E,5,12,1.05,25.497,M,36.997,M,6.0,4107*48
$PMSBATV,052443.00,2,2,-1.00719,0.12221,37.89813,0.000,0.000,0.000,37.75475,0.000*67,,,
$GPGGA,052443.10,3542.301686365,N,13943.274681609,E,5,12,1.05,25.497,M,36.997,M,6.1,4107*49
$PMSBATV,052443.10,2,2,-1.00986,0.12258,37.89812,0.000,-0.000,0.000,37.75475,0.000*4C,,,
$GPGGA,052443.20,3542.301686394,N,13943.274681550,E,5,12,1.05,25.497,M,36.997,M,6.2,4107*48
$PMSBATV,052443.20,2,2,-1.00838,0.12576,37.89570,-0.000,-0.000,0.000,37.75475,0.000*64,,,
$GPGGA,052443.30,3542.301686429,N,13943.274681497,E,5,12,1.05,25.497,M,36.997,M,6.3,4107*43
$PMSBATV,052443.30,2,2,-1.00535,0.12600,37.89685,0.000,-0.000,-0.000,37.75475,0.000*6E,,,
$GPGGA,052443.40,3542.301686461,N,13943.274681440,E,5,12,1.05,25.497,M,36.997,M,6.4,4107*45
$PMSBATV,052443.40,2,2,-0.99929,0.12715,37.90012,0.000,-0.000,-0.000,37.75475,0.000*6C,,,
$GPGGA,052443.50,3542.301686479,N,13943.274681367,E,5,12,1.05,25.496,M,36.997,M,6.5,4107*4F
$PMSBATV,052443.50,2,2,-1.00250,0.12720,37.89728,-0.000,0.000,0.000,37.75475,0.000*44,,,
$GPGGA,052443.60,3542.301686496,N,13943.274681306,E,5,12,1.05,25.496,M,36.997,M,6.6,4107*49
$PMSBATV,052443.60,2,2,-1.00023,0.12511,37.90501,0.000,0.000,0.000,37.75475,0.000*6D,,,
$GPGGA,052443.70,3542.301686510,N,13943.274681239,E,5,12,1.05,25.496,M,36.997,M,6.7,4107*4B
$PMSBATV,052443.70,2,2,-1.00068,0.12359,37.90491,-0.000,-0.000,0.000,37.75475,0.000*61,,,
$GPGGA,052443.80,3542.301686536,N,13943.274681195,E,5,12,1.05,25.495,M,36.997,M,6.8,4107*49
$PMSBATV,052443.80,2,2,-1.00030,0.12327,37.90628,0.000,-0.000,-0.000,37.75475,0.000*6A,,,
$GPGGA,052443.90,3542.301686560,N,13943.274681154,E,5,12,1.05,25.495,M,36.997,M,6.9,4107*47
$PMSBATV,052443.90,2,2,-1.00368,0.12510,37.90733,-0.000,-0.000,0.000,37.75475,0.000*6C,,,
$GPGGA,052444.00,3542.301686588,N,13943.274681112,E,5,11,1.32,25.495,M,36.997,M,7.0,4107*42
$PMSBATV,052444.00,2,2,-1.00185,0.12644,37.90489,0.000,-0.000,-0.000,37.75475,0.000*63,,,
$GPGGA,052444.10,3542.301686600,N,13943.274681066,E,5,11,1.32,25.495,M,36.997,M,7.1,4107*43
$PMSBATV,052444.10,2,2,-1.00445,0.12340,37.90076,-0.000,0.000,0.000,37.75475,0.000*43,,,
$GPGGA,052444.20,3542.301686615,N,13943.274681016,E,5,11,1.32,25.495,M,36.997,M,7.2,4107*40
$PMSBATV,052444.20,2,2,-1.00063,0.12073,37.89935,-0.000,-0.000,0.000,37.75475,0.000*68,,,
$GPGGA,052444.30,3542.301686624,N,13943.274680979,E,5,11,1.32,25.494,M,36.997,M,7.3,4107*42
$PMSBATV,052444.30,2,2,-1.00310,0.12787,37.90068,-0.000,-0.000,0.000,37.75475,0.000*6B,,,
$GPGGA,052444.40,3542.301686639,N,13943.274680940,E,5,12,1.05,25.494,M,36.997,M,7.4,4107*43
$PMSBATV,052444.40,2,2,-1.00126,0.12640,37.89738,-0.000,-0.000,0.000,37.75475,0.000*6B,,,
$GPGGA,052444.50,3542.301686650,N,13943.274680895,E,5,12,1.05,25.494,M,36.997,M,7.5,4107*45
$PMSBATV,052444.50,2,2,-1.00226,0.12580,37.89271,-0.000,-0.000,0.000,37.75475,0.000*6E,,,
$GPGGA,052444.60,3542.301686659,N,13943.274680858,E,5,12,1.05,25.494,M,36.997,M,7.6,4107*4D
$PMSBATV,052444.60,2,2,-0.99937,0.12288,37.89212,-0.000,-0.000,-0.000,37.75475,0.000*40,,,
$GPGGA,052444.70,3542.301686669,N,13943.274680828,E,5,12,1.05,25.494,M,36.997,M,7.7,4107*49
$PMSBATV,052444.70,2,2,-1.00701,0.11774,37.89555,0.000,0.000,-0.000,37.75475,0.000*4A,,,
$GPGGA,052444.80,3542.301686681,N,13943.274680795,E,5,12,1.05,25.494,M,36.997,M,7.8,4107*46
$PMSBATV,052444.80,2,2,-1.00714,0.11231,37.89173,-0.000,-0.000,-0.000,37.75475,0.000*45,,,
$GPGGA,052444.90,3542.301686696,N,13943.274680763,E,5,12,1.05,25.493,M,36.997,M,7.9,4107*4E
$PMSBATV,052444.90,2,2,-1.00379,0.11699,37.89282,-0.000,-0.000,-0.000,37.75475,0.000*40,,,
$GPGGA,052445.00,3542.301686708,N,13943.274680739,E,5,12,1.05,25.493,M,36.997,M,8.0,4107*49
$PMSBATV,052445.00,2,2,-1.01641,0.12110,37.88566,0.000,0.000,-0.000,37.75475,0.000*4E,,,
$GPGGA,052445.10,3542.301686713,N,13943.274680695,E,5,12,1.05,25.493,M,36.997,M,3.1,4107*4F
$PMSBATV,052445.10,2,2,-1.01303,0.12327,37.88568,0.000,0.000,-0.000,37.75475,0.000*44,,,
$GPGGA,052445.20,3542.301686711,N,13943.274680621,E,5,12,1.05,25.493,M,36.997,M,3.2,4107*42
$PMSBATV,052445.20,2,2,-1.00243,0.12434,37.88280,0.000,0.000,-0.000,37.75475,0.000*47,,,
$GPGGA,052445.30,3542.301686701,N,13943.274680552,E,5,12,1.05,25.493,M,36.997,M,3.3,4107*44
$PMSBATV,052445.30,2,2,-1.01193,0.12434,37.88452,0.000,0.000,-0.000,37.75475,0.000*40,,,
$GPGGA,052445.40,3542.301686690,N,13943.274680486,E,5,12,1.05,25.493,M,36.997,M,3.4,4107*45
$PMSBATV,052445.40,2,2,-1.00601,0.12660,37.87877,-0.000,0.000,-0.000,37.75475,0.000*60,,,
$GPGGA,052445.50,3542.301686701,N,13943.274680445,E,5,12,1.05,25.493,M,36.997,M,3.5,4107*43
$PMSBATV,052445.50,2,2,-0.99520,0.12748,37.87860,0.000,0.000,0.000,37.75475,0.000*6D,,,
$GPGGA,052445.60,3542.301686691,N,13943.274680380,E,5,12,1.05,25.492,M,36.997,M,3.6,4107*44
$PMSBATV,052445.60,2,2,-0.99724,0.12915,37.87948,0.000,0.000,-0.000,37.75475,0.000*48,,,
$GPGGA,052445.70,3542.301686691,N,13943.274680339,E,5,12,1.05,25.492,M,36.997,M,3.7,4107*46
$PMSBATV,052445.70,2,2,-0.99942,0.12774,37.88278,0.000,-0.000,0.000,37.75475,0.000*49,,,
$GPGGA,052445.80,3542.301686699,N,13943.274680292,E,5,12,1.05,25.492,M,36.997,M,3.8,4107*4E
$PMSBATV,052445.80,2,2,-0.99688,0.13244,37.88244,-0.000,-0.000,0.000,37.75475,0.000*6A,,,
$GPGGA,052445.90,3542.301686703,N,13943.274680249,E,5,12,1.05,25.492,M,36.997,M,3.9,4107*4A
$PMSBATV,052445.90,2,2,-0.99160,0.13534,37.88632,-0.000,-0.000,0.000,37.75475,0.000*6F,,,
$GPGGA,052446.00,3542.301686697,N,13943.274680211,E,5,12,1.05,25.492,M,36.997,M,4.0,4107*4F
$PMSBATV,052446.00,2,2,-0.99529,0.13152,37.88542,-0.000,0.000,0.000,37.75475,0.000*41,,,
$GPGGA,052446.10,3542.301686698,N,13943.274680168,E,5,12,1.05,25.492,M,36.997,M,4.1,4107*4D
$PMSBATV,052446.10,2,2,-0.99061,0.12816,37.88686,-0.000,-0.000,0.000,37.75475,0.000*67,,,
$GPGGA,052446.20,3542.301686708,N,13943.274680139,E,5,12,1.05,25.492,M,36.997,M,4.2,4107*41
$PMSBATV,052446.20,2,2,-0.98760,0.12983,37.88438,0.000,-0.000,0.000,37.75475,0.000*44,,,
$GPGGA,052446.30,3542.301686710,N,13943.274680107,E,5,12,1.05,25.491,M,36.997,M,4.3,4107*46
$PMSBATV,052446.30,2,2,-0.99095,0.13131,37.88703,0.000,0.000,0.000,37.75475,0.000*6F,,,
$GPGGA,052446.40,3542.301686712,N,13943.274680087,E,5,12,1.05,25.491,M,36.997,M,4.4,4107*4D
$PMSBATV,052446.40,2,2,-0.98814,0.13035,37.88439,0.000,-0.000,0.000,37.75475,0.000*4A,,,
$GPGGA,052446.50,3542.301686717,N,13943.274680068,E,5,12,1.05,25.491,M,36.997,M,4.5,4107*49
$PMSBATV,052446.50,2,2,-0.98488,0.13090,37.88242,-0.000,0.000,0.000,37.75475,0.000*47,,,
$GPGGA,052446.60,3542.301686723,N,13943.274680053,E,5,12,1.05,25.491,M,36.997,M,4.6,4107*46
$PMSBATV,052446.60,2,2,-0.99375,0.12947,37.87741,-0.000,0.000,0.000,37.75475,0.000*4B,,,
$GPGGA,052446.70,3542.301686726,N,13943.274680033,E,5,12,1.05,25.491,M,36.997,M,4.7,4107*45
$PMSBATV,052446.70,2,2,-0.99487,0.12884,37.88304,0.000,0.000,0.000,37.75475,0.000*69,,,
$GPGGA,052446.80,3542.301686727,N,13943.274680012,E,5,12,1.05,25.491,M,36.997,M,4.8,4107*47
$PMSBATV,052446.80,2,2,-0.99725,0.12946,37.88555,-0.000,0.000,0.000,37.75475,0.000*4D,,,
$GPGGA,052446.90,3542.301686749,N,13943.274680009,E,5,12,1.05,25.491,M,36.997,M,4.9,4107*45
$PMSBATV,052446.90,2,2,-0.99358,0.12718,37.88478,-0.000,-0.000,0.000,37.75475,0.000*64,,,
$GPGGA,052447.00,3542.301686774,N,13943.274680007,E,5,12,1.05,25.490,M,36.997,M,5.0,4107*44
$PMSBATV,052447.00,2,2,-0.99207,0.12538,37.88831,0.000,-0.000,0.000,37.75475,0.000*4B,,,
$GPGGA,052447.10,3542.301686794,N,13943.274679999,E,5,12,1.05,25.490,M,36.997,M,5.1,4107*42
$PMSBATV,052447.10,2,2,-0.99190,0.11892,37.88782,-0.000,-0.000,-0.000,37.75475,0.000*4E,,,
$GPGGA,052447.20,3542.301686815,N,13943.274679991,E,5,12,1.05,25.490,M,36.997,M,5.2,4107*4C
$PMSBATV,052447.20,2,2,-0.99598,0.11641,37.88841,-0.000,0.000,0.000,37.75475,0.000*41,,,
$GPGGA,052447.30,3542.301686848,N,13943.274679993,E,5,12,1.05,25.490,M,36.997,M,5.3,4107*46
$PMSBATV,052447.30,2,2,-0.99725,0.11326,37.88871,0.000,-0.000,0.000,37.75475,0.000*43,,,
$GPGGA,052447.40,3542.301686868,N,13943.274679981,E,5,12,1.05,25.490,M,36.997,M,5.4,4107*47
$PMSBATV,052447.40,2,2,-0.99445,0.10800,37.88742,-0.000,-0.000,-0.000,37.75475,0.000*40,,,
$GPGGA,052447.50,3542.301686886,N,13943.274679953,E,5,12,1.05,25.490,M,36.997,M,5.5,4107*48
$PMSBATV,052447.50,2,2,-0.98934,0.10538,37.88934,-0.000,0.000,-0.000,37.75475,0.000*6F,,,
$GPGGA,052447.60,3542.301686917,N,13943.274679931,E,5,12,1.05,25.490,M,36.997,M,5.6,4107*45
$PMSBATV,052447.60,2,2,-0.98628,0.11030,37.89026,0.000,-0.000,0.000,37.75475,0.000*44,,,
$GPGGA,052447.70,3542.301686947,N,13943.274679918,E,5,12,1.05,25.489,M,36.997,M,5.7,4107*43
$PMSBATV,052447.70,2,2,-0.98322,0.11507,37.88551,0.000,-0.000,-0.000,37.75475,0.000*62,,,
$GPGGA,052447.80,3542.301686967,N,13943.274679891,E,5,12,1.05,25.489,M,36.997,M,5.8,4107*41
$PMSBATV,052447.80,2,2,-0.98471,0.10614,37.88219,-0.000,-0.000,-0.000,37.75475,0.000*4A,,,
$GPGGA,052447.90,3542.301686987,N,13943.274679869,E,5,12,1.05,25.489,M,36.997,M,5.9,4107*48
$PMSBATV,052447.90,2,2,-0.98519,0.10893,37.87933,0.000,0.000,0.000,37.75475,0.000*64,,,
$GPGGA,052448.00,3542.301687008,N,13943.274679855,E,5,12,1.05,25.489,M,36.997,M,6.0,4107*44
$PMSBATV,052448.00,2,2,-0.99231,0.11597,37.88117,0.000,0.000,-0.000,37.75475,0.000*4A,,,
$GPGGA,052448.10,3542.301687034,N,13943.274679833,E,5,12,1.05,25.489,M,36.997,M,1.1,4107*4C
$PMSBATV,052448.10,2,2,-0.98911,0.11967,37.88003,0.000,-0.000,-0.000,37.75475,0.000*69,,,
$GPGGA,052448.20,3542.301687054,N,13943.274679801,E,5,12,1.05,25.489,M,36.997,M,1.2,4107*4B
$PMSBATV,052448.20,2,2,-0.98114,0.11617,37.88563,-0.000,-0.000,0.000,37.75475,0.000*6C,,,
$GPGGA,052448.30,3542.301687065,N,13943.274679773,E,5,12,1.05,25.489,M,36.997,M,1.3,4107*43
$PMSBATV,052448.30,2,2,-0.98763,0.11371,37.88781,-0.000,0.000,0.000,37.75475,0.000*4D,,,
$GPGGA,052448.40,3542.301687089,N,13943.274679763,E,5,12,1.05,25.489,M,36.997,M,1.4,4107*40
$PMSBATV,052448.40,2,2,-0.98250,0.11482,37.88801,0.000,-0.000,0.000,37.75475,0.000*43,,,
$GPGGA,052448.50,3542.301687112,N,13943.274679735,E,5,12,1.05,25.488,M,36.997,M,1.5,4107*41
$PMSBATV,052448.50,2,2,-0.97415,0.11242,37.88836,0.000,-0.000,0.000,37.75475,0.000*44,,,
$GPGGA,052448.60,3542.301687132,N,13943.274679710,E,5,12,1.05,25.488,M,36.997,M,1.6,4107*44
$PMSBATV,052448.60,2,2,-0.96662,0.11028,37.88631,-0.000,-0.000,0.000,37.75475,0.000*6E,,,
$GPGGA,052448.70,3542.301687145,N,13943.274679685,E,5,12,1.05,25.488,M,36.997,M,1.7,4107*49
$PMSBATV,052448.70,2,2,-0.96074,0.10519,37.88618,-0.000,-0.000,-0.000,37.75475,0.000*4E,,,
$GPGGA,052448.80,3542.301687163,N,13943.274679667,E,5,12,1.05,25.488,M,36.997,M,1.8,4107*41
$PMSBATV,052448.80,2,2,-0.96311,0.10692,37.88715,0.000,0.000,0.000,37.75475,0.000*60,,,
$GPGGA,052448.90,3542.301687175,N,13943.274679650,E,5,12,1.05,25.488,M,36.997,M,1.9,4107*42
$PMSBATV,052448.90,2,2,-0.96084,0.10644,37.89100,0.000,0.000,0.000,37.75475,0.000*66,,,
$GPGGA,052449.00,3542.301687191,N,13943.274679633,E,5,12,1.05,25.488,M,36.997,M,2.0,4107*4F
$PMSBATV,052449.00,2,2,-0.95957,0.10965,37.88915,0.000,-0.000,0.000,37.75475,0.000*46,,,
$GPGGA,052449.10,3542.301687211,N,13943.274679625,E,5,11,1.32,25.488,M,36.997,M,2.1,4107*44
$PMSBATV,052449.10,2,2,-0.95577,0.11470,37.88564,0.000,0.000,0.000,37.75475,0.000*66,,,
$GPGGA,052449.20,3542.301687227,N,13943.274679606,E,5,11,1.32,25.488,M,36.997,M,2.2,4107*40
$PMSBATV,052449.20,2,2,-0.95144,0.11353,37.88648,0.000,0.000,0.000,37.75475,0.000*6A,,,
$GPGGA,052449.30,3542.301687240,N,13943.274679597,E,5,11,1.32,25.487,M,36.997,M,2.3,4107*45
$PMSBATV,052449.30,2,2,-0.95879,0.11355,37.88545,-0.000,0.000,-0.000,37.75475,0.000*64,,,
$GPGGA,052449.40,3542.301687257,N,13943.274679579,E,5,11,1.32,25.487,M,36.997,M,2.4,4107*43
$PMSBATV,052449.40,2,2,-0.96102,0.10781,37.88678,0.000,-0.000,0.000,37.75475,0.000*49,,,
$GPGGA,052449.50,3542.301687263,N,13943.274679566,E,5,11,1.32,25.487,M,36.997,M,2.5,4107*4A
$PMSBATV,052449.50,2,2,-0.96356,0.10695,37.88459,-0.000,0.000,0.000,37.75475,0.000*4E,,,
$GPGGA,052449.60,3542.301687284,N,13943.274679570,E,5,11,1.32,25.487,M,36.997,M,2.6,4107*44
$PMSBATV,052449.60,2,2,-0.96185,0.10767,37.88415,0.000,-0.000,0.000,37.75475,0.000*45,,,
$GPGGA,052449.70,3542.301687305,N,13943.274679568,E,5,11,1.32,25.487,M,36.997,M,2.7,4107*45
$PMSBATV,052449.70,2,2,-0.96320,0.10793,37.88797,-0.000,0.000,-0.000,37.75475,0.000*66,,,
$GPGGA,052449.80,3542.301687328,N,13943.274679560,E,5,11,1.32,25.487,M,36.997,M,2.8,4107*42
$PMSBATV,052449.80,2,2,-0.97043,0.10955,37.88784,0.000,0.000,0.000,37.75475,0.000*68,,,
$GPGGA,052449.90,3542.301687351,N,13943.274679550,E,5,11,1.32,25.487,M,36.997,M,2.9,4107*4F
$PMSBATV,052449.90,2,2,-0.97354,0.10933,37.88931,0.000,-0.000,0.000,37.75475,0.000*41,,,
$GPGGA,052450.00,3542.301687370,N,13943.274679545,E,5,11,1.32,25.487,M,36.997,M,3.0,4107*41
$PMSBATV,052450.00,2,2,-0.96983,0.11165,37.88848,-0.000,-0.000,-0.000,37.75475,0.000*44,,,
$GPGGA,052450.10,3542.301687390,N,13943.274679557,E,5,11,1.32,25.487,M,36.997,M,3.1,4107*4C
$PMSBATV,052450.10,2,2,-0.98373,0.11350,37.88680,0.000,0.000,0.000,37.75475,0.000*6D,,,
$GPGGA,052450.20,3542.301687412,N,13943.274679548,E,5,11,1.32,25.487,M,36.997,M,3.2,4107*4F
$PMSBATV,052450.20,2,2,-0.98527,0.11990,37.88469,-0.000,0.000,-0.000,37.75475,0.000*6A,,,
$GPGGA,052450.30,3542.301687436,N,13943.274679530,E,5,11,1.32,25.486,M,36.997,M,3.3,4107*47
$PMSBATV,052450.30,2,2,-0.97957,0.13027,37.87748,-0.000,-0.000,0.000,37.75475,0.000*67,,,
$GPGGA,052450.40,3542.301687462,N,13943.274679519,E,5,11,1.32,25.486,M,36.997,M,3.4,4107*4D
$PMSBATV,052450.40,2,2,-0.98481,0.12858,37.88139,0.000,0.000,-0.000,37.75475,0.000*4A,,,
$GPGGA,052450.50,3542.301687482,N,13943.274679521,E,5,11,1.32,25.486,M,36.997,M,3.5,4107*48
$PMSBATV,052450.50,2,2,-0.98299,0.12801,37.88044,0.000,0.000,0.000,37.75475,0.000*6E,,,
$GPGGA,052450.60,3542.301687491,N,13943.274679491,E,5,11,1.32,25.486,M,36.997,M,3.6,4107*40
$PMSBATV,052450.60,2,2,-0.96810,0.12749,37.88528,-0.000,-0.000,-0.000,37.75475,0.000*49,,,
$GPGGA,052450.70,3542.301687496,N,13943.274679462,E,5,11,1.32,25.486,M,36.997,M,3.7,4107*4B
$PMSBATV,052450.70,2,2,-0.96888,0.12734,37.88536,-0.000,-0.000,-0.000,37.75475,0.000*4C,,,
$GPGGA,052450.80,3542.301687507,N,13943.274679432,E,5,11,1.32,25.486,M,36.997,M,3.8,4107*47
$PMSBATV,052450.80,2,2,-0.97690,0.12682,37.88614,0.000,-0.000,0.000,37.75475,0.000*4A,,,
$GPGGA,052450.90,3542.301687517,N,13943.274679411,E,5,11,1.32,25.486,M,36.997,M,3.9,4107*47
$PMSBATV,052450.90,2,2,-0.97870,0.13261,37.88422,0.000,0.000,-0.000,37.75475,0.000*44,,,
$GPGGA,052451.00,3542.301687527,N,13943.274679376,E,5,11,1.32,25.486,M,36.997,M,4.0,4107*44
$PMSBATV,052451.00,2,2,-0.97983,0.13158,37.88850,0.000,-0.000,-0.000,37.75475,0.000*6C,,,
$GPGGA,052451.10,3542.301687535,N,13943.274679347,E,5,11,1.32,25.486,M,36.997,M,4.1,4107*45
$PMSBATV,052451.10,2,2,-0.98629,0.13157,37.88888,0.000,0.000,0.000,37.75475,0.000*67,,,
$GPGGA,052451.20,3542.301687543,N,13943.274679320,E,5,11,1.32,25.486,M,36.997,M,4.2,4107*45
$PMSBATV,052451.20,2,2,-0.97831,0.12744,37.89018,-0.000,-0.000,0.000,37.75475,0.000*69,,,
$GPGGA,052451.30,3542.301687554,N,13943.274679289,E,5,11,1.32,25.486,M,36.997,M,4.3,4107*41
$PMSBATV,052451.30,2,2,-0.97919,0.12843,37.89061,-0.000,-0.000,0.000,37.75475,0.000*65,,,
$GPGGA,052451.40,3542.301687563,N,13943.274679265,E,5,11,1.32,25.485,M,36.997,M,4.4,4107*44
$PMSBATV,052451.40,2,2,-0.98401,0.12356,37.89233,0.000,0.000,0.000,37.75475,0.000*63,,,
$GPGGA,052451.50,3542.301687574,N,13943.274679234,E,5,11,1.32,25.485,M,36.997,M,4.5,4107*46
$PMSBATV,052451.50,2,2,-0.97640,0.12683,37.89623,0.000,-0.000,0.000,37.75475,0.000*4F,,,
$GPGGA,052451.60,3542.301687581,N,13943.274679200,E,5,11,1.32,25.485,M,36.997,M,4.6,4107*4B
$PMSBATV,052451.60,2,2,-0.97289,0.12541,37.89477,-0.000,-0.000,0.000,37.75475,0.000*6E,,,
$GPGGA,052451.70,3542.301687598,N,13943.274679177,E,5,11,1.32,25.485,M,36.997,M,4.7,4107*40
$PMSBATV,052451.70,2,2,-0.97784,0.13127,37.89487,-0.000,0.000,0.000,37.75475,0.000*40,,,
$GPGGA,052451.80,3542.301687600,N,13943.274679157,E,5,11,1.32,25.485,M,36.997,M,4.8,4107*40
$PMSBATV,052451.80,2,2,-0.99328,0.12768,37.89832,-0.000,0.000,0.000,37.75475,0.000*4D,,,
$GPGGA,052451.90,3542.301687607,N,13943.274679125,E,5,11,1.32,25.485,M,36.997,M,4.9,4107*42
$PMSBATV,052451.90,2,2,-0.98577,0.12571,37.89516,0.000,-0.000,-0.000,37.75475,0.000*6D,,,
$GPGGA,052452.00,3542.301687616,N,13943.274679104,E,5,11,1.32,25.485,M,36.997,M,5.0,4107*43
$PMSBATV,052452.00,2,2,-0.99212,0.12872,37.89695,0.000,0.000,0.000,37.75475,0.000*64,,,
$GPGGA,052452.10,3542.301687619,N,13943.274679080,E,5,11,1.31,25.485,M,36.997,M,5.1,4107*42
$PMSBATV,052452.10,2,2,-0.98837,0.12927,37.89754,0.000,-0.000,-0.000,37.75475,0.000*64,,,
$GPGGA,052452.20,3542.301687622,N,13943.274679045,E,5,11,1.31,25.485,M,36.997,M,5.2,4107*43
$PMSBATV,052452.20,2,2,-0.98461,0.13264,37.89802,-0.000,0.000,-0.000,37.75475,0.000*69,,,
$GPGGA,052452.30,3542.301687628,N,13943.274679027,E,5,11,1.31,25.485,M,36.997,M,5.3,4107*4D
$PMSBATV,052452.30,2,2,-0.99008,0.13755,37.89624,0.000,0.000,0.000,37.75475,0.000*6F,,,
$GPGGA,052452.40,3542.301687629,N,13943.274679001,E,5,11,1.31,25.485,M,36.997,M,5.4,4107*48
$PMSBATV,052452.40,2,2,-0.99807,0.13982,37.89519,0.000,0.000,-0.000,37.75475,0.000*4B,,,
$GPGGA,052452.50,3542.301687636,N,13943.274678979,E,5,11,1.31,25.485,M,36.997,M,5.5,4107*41
$PMSBATV,052452.50,2,2,-0.99028,0.13648,37.89267,0.000,-0.000,-0.000,37.75475,0.000*65,,,
$GPGGA,052452.60,3542.301687635,N,13943.274678953,E,5,11,1.31,25.484,M,36.997,M,5.6,4107*4B
$PMSBATV,052452.60,2,2,-0.99487,0.13321,37.89014,-0.000,0.000,0.000,37.75475,0.000*46,,,
$GPGGA,052452.70,3542.301687649,N,13943.274678941,E,5,11,1.31,25.484,M,36.997,M,5.7,4107*43
$PMSBATV,052452.70,2,2,-0.99344,0.13616,37.89221,0.000,-0.000,0.000,37.75475,0.000*4A,,,
$GPGGA,052452.80,3542.301687648,N,13943.274678928,E,5,11,1.31,25.484,M,36.997,M,5.8,4107*4D
$PMSBATV,052452.80,2,2,-0.99467,0.13283,37.89475,-0.000,-0.000,0.000,37.75475,0.000*61,,,
$GPGGA,052452.90,3542.301687648,N,13943.274678907,E,5,11,1.31,25.484,M,36.997,M,5.9,4107*40
$PMSBATV,052452.90,2,2,-0.99427,0.13706,37.89491,-0.000,-0.000,-0.000,37.75475,0.000*4B,,,
$GPGGA,052453.00,3542.301687657,N,13943.274678901,E,5,11,1.31,25.484,M,36.997,M,6.0,4107*4A
$PMSBATV,052453.00,2,2,-1.00031,0.13835,37.89183,0.000,0.000,-0.000,37.75475,0.000*48,,,
$GPGGA,052453.10,3542.301687658,N,13943.274678888,E,5,11,1.31,25.484,M,36.997,M,1.1,4107*42
$PMSBATV,052453.10,2,2,-0.99964,0.13676,37.89533,0.000,0.000,-0.000,37.75475,0.000*47,,,
$GPGGA,052453.20,3542.301687659,N,13943.274678870,E,5,11,1.31,25.484,M,36.997,M,1.2,4107*44
$PMSBATV,052453.20,2,2,-0.99232,0.13253,37.89715,-0.000,-0.000,0.000,37.75475,0.000*64,,,
$GPGGA,052453.30,3542.301687671,N,13943.274678852,E,5,11,1.31,25.484,M,36.997,M,1.3,4107*4E
$PMSBATV,052453.30,2,2,-0.99332,0.13519,37.89635,-0.000,0.000,-0.000,37.75475,0.000*6E,,,
$GPGGA,052453.40,3542.301687682,N,13943.274678843,E,5,11,1.31,25.484,M,36.997,M,1.4,4107*42
$PMSBATV,052453.40,2,2,-0.99494,0.13786,37.89656,0.001,0.000,-0.000,37.75475,0.000*4F,,,
$GPGGA,052453.50,3542.301687687,N,13943.274678835,E,5,11,1.31,25.484,M,36.997,M,1.5,4107*46
$PMSBATV,052453.50,2,2,-0.99625,0.13431,37.89506,0.000,0.000,-0.000,37.75475,0.000*4E,,,
$GPGGA,052453.60,3542.301687686,N,13943.274678814,E,5,11,1.31,25.484,M,36.997,M,1.6,4107*44
$PMSBATV,052453.60,2,2,-0.99288,0.12647,37.89587,-0.000,0.000,-0.000,37.75475,0.000*68,,,
$GPGGA,052453.70,3542.301687700,N,13943.274678806,E,5,11,1.31,25.484,M,36.997,M,1.7,4107*48
$PMSBATV,052453.70,2,2,-0.99504,0.12553,37.89661,0.000,0.000,-0.000,37.75475,0.000*4A,,,
$GPGGA,052453.80,3542.301687712,N,13943.274678796,E,5,11,1.31,25.484,M,36.997,M,1.8,4107*4D
$PMSBATV,052453.80,2,2,-0.99191,0.12765,37.90215,0.000,0.000,-0.000,37.75475,0.000*45,,,
$GPGGA,052453.90,3542.301687720,N,13943.274678776,E,5,11,1.31,25.484,M,36.997,M,1.9,4107*42
$PMSBATV,052453.90,2,2,-0.98867,0.12728,37.90609,0.000,-0.000,-0.000,37.75475,0.000*68,,,
$GPGGA,052454.00,3542.301687728,N,13943.274678759,E,5,11,1.31,25.484,M,36.997,M,2.0,4107*43
$PMSBATV,052454.00,2,2,-0.99246,0.12972,37.90365,0.000,-0.000,0.000,37.75475,0.000*4D,,,
$GPGGA,052454.10,3542.301687734,N,13943.274678740,E,5,11,1.31,25.483,M,36.997,M,2.1,4107*41
$PMSBATV,052454.10,2,2,-0.98898,0.13037,37.90269,-0.001,-0.000,-0.000,37.75475,0.000*41,,,
$GPGGA,052454.20,3542.301687757,N,13943.274678725,E,5,11,1.31,25.483,M,36.997,M,2.2,4107*47
$PMSBATV,052454.20,2,2,-0.98651,0.13610,37.89969,0.000,-0.000,0.000,37.75475,0.000*48,,,
$GPGGA,052454.30,3542.301687760,N,13943.274678698,E,5,11,1.31,25.483,M,36.997,M,2.3,4107*44
$PMSBATV,052454.30,2,2,-0.99024,0.12502,37.89968,-0.000,-0.000,0.000,37.75475,0.000*61,,,
$GPGGA,052454.40,3542.301687765,N,13943.274678672,E,5,11,1.31,25.483,M,36.997,M,2.4,4107*45
$PMSBATV,052454.40,2,2,-0.98445,0.12162,37.89673,-0.000,-0.000,-0.000,37.75475,0.000*4E,,,
$GPGGA,052454.50,3542.301687787,N,13943.274678659,E,5,11,1.31,25.483,M,36.997,M,2.5,4107*40
$PMSBATV,052454.50,2,2,-0.98719,0.12937,37.89569,0.000,-0.000,0.000,37.75475,0.000*45,,,
$GPGGA,052454.60,3542.301687803,N,13943.274678641,E,5,11,1.31,25.483,M,36.997,M,2.6,4107*4A
$PMSBATV,052454.60,2,2,-0.98724,0.13127,37.89781,0.000,-0.000,0.000,37.75475,0.000*44,,,
$GPGGA,052454.70,3542.301687814,N,13943.274678623,E,5,11,1.31,25.483,M,36.997,M,2.7,4107*48
$PMSBATV,052454.70,2,2,-0.98746,0.13230,37.90094,0.000,-0.000,-0.000,37.75475,0.000*62,,,
$GPGGA,052454.80,3542.301687833,N,13943.274678609,E,5,11,1.31,25.483,M,36.997,M,2.8,4107*45
$PMSBATV,052454.80,2,2,-0.98512,0.13903,37.90294,-0.000,0.000,0.000,37.75475,0.000*4A,,,
$GPGGA,052454.90,3542.301687842,N,13943.274678590,E,5,11,1.31,25.483,M,36.997,M,2.9,4107*40
$PMSBATV,052454.90,2,2,-0.99847,0.13474,37.90671,-0.000,0.000,0.000,37.75475,0.000*45,,,
$GPGGA,052455.00,3542.301687857,N,13943.274678568,E,5,11,1.31,25.483,M,36.997,M,3.0,4107*43
$PMSBATV,052455.00,2,2,-0.99525,0.13153,37.90403,0.000,0.000,-0.000,37.75475,0.000*43,,,
$GPGGA,052455.10,3542.301687873,N,13943.274678544,E,5,11,1.31,25.483,M,36.997,M,3.1,4107*4B
$PMSBATV,052455.10,2,2,-0.99020,0.13078,37.90324,0.000,-0.000,-0.000,37.75475,0.000*65,,,
$GPGGA,052455.20,3542.301687889,N,13943.274678528,E,5,11,1.31,25.483,M,36.997,M,3.2,4107*44
$PMSBATV,052455.20,2,2,-0.99011,0.13009,37.90603,0.000,0.000,0.000,37.75475,0.000*62,,,
$GPGGA,052455.30,3542.301687902,N,13943.274678505,E,5,11,1.31,25.483,M,36.997,M,3.3,4107*49
$PMSBATV,052455.30,2,2,-0.98863,0.12813,37.90482,-0.000,-0.000,-0.000,37.75475,0.000*4B,,,
$GPGGA,052455.40,3542.301687914,N,13943.274678483,E,5,11,1.31,25.483,M,36.997,M,3.4,4107*41
$PMSBATV,052455.40,2,2,-0.98271,0.12463,37.89742,0.000,-0.000,-0.000,37.75475,0.000*64,,,
$GPGGA,052455.50,3542.301687929,N,13943.274678461,E,5,11,1.31,25.483,M,36.997,M,3.5,4107*43
$PMSBATV,052455.50,2,2,-0.98441,0.12483,37.89442,0.000,-0.000,-0.000,37.75475,0.000*6D,,,
$GPGGA,052455.60,3542.301687935,N,13943.274678440,E,5,11,1.31,25.483,M,36.997,M,3.6,4107*4D
$PMSBATV,052455.60,2,2,-0.98782,0.12027,37.89692,-0.000,0.000,0.000,37.75475,0.000*4A,,,
$GPGGA,052455.70,3542.301687947,N,13943.274678415,E,5,11,1.31,25.482,M,36.997,M,3.7,4107*49
$PMSBATV,052455.70,2,2,-0.98460,0.11399,37.89643,-0.000,-0.000,-0.000,37.75475,0.000*4D,,,
$GPGGA,052455.80,3542.301687964,N,13943.274678401,E,5,11,1.31,25.482,M,36.997,M,3.8,4107*4D
$PMSBATV,052455.80,2,2,-0.98090,0.11680,37.89814,0.000,0.000,-0.000,37.75475,0.000*48,,,
$GPGGA,052455.90,3542.301687976,N,13943.274678379,E,5,11,1.31,25.482,M,36.997,M,3.9,4107*46
$PMSBATV,052455.90,2,2,-0.99060,0.11679,37.89733,0.000,-0.000,-0.000,37.75475,0.000*66,,,
$GPGGA,052456.00,3542.301687986,N,13943.274678359,E,5,11,1.31,25.482,M,36.997,M,4.0,4107*4F
$PMSBATV,052456.00,2,2,-0.99050,0.12014,37.89467,-0.000,0.000,-0.000,37.75475,0.000*63,,,
$GPGGA,052456.10,3542.301688001,N,13943.274678340,E,5,11,1.31,25.482,M,36.997,M,4.1,4107*4E
$PMSBATV,052456.10,2,2,-0.98914,0.11608,37.89720,0.000,-0.000,0.000,37.75475,0.000*4F,,,
$GPGGA,052456.20,3542.301688011,N,13943.274678330,E,5,11,1.31,25.482,M,36.997,M,4.2,4107*48
$PMSBATV,052456.20,2,2,-0.99084,0.11371,37.89103,0.000,-0.000,0.000,37.75475,0.000*41,,,
$GPGGA,052456.30,3542.301688025,N,13943.274678315,E,5,11,1.31,25.482,M,36.997,M,4.3,4107*48
$PMSBATV,052456.30,2,2,-0.99549,0.11168,37.89474,0.000,0.000,-0.000,37.75475,0.000*4B,,,
$GPGGA,052456.40,3542.301688067,N,13943.274678317,E,5,11,1.31,25.482,M,36.997,M,4.4,4107*4C
$PMSBATV,052456.40,2,2,-0.99341,0.11440,37.89387,0.001,-0.000,0.001,37.75475,0.000*46,,,
$GPGGA,052456.50,3542.301689143,N,13943.274676391,E,5,11,1.31,25.479,M,36.997,M,4.5,4107*4E
$PMSBATV,052456.50,2,2,-0.99689,0.11686,37.89066,0.000,-0.000,0.000,37.75475,0.000*42,,,
$GPGGA,052456.60,3542.301689884,N,13943.274675123,E,5,11,1.31,25.477,M,36.997,M,4.6,4107*4A
$PMSBATV,052456.60,2,2,-0.99319,0.11937,37.89260,0.000,-0.000,-0.000,37.75475,0.000*61,,,
$GPGGA,052456.70,3542.301690389,N,13943.274674150,E,5,11,1.31,25.475,M,36.997,M,4.7,4107*43
$PMSBATV,052456.70,2,2,-0.99512,0.11638,37.89148,-0.000,-0.000,0.000,37.75475,0.000*64,,,
$GPGGA,052456.80,3542.301690760,N,13943.274673389,E,5,11,1.31,25.474,M,36.997,M,4.8,4107*40
$PMSBATV,052456.80,2,2,-0.99139,0.11633,37.88776,-0.000,0.000,0.000,37.75475,0.000*4A,,,
$GPGGA,052456.90,3542.301691073,N,13943.274672810,E,5,11,1.31,25.472,M,36.997,M,4.9,4107*48
$PMSBATV,052456.90,2,2,-0.98896,0.11324,37.87751,0.000,0.000,0.000,37.75475,0.000*62,,,
$GPGGA,052457.00,3542.301691321,N,13943.274672334,E,5,11,1.31,25.471,M,36.997,M,5.0,4107*42
$PMSBATV,052457.00,2,2,-0.98432,0.11423,37.87584,-0.000,0.000,-0.000,37.75475,0.000*62,,,
$GPGGA,052457.10,3542.301691531,N,13943.274671940,E,5,11,1.31,25.470,M,36.997,M,5.1,4107*4E
$PMSBATV,052457.10,2,2,-0.98018,0.11124,37.87506,0.000,0.000,-0.000,37.75475,0.000*4A,,,
$GPGGA,052457.20,3542.301691695,N,13943.274671622,E,5,11,1.31,25.469,M,36.997,M,5.2,4107*40
$PMSBATV,052457.20,2,2,-0.98003,0.11555,37.87628,-0.000,0.000,0.000,37.75475,0.000*4E,,,
$GPGGA,052457.30,3542.301691858,N,13943.274671305,E,5,11,1.31,25.468,M,36.997,M,5.3,4107*4E
$PMSBATV,052457.30,2,2,-0.98246,0.11738,37.87657,-0.000,-0.000,-0.000,37.75475,0.000*4D,,,
$GPGGA,052457.40,3542.301692003,N,13943.274670991,E,5,11,1.31,25.467,M,36.997,M,5.4,4107*42
$PMSBATV,052457.40,2,2,-0.98765,0.11789,37.87952,0.000,0.000,0.000,37.75475,0.000*63,,,
$GPGGA,052457.50,3542.301692149,N,13943.274670697,E,5,11,1.31,25.467,M,36.997,M,5.5,4107*44
$PMSBATV,052457.50,2,2,-0.98942,0.11933,37.88287,-0.000,-0.000,0.000,37.75475,0.000*6A,,,
$GPGGA,052457.60,3542.301692286,N,13943.274670427,E,5,11,1.31,25.466,M,36.997,M,5.6,4107*4C
$PMSBATV,052457.60,2,2,-0.98416,0.11620,37.88305,-0.000,-0.000,-0.000,37.75475,0.000*4E,,,
$GPGGA,052457.70,3542.301692409,N,13943.274670181,E,5,11,1.31,25.465,M,36.997,M,5.7,4107*47
$PMSBATV,052457.70,2,2,-0.98092,0.11094,37.88664,-0.000,-0.000,0.000,37.75475,0.000*61,,,
$GPGGA,052457.80,3542.301692532,N,13943.274669941,E,5,11,1.31,25.465,M,36.997,M,5.8,4107*42
$PMSBATV,052457.80,2,2,-0.97169,0.11233,37.89029,0.000,-0.000,0.000,37.75475,0.000*48,,,
$GPGGA,052457.90,3542.301692640,N,13943.274669716,E,5,11,1.31,25.464,M,36.997,M,5.9,4107*49
$PMSBATV,052457.90,2,2,-0.96790,0.11357,37.89099,-0.000,-0.000,-0.000,37.75475,0.000*40,,,
$GPGGA,052458.00,3542.301692751,N,13943.274669503,E,5,11,1.31,25.464,M,36.997,M,6.0,4107*42
$PMSBATV,052458.00,2,2,-0.97177,0.11693,37.88868,0.000,0.000,-0.000,37.75475,0.000*42,,,
$GPGGA,052458.10,3542.301692867,N,13943.274669301,E,5,11,1.31,25.463,M,36.997,M,6.1,4107*4B
$PMSBATV,052458.10,2,2,-0.97877,0.11787,37.89126,0.000,0.000,-0.000,37.75475,0.000*4C,,,
$GPGGA,052458.20,3542.301692985,N,13943.274669100,E,5,11,1.31,25.463,M,36.997,M,6.2,4107*45
$PMSBATV,052458.20,2,2,-0.97354,0.11798,37.89168,0.000,-0.000,-0.000,37.75475,0.000*6C,,,
$GPGGA,052458.30,3542.301693098,N,13943.274668913,E,5,11,1.31,25.462,M,36.997,M,6.3,4107*4B
$PMSBATV,052458.30,2,2,-0.97169,0.11691,37.88765,-0.000,-0.000,-0.000,37.75475,0.000*4E,,,
$GPGGA,052458.40,3542.301693204,N,13943.274668739,E,5,11,1.31,25.461,M,36.997,M,6.4,4107*49
$PMSBATV,052458.40,2,2,-0.97347,0.11604,37.88648,0.000,0.000,0.000,37.75475,0.000*68,,,
$GPGGA,052458.50,3542.301693299,N,13943.274668571,E,5,11,1.31,25.461,M,36.997,M,6.5,4107*43
$PMSBATV,052458.50,2,2,-0.97388,0.11799,37.88620,-0.000,-0.000,0.000,37.75475,0.000*61,,,
$GPGGA,052458.60,3542.301693392,N,13943.274668425,E,5,11,1.31,25.461,M,36.997,M,6.6,4107*49
$PMSBATV,052458.60,2,2,-0.97205,0.11787,37.88956,0.000,-0.000,-0.000,37.75475,0.000*67,,,
$GPGGA,052458.70,3542.301693473,N,13943.274668285,E,5,11,1.31,25.460,M,36.997,M,6.7,4107*4C
$PMSBATV,052458.70,2,2,-0.97380,0.11526,37.88448,-0.000,0.000,-0.000,37.75475,0.000*61,,,
$GPGGA,052458.80,3542.301693553,N,13943.274668158,E,5,11,1.31,25.460,M,36.997,M,6.8,4107*4C
$PMSBATV,052458.80,2,2,-0.97364,0.11845,37.88352,0.000,0.000,0.000,37.75475,0.000*60,,,
$GPGGA,052458.90,3542.301693641,N,13943.274668029,E,5,11,1.31,25.459,M,36.997,M,6.9,4107*41
$PMSBATV,052458.90,2,2,-0.96818,0.12801,37.88515,-0.000,0.000,-0.000,37.75475,0.000*66,,,
$GPGGA,052459.00,3542.301693716,N,13943.274667899,E,5,11,1.31,25.459,M,36.997,M,7.0,4107*4E
$PMSBATV,052459.00,2,2,-0.96583,0.11973,37.88717,-0.000,0.000,-0.000,37.75475,0.000*66,,,
$GPGGA,052459.10,3542.301693801,N,13943.274667774,E,5,11,1.31,25.458,M,36.997,M,2.1,4107*4F
$PMSBATV,052459.10,2,2,-0.96448,0.12313,37.88783,-0.000,0.000,0.000,37.75475,0.000*4E,,,
$GPGGA,052459.20,3542.301693872,N,13943.274667654,E,5,11,1.31,25.458,M,36.997,M,2.2,4107*48
$PMSBATV,052459.20,2,2,-0.96244,0.11938,37.89123,0.000,0.000,0.000,37.75475,0.000*67,,,
$GPGGA,052459.30,3542.301693946,N,13943.274667530,E,5,11,1.31,25.458,M,36.997,M,2.3,4107*4F
$PMSBATV,052459.30,2,2,-0.96513,0.12013,37.89385,0.000,0.000,0.000,37.75475,0.000*6E,,,
$GPGGA,052459.40,3542.301694018,N,13943.274667411,E,5,11,1.31,25.457,M,36.997,M,2.4,4107*47
$PMSBATV,052459.40,2,2,-0.95975,0.12086,37.89708,-0.000,0.000,0.000,37.75475,0.000*46,,,
$GPGGA,052459.50,3542.301694074,N,13943.274667305,E,5,11,1.31,25.457,M,36.997,M,2.5,4107*4F
$PMSBATV,052459.50,2,2,-0.96420,0.12134,37.89532,0.000,0.000,0.000,37.75475,0.000*67,,,
$GPGGA,052459.60,3542.301694130,N,13943.274667198,E,5,11,1.31,25.457,M,36.997,M,2.6,4107*48
$PMSBATV,052459.60,2,2,-0.95758,0.12454,37.89162,0.000,-0.000,0.000,37.75475,0.000*44,,,
$GPGGA,052459.70,3542.301694234,N,13943.274667155,E,5,11,1.31,25.456,M,36.997,M,2.7,4107*4F
$PMSBATV,052459.70,2,2,-0.95889,0.12610,37.88930,0.000,0.000,-0.000,37.75475,0.000*4A,,,
$GPGGA,052459.80,3542.301694330,N,13943.274667111,E,5,11,1.31,25.456,M,36.997,M,2.8,4107*4A
$PMSBATV,052459.80,2,2,-0.96259,0.12987,37.89083,-0.000,0.000,0.000,37.75475,0.000*40,,,
$GPGGA,052459.90,3542.301694424,N,13943.274667067,E,5,11,1.31,25.455,M,36.997,M,2.9,4107*4B
$PMSBATV,052459.90,2,2,-0.95585,0.13674,37.89179,0.000,0.000,0.000,37.75475,0.000*6F,,,
$GPGGA,052500.00,3542.301694503,N,13943.274667031,E,5,11,1.31,25.455,M,36.997,M,3.0,4107*40
$PMSBATV,052500.00,2,2,-0.95916,0.13433,37.89464,-0.000,0.000,0.000,37.75475,0.000*48,,,
$GPGGA,052500.10,3542.301694575,N,13943.274666987,E,5,11,1.31,25.455,M,36.997,M,3.1,4107*44
$PMSBATV,052500.10,2,2,-0.96255,0.13605,37.89448,-0.000,0.000,-0.000,37.75475,0.000*62,,,
$GPGGA,052500.20,3542.301694649,N,13943.274666948,E,5,11,1.31,25.454,M,36.997,M,3.2,4107*4A
$PMSBATV,052500.20,2,2,-0.96605,0.13915,37.89293,-0.000,-0.000,0.000,37.75475,0.000*6E,,,
$GPGGA,052500.30,3542.301694724,N,13943.274666916,E,5,11,1.31,25.454,M,36.997,M,3.3,4107*4B
$PMSBATV,052500.30,2,2,-0.96138,0.14012,37.89293,0.000,-0.000,0.000,37.75475,0.000*42,,,
$GPGGA,052500.40,3542.301694793,N,13943.274666881,E,5,11,1.31,25.454,M,36.997,M,3.4,4107*48
$PMSBATV,052500.40,2,2,-0.96137,0.14313,37.89504,-0.000,0.000,0.000,37.75475,0.000*41,,,
$GPGGA,052500.50,3542.301694859,N,13943.274666846,E,5,11,1.31,25.453,M,36.997,M,3.5,4107*4D
$PMSBATV,052500.50,2,2,-0.96514,0.13462,37.89338,-0.000,0.000,0.000,37.75475,0.000*4A,,,
$GPGGA,052500.60,3542.301694928,N,13943.274666816,E,5,11,1.31,25.453,M,36.997,M,3.6,4107*4F
$PMSBATV,052500.60,2,2,-0.97114,0.13265,37.89181,0.000,-0.000,0.000,37.75475,0.000*4D,,,
$GPGGA,052500.70,3542.301694995,N,13943.274666788,E,5,11,1.31,25.453,M,36.997,M,3.7,4107*41
$PMSBATV,052500.70,2,2,-0.96735,0.12872,37.89079,-0.000,0.000,0.000,37.75475,0.000*43,,,
$GPGGA,052500.80,3542.301695068,N,13943.274666763,E,5,11,1.31,25.453,M,36.997,M,3.8,4107*4E
$PMSBATV,052500.80,2,2,-0.96462,0.12830,37.89465,0.000,0.000,0.000,37.75475,0.000*6F,,,
$GPGGA,052500.90,3542.301695136,N,13943.274666735,E,5,11,1.31,25.452,M,36.997,M,3.9,4107*46
$PMSBATV,052500.90,2,2,-0.96568,0.12771,37.89510,0.000,-0.000,0.000,37.75475,0.000*41,,,
$GPGGA,052501.00,3542.301695200,N,13943.274666704,E,5,11,1.31,25.452,M,36.997,M,4.0,4107*44
$PMSBATV,052501.00,2,2,-0.96896,0.12558,37.89555,-0.000,0.000,-0.000,37.75475,0.000*60,,,
$GPGGA,052501.10,3542.301695267,N,13943.274666673,E,5,11,1.31,25.452,M,36.997,M,4.1,4107*44
$PMSBATV,052501.10,2,2,-0.96926,0.12927,37.89810,0.000,0.000,0.000,37.75475,0.000*63,,,
$GPGGA,052501.20,3542.301695325,N,13943.274666631,E,5,11,1.31,25.451,M,36.997,M,4.2,4107*46
$PMSBATV,052501.20,2,2,-0.96698,0.12774,37.89720,0.000,0.000,0.000,37.75475,0.000*6E,,,
$GPGGA,052501.30,3542.301695383,N,13943.274666586,E,5,11,1.31,25.451,M,36.997,M,4.3,4107*45
$PMSBATV,052501.30,2,2,-0.96775,0.12902,37.89656,-0.000,0.000,0.000,37.75475,0.000*4F,,,
$GPGGA,052501.40,3542.301695447,N,13943.274666547,E,5,11,1.31,25.451,M,36.997,M,4.4,4107*47
$PMSBATV,052501.40,2,2,-0.96488,0.13254,37.89696,0.000,-0.000,0.000,37.75475,0.000*4C,,,
$GPGGA,052501.50,3542.301695507,N,13943.274666511,E,5,11,1.31,25.451,M,36.997,M,4.5,4107*41
$PMSBATV,052501.50,2,2,-0.97481,0.13402,37.89796,0.000,0.000,0.000,37.75475,0.000*6C,,,
$GPGGA,052501.60,3542.301695568,N,13943.274666469,E,5,11,1.31,25.450,M,36.997,M,4.6,4107*47
$PMSBATV,052501.60,2,2,-0.97739,0.13795,37.89585,-0.000,-0.000,0.000,37.75475,0.000*62,,,
$GPGGA,052501.70,3542.301695623,N,13943.274666430,E,5,11,1.31,25.450,M,36.997,M,4.7,4107*47
$PMSBATV,052501.70,2,2,-0.98302,0.13810,37.89801,-0.000,0.000,-0.000,37.75475,0.000*63,,,
$GPGGA,052501.80,3542.301695676,N,13943.274666395,E,5,11,1.31,25.450,M,36.997,M,4.8,4107*4F
$PMSBATV,052501.80,2,2,-0.98682,0.13822,37.90053,-0.000,0.000,0.000,37.75475,0.000*4A,,,
$GPGGA,052501.90,3542.301695726,N,13943.274666367,E,5,11,1.31,25.450,M,36.997,M,4.9,4107*46
$PMSBATV,052501.90,2,2,-0.98884,0.13796,37.90375,-0.000,0.000,0.000,37.75475,0.000*44,,,
$GPGGA,052502.00,3542.301695779,N,13943.274666332,E,5,11,1.31,25.449,M,36.997,M,5.0,4107*46
$PMSBATV,052502.00,2,2,-0.98618,0.13424,37.90118,-0.000,-0.000,0.000,37.75475,0.000*6B,,,
$GPGGA,052502.10,3542.301695832,N,13943.274666293,E,5,11,1.31,25.449,M,36.997,M,5.1,4107*4C
$PMSBATV,052502.10,2,2,-0.98886,0.13900,37.90284,-0.000,-0.000,0.000,37.75475,0.000*6E,,,
$GPGGA,052502.20,3542.301695883,N,13943.274666254,E,5,11,1.31,25.449,M,36.997,M,5.2,4107*4D
$PMSBATV,052502.20,2,2,-0.98322,0.14121,37.90189,-0.000,0.000,0.000,37.75475,0.000*47,,,
$GPGGA,052502.30,3542.301695929,N,13943.274666222,E,5,11,1.31,25.449,M,36.997,M,5.3,4107*4D
$PMSBATV,052502.30,2,2,-0.98403,0.13802,37.90426,-0.000,-0.000,0.000,37.75475,0.000*60,,,
$GPGGA,052502.40,3542.301695980,N,13943.274666187,E,5,11,1.31,25.448,M,36.997,M,5.4,4107*43
$PMSBATV,052502.40,2,2,-0.98474,0.13644,37.89946,-0.000,-0.000,-0.000,37.75475,0.000*45,,,
$GPGGA,052502.50,3542.301696023,N,13943.274666164,E,5,11,1.31,25.448,M,36.997,M,5.5,4107*4D
$PMSBATV,052502.50,2,2,-0.98875,0.13437,37.89547,-0.000,0.000,-0.000,37.75475,0.000*6F,,,
$GPGGA,052502.60,3542.301696066,N,13943.274666148,E,5,11,1.31,25.448,M,36.997,M,5.6,4107*42
$PMSBATV,052502.60,2,2,-0.98808,0.13122,37.89338,0.000,0.000,-0.000,37.75475,0.000*44,,,
$GPGGA,052502.70,3542.301696113,N,13943.274666129,E,5,11,1.31,25.448,M,36.997,M,5.7,4107*46
$PMSBATV,052502.70,2,2,-0.98562,0.13115,37.89452,0.000,0.000,-0.000,37.75475,0.000*4B,,,
$GPGGA,052502.80,3542.301696152,N,13943.274666111,E,5,11,1.31,25.448,M,36.997,M,5.8,4107*48
$PMSBATV,052502.80,2,2,-0.99293,0.13441,37.89694,-0.000,0.000,-0.000,37.75475,0.000*6D,,,
$GPGGA,052502.90,3542.301696172,N,13943.274666070,E,5,11,1.31,25.447,M,36.997,M,5.9,4107*43
$PMSBATV,052502.90,2,2,-0.99651,0.13158,37.89720,-0.000,0.000,-0.000,37.75475,0.000*65,,,
$GPGGA,052503.00,3542.301696196,N,13943.274666034,E,5,11,1.31,25.447,M,36.997,M,6.0,4107*4B
$PMSBATV,052503.00,2,2,-0.99587,0.13504,37.89954,0.000,0.000,-0.000,37.75475,0.000*48,,,
$GPGGA,052503.10,3542.301696224,N,13943.274665989,E,5,11,1.31,25.447,M,36.997,M,1.1,4107*4A
$PMSBATV,052503.10,2,2,-0.98435,0.13339,37.90017,0.000,-0.000,-0.000,37.75475,0.000*63,,,
$GPGGA,052503.20,3542.301696234,N,13943.274665942,E,5,11,1.31,25.447,M,36.997,M,1.2,4107*4C
$PMSBATV,052503.20,2,2,-0.98473,0.13840,37.89414,-0.000,-0.000,-0.000,37.75475,0.000*45,,,
$GPGGA,052503.30,3542.301696267,N,13943.274665924,E,5,11,1.31,25.446,M,36.997,M,1.3,4107*4B
$PMSBATV,052503.30,2,2,-0.98852,0.13481,37.89452,-0.000,0.000,0.000,37.75475,0.000*48,,,
$GPGGA,052503.40,3542.301696301,N,13943.274665901,E,5,11,1.31,25.446,M,36.997,M,1.4,4107*4D
$PMSBATV,052503.40,2,2,-0.98644,0.13484,37.89493,-0.000,-0.000,0.000,37.75475,0.000*63,,,
$GPGGA,052503.50,3542.301696334,N,13943.274665885,E,5,11,1.31,25.446,M,36.997,M,1.5,4107*46
$PMSBATV,052503.50,2,2,-0.98923,0.13787,37.89973,0.000,-0.000,0.000,37.75475,0.000*42,,,
$GPGGA,052503.60,3542.301696369,N,13943.274665868,E,5,11,1.31,25.446,M,36.997,M,1.6,4107*4D
$PMSBATV,052503.60,2,2,-0.98345,0.13702,37.90056,-0.000,-0.000,0.000,37.75475,0.000*6D,,,
$GPGGA,052503.70,3542.301696400,N,13943.274665862,E,5,11,1.31,25.446,M,36.997,M,1.7,4107*4F
$PMSBATV,052503.70,2,2,-0.98777,0.13939,37.90083,0.000,0.000,-0.000,37.75475,0.000*4A,,,
$GPGGA,052503.80,3542.301696415,N,13943.274665829,E,5,11,1.31,25.445,M,36.997,M,1.8,4107*47
$PMSBATV,052503.80,2,2,-0.99189,0.14186,37.90120,0.000,0.000,0.000,37.75475,0.000*6D,,,
$GPGGA,052503.90,3542.301696446,N,13943.274665822,E,5,11,1.31,25.445,M,36.997,M,1.9,4107*4A
$PMSBATV,052503.90,2,2,-0.99131,0.14137,37.89838,-0.000,-0.000,0.000,37.75475,0.000*6D,,,
$GPGGA,052504.00,3542.301696472,N,13943.274665810,E,5,11,1.31,25.445,M,36.997,M,2.0,4107*48
$PMSBATV,052504.00,2,2,-0.99128,0.13903,37.89289,-0.000,-0.000,-0.000,37.75475,0.000*4E,,,
$GPGGA,052504.10,3542.301696503,N,13943.274665807,E,5,11,1.31,25.445,M,36.997,M,2.1,4107*49
$PMSBATV,052504.10,2,2,-0.99553,0.13911,37.89583,0.000,0.000,0.000,37.75475,0.000*64,,,
$GPGGA,052504.20,3542.301696533,N,13943.274665804,E,5,11,1.31,25.445,M,36.997,M,2.2,4107*49
$PMSBATV,052504.20,2,2,-0.99921,0.14310,37.89628,0.000,-0.000,0.000,37.75475,0.000*4D,,,
$GPGGA,052504.30,3542.301696567,N,13943.274665794,E,5,11,1.31,25.445,M,36.997,M,2.3,4107*4E
$PMSBATV,052504.30,2,2,-0.99119,0.14246,37.89493,0.000,-0.000,0.000,37.75475,0.000*4F,,,
$GPGGA,052504.40,3542.301696593,N,13943.274665786,E,5,11,1.31,25.444,M,36.997,M,2.4,4107*47
$PMSBATV,052504.40,2,2,-0.98501,0.14261,37.89283,-0.000,-0.000,0.000,37.75475,0.000*6B,,,
$GPGGA,052504.50,3542.301696619,N,13943.274665785,E,5,11,1.31,25.444,M,36.997,M,2.5,4107*45
$PMSBATV,052504.50,2,2,-0.98670,0.13851,37.88715,-0.000,-0.000,0.000,37.75475,0.000*6A,,,
$GPGGA,052504.60,3542.301696639,N,13943.274665772,E,5,11,1.31,25.444,M,36.997,M,2.6,4107*4F
$PMSBATV,052504.60,2,2,-0.98991,0.13837,37.88701,-0.000,-0.000,0.000,37.75475,0.000*6C,,,
$GPGGA,052504.70,3542.301696662,N,13943.274665761,E,5,11,1.31,25.444,M,36.997,M,2.7,4107*43
$PMSBATV,052504.70,2,2,-0.98910,0.13643,37.88662,-0.000,0.000,0.000,37.75475,0.000*40,,,
$GPGGA,052504.80,3542.301696686,N,13943.274665750,E,5,11,1.31,25.444,M,36.997,M,2.8,4107*4B
$PMSBATV,052504.80,2,2,-0.99009,0.13672,37.88510,0.000,-0.000,0.000,37.75475,0.000*4B,,,
$GPGGA,052504.90,3542.301696707,N,13943.274665740,E,5,11,1.31,25.444,M,36.997,M,2.9,4107*42
$PMSBATV,052504.90,2,2,-0.99368,0.13417,37.88565,-0.000,0.000,0.000,37.75475,0.000*4D,,,
$GPGGA,052505.00,3542.301696733,N,13943.274665731,E,5,11,1.31,25.443,M,36.997,M,3.0,4107*44
$PMSBATV,052505.00,2,2,-0.99069,0.13490,37.88473,0.000,0.000,0.000,37.75475,0.000*63,,,
$GPGGA,052505.10,3542.301696756,N,13943.274665725,E,5,11,1.31,25.443,M,36.997,M,3.1,4107*42
$PMSBATV,052505.10,2,2,-0.99442,0.13638,37.88558,0.000,0.000,0.000,37.75475,0.000*67,,,
$GPGGA,052505.20,3542.301696779,N,13943.274665706,E,5,11,1.31,25.443,M,36.997,M,3.2,4107*4E
$PMSBATV,052505.20,2,2,-0.98586,0.13905,37.88647,-0.000,-0.000,-0.000,37.75475,0.000*4D,,,
$GPGGA,052505.30,3542.301696797,N,13943.274665692,E,5,11,1.31,25.443,M,36.997,M,3.3,4107*42
$PMSBATV,052505.30,2,2,-0.98825,0.13332,37.89230,-0.000,-0.000,0.000,37.75475,0.000*6E,,,
$GPGGA,052505.40,3542.301696818,N,13943.274665684,E,5,11,1.31,25.443,M,36.997,M,3.4,4107*4D
$PMSBATV,052505.40,2,2,-0.99130,0.13640,37.89215,0.000,-0.000,-0.000,37.75475,0.000*62,,,
$GPGGA,052505.50,3542.301696842,N,13943.274665671,E,5,11,1.31,25.443,M,36.997,M,3.5,4107*48
$PMSBATV,052505.50,2,2,-0.99314,0.13387,37.89361,0.000,-0.000,0.000,37.75475,0.000*46,,,
$GPGGA,052505.60,3542.301696862,N,13943.274665661,E,5,11,1.31,25.443,M,36.997,M,3.6,4107*4B
$PMSBATV,052505.60,2,2,-0.99463,0.13620,37.89396,0.000,-0.000,-0.000,37.75475,0.000*6F,,,
$GPGGA,052505.70,3542.301696886,N,13943.274665653,E,5,11,1.31,25.443,M,36.997,M,3.7,4107*40
$PMSBATV,052505.70,2,2,-0.99225,0.13927,37.89237,0.000,-0.000,0.000,37.75475,0.000*45,,,
$GPGGA,052505.80,3542.301696905,N,13943.274665641,E,5,11,1.31,25.442,M,36.997,M,3.8,4107*48
$PMSBATV,052505.80,2,2,-0.99440,0.13803,37.89403,-0.000,-0.000,0.000,37.75475,0.000*64,,,
$GPGGA,052505.90,3542.301696924,N,13943.274665626,E,5,11,1.31,25.442,M,36.997,M,3.9,4107*4A
$PMSBATV,052505.90,2,2,-0.99127,0.13293,37.89549,-0.000,-0.000,0.000,37.75475,0.000*6D,,,
$GPGGA,052506.00,3542.301696938,N,13943.274665621,E,5,11,1.31,25.442,M,36.997,M,4.0,4107*44
$PMSBATV,052506.00,2,2,-0.99647,0.12878,37.89790,0.000,0.000,0.000,37.75475,0.000*6E,,,
$GPGGA,052506.10,3542.301696956,N,13943.274665618,E,5,11,1.31,25.442,M,36.997,M,4.1,4107*46
$PMSBATV,052506.10,2,2,-0.99815,0.12774,37.89716,0.000,-0.000,0.000,37.75475,0.000*46,,,
$GPGGA,052506.20,3542.301696974,N,13943.274665606,E,5,11,1.31,25.442,M,36.997,M,4.2,4107*49
$PMSBATV,052506.20,2,2,-0.99478,0.12595,37.89247,0.000,0.000,0.000,37.75475,0.000*63,,,
$GPGGA,052506.30,3542.301696989,N,13943.274665593,E,5,11,1.31,25.442,M,36.997,M,4.3,4107*44
$PMSBATV,052506.30,2,2,-0.99855,0.12404,37.89198,-0.000,-0.000,-0.000,37.75475,0.000*44,,,
$GPGGA,052506.40,3542.301697003,N,13943.274665583,E,5,11,1.31,25.442,M,36.997,M,4.4,4107*4F
$PMSBATV,052506.40,2,2,-0.99522,0.12190,37.89541,-0.000,0.000,-0.000,37.75475,0.000*6B,,,
$GPGGA,052506.50,3542.301697010,N,13943.274665553,E,5,11,1.31,25.442,M,36.997,M,4.5,4107*40
$PMSBATV,052506.50,2,2,-0.99147,0.12590,37.89951,0.000,-0.000,0.000,37.75475,0.000*49,,,
$GPGGA,052506.60,3542.301697014,N,13943.274665528,E,5,11,1.31,25.441,M,36.997,M,4.6,4107*4B
$PMSBATV,052506.60,2,2,-0.99097,0.13137,37.90398,0.000,0.000,0.000,37.75475,0.000*64,,,
$GPGGA,052506.70,3542.301697014,N,13943.274665508,E,5,11,1.31,25.441,M,36.997,M,4.7,4107*49
$PMSBATV,052506.70,2,2,-0.99507,0.13560,37.89912,0.000,0.000,-0.000,37.75475,0.000*42,,,
$GPGGA,052506.80,3542.301697011,N,13943.274665491,E,5,11,1.31,25.441,M,36.997,M,4.8,4107*4D
$PMSBATV,052506.80,2,2,-0.99923,0.13879,37.90104,0.000,0.000,-0.000,37.75475,0.000*45,,,
$GPGGA,052506.90,3542.301697013,N,13943.274665477,E,5,11,1.31,25.441,M,36.997,M,4.9,4107*47
$PMSBATV,052506.90,2,2,-0.99312,0.14090,37.90346,0.000,-0.000,0.000,37.75475,0.000*40,,,
$GPGGA,052507.00,3542.301697010,N,13943.274665461,E,5,11,1.31,25.441,M,36.997,M,5.0,4107*43
$PMSBATV,052507.00,2,2,-0.99307,0.14235,37.90094,-0.000,0.000,-0.000,37.75475,0.000*60,,,
$GPGGA,052507.10,3542.301697009,N,13943.274665444,E,5,11,1.31,25.441,M,36.997,M,5.1,4107*4C
$PMSBATV,052507.10,2,2,-0.99182,0.14584,37.90124,-0.000,0.000,0.000,37.75475,0.000*44,,,
$GPGGA,052507.20,3542.301697007,N,13943.274665429,E,5,11,1.31,25.441,M,36.997,M,5.2,4107*49
$PMSBATV,052507.20,2,2,-0.99494,0.14373,37.89576,-0.000,-0.000,0.000,37.75475,0.000*6D,,,
$GPGGA,052507.30,3542.301697007,N,13943.274665414,E,5,11,1.31,25.440,M,36.997,M,5.3,4107*46
$PMSBATV,052507.30,2,2,-0.99478,0.14236,37.89425,0.000,-0.000,0.000,37.75475,0.000*44,,,
$GPGGA,052507.40,3542.301697000,N,13943.274665396,E,5,11,1.31,25.440,M,36.997,M,5.4,4107*4C
$PMSBATV,052507.40,2,2,-0.99579,0.14070,37.89492,-0.000,0.000,0.000,37.75475,0.000*4F,,,
$GPGGA,052507.50,3542.301696997,N,13943.274665379,E,5,11,1.31,25.440,M,36.997,M,5.5,4107*4B
$PMSBATV,052507.50,2,2,-1.00103,0.13462,37.88835,-0.000,0.000,-0.000,37.75475,0.000*6B,,,
$GPGGA,052507.60,3542.301697001,N,13943.274665357,E,5,11,1.31,25.440,M,36.997,M,5.6,4107*40
$PMSBATV,052507.60,2,2,-0.99657,0.13206,37.88422,0.000,-0.000,0.000,37.75475,0.000*4C,,,
$GPGGA,052507.70,3542.301696997,N,13943.274665331,E,5,11,1.31,25.440,M,36.997,M,5.7,4107*47
$PMSBATV,052507.70,2,2,-0.99640,0.12992,37.88731,-0.000,-0.000,-0.000,37.75475,0.000*4D,,,
$GPGGA,052507.80,3542.301697000,N,13943.274665318,E,5,11,1.31,25.440,M,36.997,M,5.8,4107*4A
$PMSBATV,052507.80,2,2,-0.99147,0.12964,37.88695,0.000,-0.000,-0.000,37.75475,0.000*69,,,
$GPGGA,052507.90,3542.301697002,N,13943.274665306,E,5,11,1.31,25.440,M,36.997,M,5.9,4107*47
$PMSBATV,052507.90,2,2,-0.99189,0.12524,37.88700,0.000,-0.000,-0.000,37.75475,0.000*6F,,,
$GPGGA,052508.00,3542.301696998,N,13943.274665280,E,5,11,1.31,25.440,M,36.997,M,6.0,4107*4F
$PMSBATV,052508.00,2,2,-0.98598,0.11710,37.88121,-0.000,0.000,0.000,37.75475,0.000*42,,,
$GPGGA,052508.10,3542.301696991,N,13943.274665259,E,5,11,1.31,25.439,M,36.997,M,6.1,4107*4C
$PMSBATV,052508.10,2,2,-1.00057,0.11585,37.88362,-0.001,0.000,0.000,37.75475,0.000*4F,,,
$GPGGA,052508.20,3542.301696989,N,13943.274665238,E,5,11,1.31,25.439,M,36.997,M,6.2,4107*42
$PMSBATV,052508.20,2,2,-0.98625,0.11985,37.87915,0.000,0.000,-0.000,37.75475,0.000*47,,,
$GPGGA,052508.30,3542.301697002,N,13943.274665212,E,5,11,1.31,25.439,M,36.997,M,6.3,4107*41
$PMSBATV,052508.30,2,2,-0.98254,0.12033,37.88009,0.000,-0.000,0.000,37.75475,0.000*48,,,
$GPGGA,052508.40,3542.301697009,N,13943.274665198,E,5,11,1.31,25.439,M,36.997,M,6.4,4107*4B
$PMSBATV,052508.40,2,2,-0.98990,0.12534,37.87807,0.001,0.000,-0.000,37.75475,0.000*46,,,
$GPGGA,052508.50,3542.301697006,N,13943.274665172,E,5,11,1.31,25.439,M,36.997,M,6.5,4107*40
$PMSBATV,052508.50,2,2,-0.98517,0.13115,37.87623,-0.001,-0.000,0.000,37.75475,0.000*67,,,
$GPGGA,052508.60,3542.301697010,N,13943.274665134,E,5,11,1.31,25.439,M,36.997,M,6.6,4107*45
$PMSBATV,052508.60,2,2,-0.97591,0.12561,37.87281,0.000,-0.000,0.000,37.75475,0.000*43,,,
$GPGGA,052508.70,3542.301697062,N,13943.274665157,E,5,11,1.31,25.439,M,36.997,M,6.7,4107*45
$PMSBATV,052508.70,2,2,-0.98330,0.16348,37.88392,0.002,-0.000,0.000,37.75475,0.000*47,,,
$GPGGA,052508.80,3542.301697058,N,13943.274665153,E,5,11,1.31,25.438,M,36.997,M,6.8,4107*49
$PMSBATV,052508.80,2,2,-0.97462,0.18101,37.90774,0.000,-0.000,0.000,37.75475,0.000*41,,,
$GPGGA,052508.90,3542.301697055,N,13943.274665140,E,5,11,1.31,25.438,M,36.997,M,6.9,4107*46
$PMSBATV,052508.90,2,2,-0.97057,0.18150,37.92865,0.001,-0.000,-0.000,37.75475,0.000*67,,,
$GPGGA,052509.00,3542.301697112,N,13943.274665202,E,5,11,1.31,25.438,M,36.997,M,7.0,4107*41
$PMSBATV,052509.00,2,2,-0.99589,0.24543,37.95413,0.004,0.000,-0.000,37.75475,0.000*4C,,,
$GPGGA,052509.10,3542.301697168,N,13943.274665244,E,5,11,1.31,25.438,M,36.997,M,2.1,4107*4B
$PMSBATV,052509.10,2,2,-1.01718,0.30354,38.01405,0.003,-0.000,0.000,37.75475,0.000*40,,,
$GPGGA,052509.20,3542.301697240,N,13943.274665315,E,5,11,1.31,25.438,M,36.997,M,2.2,4107*47
$PMSBATV,052509.20,2,2,-1.03176,0.37331,38.09370,0.002,0.000,-0.000,37.75475,0.000*47,,,
$GPGGA,052509.30,3542.301697760,N,13943.274665739,E,5,11,1.31,25.438,M,36.997,M,2.3,4107*4A
$PMSBATV,052509.30,2,2,-1.00529,0.35775,38.20860,0.031,0.005,-0.005,37.75475,0.000*4C,,,
$GPGGA,052509.40,3542.301697649,N,13943.274665695,E,5,11,1.31,25.438,M,36.997,M,2.4,4107*47
$PMSBATV,052509.40,2,2,-1.03699,0.51738,38.33091,0.004,-0.000,0.000,37.75475,0.000*49,,,
$GPGGA,052509.50,3542.301697692,N,13943.274665730,E,5,11,1.31,25.438,M,36.997,M,2.5,4107*4F
$PMSBATV,052509.50,2,2,-1.04582,0.61162,38.45407,0.004,0.000,0.000,37.75475,0.000*6B,,,
$GPGGA,052509.60,3542.301698170,N,13943.274666200,E,5,11,1.31,25.438,M,36.997,M,2.6,4107*4E
$PMSBATV,052509.60,2,2,-1.02992,0.59646,38.61407,0.029,0.004,-0.007,37.75475,0.000*4E,,,
$GPGGA,052509.70,3542.301699892,N,13943.274668348,E,5,11,1.31,25.439,M,36.997,M,2.7,4107*48
$PMSBATV,052509.70,2,2,-0.98987,0.57876,38.76704,0.077,0.011,-0.015,37.75475,0.000*40,,,
$GPGGA,052509.80,3542.301703981,N,13943.274674018,E,5,11,1.31,25.441,M,36.997,M,2.8,4107*4D
$PMSBATV,052509.80,2,2,-0.95551,0.57891,38.89371,0.119,0.015,-0.017,37.75475,0.000*45,,,
$GPGGA,052509.90,3542.301709996,N,13943.274681579,E,5,11,1.31,25.442,M,36.997,M,2.9,4107*4A
$PMSBATV,052509.90,2,2,-0.90097,0.58481,38.97881,0.158,0.022,-0.003,37.75475,0.000*43,,,
$GPGGA,052510.00,3542.301716720,N,13943.274690937,E,5,11,1.31,25.443,M,36.997,M,3.0,4107*49
$PMSBATV,052510.00,2,2,-0.89143,0.48608,39.03751,0.210,0.028,-0.017,37.75475,0.000*4E,,,
$GPGGA,052510.10,3542.301727776,N,13943.274705389,E,5,12,1.05,25.444,M,36.997,M,3.1,4107*49
$PMSBATV,052510.10,2,2,-0.94019,0.41380,39.08531,0.255,0.028,0.008,37.75475,0.000*6C,,,
$GPGGA,052510.20,3542.301739282,N,13943.274719628,E,5,12,1.05,25.438,M,36.997,M,3.2,4107*40
$PMSBATV,052510.20,2,2,-0.90543,0.42322,39.13183,0.278,0.033,0.007,45.96069,0.282*6E,,,
$GPGGA,052510.30,3542.301750033,N,13943.274733179,E,5,12,1.05,25.441,M,36.997,M,3.3,4107*42
$PMSBATV,052510.30,2,2,-0.79785,0.40718,39.17028,0.293,0.055,-0.005,44.95990,0.299*46,,,
$GPGGA,052510.40,3542.301757804,N,13943.274751514,E,5,11,1.15,25.441,M,36.997,M,3.4,4107*40
$PMSBATV,052510.40,2,2,-0.97617,0.37097,39.21191,0.339,0.056,0.025,49.20539,0.328*67,,,
$GPGGA,052510.50,3542.301772655,N,13943.274771184,E,5,12,1.05,25.433,M,36.997,M,3.5,4107*45
$PMSBATV,052510.50,2,2,-1.22256,0.39788,39.26702,0.375,0.048,0.033,49.92986,0.379*61,,,
$GPGGA,052510.60,3542.301790016,N,13943.274786707,E,5,12,1.05,25.433,M,36.997,M,3.6,4107*4D
$PMSBATV,052510.60,2,2,-1.27364,0.33951,39.29610,0.376,0.029,0.051,46.52634,0.385*6C,,,
$GPGGA,052510.70,3542.301806860,N,13943.274801689,E,5,12,1.05,25.424,M,36.997,M,3.7,4107*45
$PMSBATV,052510.70,2,2,-1.12186,0.32468,39.30522,0.414,0.042,0.047,44.06763,0.415*6E,,,
$GPGGA,052510.80,3542.301822274,N,13943.274823292,E,5,12,1.05,25.420,M,36.997,M,3.8,4107*46
$PMSBATV,052510.80,2,2,-1.01540,0.33427,39.35480,0.428,0.054,0.025,44.83771,0.424*6B,,,
$GPGGA,052510.90,3542.301837401,N,13943.274846603,E,5,12,1.05,25.423,M,36.997,M,3.9,4107*4A
$PMSBATV,052510.90,2,2,-1.09651,0.26100,39.35469,0.417,0.064,0.039,46.74502,0.418*63,,,
$GPGGA,052511.00,3542.301851964,N,13943.274869739,E,5,11,1.31,25.414,M,36.997,M,4.0,4107*47
$PMSBATV,052511.00,2,2,-1.22769,0.21754,39.35759,0.444,0.046,0.055,47.25165,0.437*69,,,
$GPGGA,052511.10,3542.301871891,N,13943.274890474,E,5,11,1.31,25.403,M,36.997,M,4.1,4107*44
$PMSBATV,052511.10,2,2,-1.20324,0.19411,39.19313,0.383,0.053,0.057,48.20974,0.401*67,,,
$GPGGA,052511.20,3542.301884052,N,13943.274905247,E,5,11,1.31,25.396,M,36.997,M,4.2,4107*49
$PMSBATV,052511.20,2,2,-1.10509,0.03382,39.10432,0.355,0.052,0.068,47.21057,0.333*63,,,
$GPGGA,052511.30,3542.301900100,N,13943.274927621,E,5,11,1.31,25.378,M,36.997,M,4.3,4107*46
$PMSBATV,052511.30,2,2,-0.96863,-0.06332,38.98917,0.343,0.087,0.083,49.28202,0.322*4B,,,
$GPGGA,052511.40,3542.301911894,N,13943.274955976,E,5,12,1.05,25.360,M,36.997,M,4.4,4107*47
$PMSBATV,052511.40,2,2,-0.96993,0.00551,38.89796,0.279,0.096,0.081,55.81564,0.335*68,,,
$GPGGA,052511.50,3542.301914209,N,13943.274968295,E,5,12,1.05,25.352,M,36.997,M,4.5,4107*45
$PMSBATV,052511.50,2,2,-1.16634,-0.00805,38.78763,0.263,0.055,0.048,58.31709,0.303*4C,,,
$GPGGA,052511.60,3542.301926529,N,13943.274972910,E,5,11,1.31,25.362,M,36.997,M,4.6,4107*4B
$PMSBATV,052511.60,2,2,-1.28237,-0.05811,38.72078,0.274,0.034,0.036,58.31709,0.000*4A,,,
$GPGGA,052511.70,3542.301940607,N,13943.274984348,E,5,11,1.31,25.361,M,36.997,M,4.7,4107*49
$PMSBATV,052511.70,2,2,-1.36591,-0.02895,38.59597,0.280,0.029,0.050,45.50870,0.295*4A,,,
$GPGGA,052511.80,3542.301950744,N,13943.274996087,E,5,11,1.31,25.350,M,36.997,M,4.8,4107*4F
$PMSBATV,052511.80,2,2,-1.33928,-0.00896,38.47744,0.320,0.011,0.061,44.25877,0.330*44,,,
$GPGGA,052511.90,3542.301967031,N,13943.275007432,E,5,11,1.31,25.346,M,36.997,M,4.9,4107*43
$PMSBATV,052511.90,2,2,-1.24922,0.01564,38.35391,0.340,0.016,0.060,40.15805,0.356*6E,,,
$GPGGA,052512.00,3542.301978653,N,13943.275022193,E,5,11,1.31,25.334,M,36.997,M,5.0,4107*41
$PMSBATV,052512.00,2,2,-1.29839,-0.02045,38.25850,0.385,0.007,0.038,40.27972,0.377*4A,,,
$GPGGA,052512.10,3542.301998500,N,13943.275040026,E,5,11,1.31,25.340,M,36.997,M,5.1,4107*42
$PMSBATV,052512.10,2,2,-1.28787,-0.03134,38.11850,0.434,-0.006,0.034,39.41011,0.417*6F,,,
$GPGGA,052512.20,3542.302022604,N,13943.275058198,E,5,11,1.31,25.340,M,36.997,M,5.2,4107*43
$PMSBATV,052512.20,2,2,-1.10808,0.04769,38.04613,0.430,0.016,0.038,36.74418,0.454*61,,,
$GPGGA,052512.30,3542.302033345,N,13943.275078174,E,5,11,1.31,25.331,M,36.997,M,5.3,4107*45
$PMSBATV,052512.30,2,2,-1.13047,0.08540,37.96851,0.451,0.031,0.019,38.99450,0.453*6E,,,
$GPGGA,052512.40,3542.302049098,N,13943.275102215,E,5,11,1.31,25.335,M,36.997,M,5.4,4107*47
$PMSBATV,052512.40,2,2,-1.32878,0.09006,37.87751,0.487,0.008,0.033,41.39630,0.471*6E,,,
$GPGGA,052512.50,3542.302074829,N,13943.275122710,E,5,11,1.31,25.325,M,36.997,M,5.5,4107*48
$PMSBATV,052512.50,2,2,-1.29076,0.15166,37.71048,0.498,0.008,0.042,39.96328,0.507*61,,,
$GPGGA,052512.60,3542.302095746,N,13943.275140928,E,5,11,1.31,25.315,M,36.997,M,5.6,4107*43
$PMSBATV,052512.60,2,2,-1.12040,0.14082,37.49575,0.512,0.029,0.025,38.01589,0.518*68,,,
$GPGGA,052512.70,3542.302113391,N,13943.275166824,E,5,11,1.31,25.312,M,36.997,M,5.7,4107*4C
$PMSBATV,052512.70,2,2,-1.23974,0.20078,37.28056,0.505,0.016,0.022,40.06776,0.525*6D,,,
$GPGGA,052512.80,3542.302132575,N,13943.275184820,E,5,11,1.31,25.314,M,36.997,M,5.8,4107*4D
$PMSBATV,052512.80,2,2,-1.30329,0.12809,37.07291,0.558,-0.001,0.062,39.46634,0.538*4F,,,
$GPGGA,052512.90,3542.302163305,N,13943.275208115,E,5,11,1.31,25.298,M,36.997,M,5.9,4107*45
$PMSBATV,052512.90,2,2,-1.24662,0.10842,36.94629,0.582,0.013,0.024,37.28222,0.577*65,,,
$GPGGA,052513.00,3542.302187959,N,13943.275234833,E,5,11,1.31,25.300,M,36.997,M,6.0,4107*4C
$PMSBATV,052513.00,2,2,-1.31686,0.25011,36.91585,0.553,0.019,-0.002,38.52147,0.581*4F,,,
$GPGGA,052513.10,3542.302206301,N,13943.275255442,E,5,11,1.31,25.306,M,36.997,M,6.1,4107*4A
$PMSBATV,052513.10,2,2,-1.40924,0.29351,36.97419,0.579,0.013,0.045,39.47026,0.576*61,,,
$GPGGA,052513.20,3542.302233013,N,13943.275280412,E,5,11,1.31,25.291,M,36.997,M,6.2,4107*4E
$PMSBATV,052513.20,2,2,-1.25200,0.35529,37.04721,0.599,0.037,0.031,38.88291,0.605*6B,,,
$GPGGA,052513.30,3542.302255055,N,13943.275309370,E,5,11,1.31,25.293,M,36.997,M,6.3,4107*4D
$PMSBATV,052513.30,2,2,-1.02664,0.41519,37.06328,0.603,0.073,0.070,40.64785,0.612*68,,,
$GPGGA,052513.40,3542.302273034,N,13943.275343752,E,5,11,1.31,25.276,M,36.997,M,6.4,4107*4F
$PMSBATV,052513.40,2,2,-1.14078,0.27188,37.11616,0.660,0.075,0.023,44.59616,0.619*6E,,,
$GPGGA,052513.50,3542.302309907,N,13943.275382184,E,5,10,2.02,25.293,M,36.997,M,6.5,4107*43
$PMSBATV,052513.50,2,2,-1.43592,0.39747,37.16663,0.638,0.044,0.002,43.62398,0.675*69,,,
$GPGGA,052513.60,3542.302332818,N,13943.275402141,E,5,10,2.02,25.288,M,36.997,M,6.6,4107*48
$PMSBATV,052513.60,2,2,-1.55164,0.38199,37.45056,0.640,0.049,0.040,42.59156,0.644*6D,,,
$GPGGA,052513.70,3542.302359209,N,13943.275431465,E,5,10,2.02,25.270,M,36.997,M,6.7,4107*4B
$PMSBATV,052513.70,2,2,-1.41016,0.44308,37.82906,0.670,0.053,0.037,42.84549,0.676*68,,,
$GPGGA,052513.80,3542.302386907,N,13943.275462276,E,5,10,2.02,25.270,M,36.997,M,6.8,4107*4E
$PMSBATV,052513.80,2,2,-1.35945,0.60699,38.16240,0.654,0.072,0.057,42.09882,0.685*6B,,,
$GPGGA,052513.90,3542.302403940,N,13943.275494308,E,5,10,2.02,25.257,M,36.997,M,6.9,4107*43
$PMSBATV,052513.90,2,2,-1.46251,0.68125,38.47570,0.670,0.076,0.085,44.28207,0.673*6E,,,
$GPGGA,052514.00,3542.302429023,N,13943.275531355,E,5,10,2.02,25.234,M,36.997,M,7.0,4107*42
$PMSBATV,052514.00,2,2,-1.40339,0.76948,38.48476,0.707,0.060,0.072,44.92964,0.718*60,,,
$GPGGA,052514.10,3542.302459190,N,13943.275562197,E,5,10,2.02,25.238,M,36.997,M,2.1,3107*48
$PMSBATV,052514.10,2,2,-1.34176,0.85140,38.34582,0.670,0.071,0.091,42.80702,0.697*67,,,
$GPGGA,052514.20,3542.302479558,N,13943.275595707,E,5,10,2.02,25.215,M,36.997,M,2.2,3107*42
$PMSBATV,052514.20,2,2,-1.65310,0.90543,38.23836,0.691,0.052,0.122,44.14194,0.704*6B,,,
