$GPGGA,051736.70,3542.295759911,N,13943.269275407,E,5,11,1.10,24.837,M,36.997,M,4.7,4107*40
$PMSBATV,051736.70,2,2,-0.22171,-0.36623,-26.79670,0.000,-0.000,-0.000,139.79692,0.000*57,,,
$GPGGA,051736.80,3542.295759900,N,13943.269275437,E,5,11,1.10,24.837,M,36.997,M,4.8,4107*43
$PMSBATV,051736.80,2,2,-0.22830,-0.36188,-26.79559,-0.000,0.000,-0.000,139.79692,0.000*5A,,,
$GPGGA,051736.90,3542.295759888,N,13943.269275457,E,4,14,0.89,24.837,M,36.997,M,4.9,4107*41
$PMSBATV,051736.90,2,2,-0.23227,-0.37031,-26.79388,0.000,0.000,-0.000,139.79692,0.000*73,,,
$GPGGA,051737.00,3542.295759876,N,13943.269275481,E,5,11,1.10,24.837,M,36.997,M,5.0,4107*4E
$PMSBATV,051737.00,2,2,-0.23225,-0.36599,-26.79733,-0.000,-0.000,0.000,139.79692,0.000*56,,,
$GPGGA,051737.10,3542.295759917,N,13943.269275527,E,5,11,1.10,24.837,M,36.997,M,5.1,4107*45
$PMSBATV,051737.10,2,2,-0.23154,-0.36669,-26.79492,0.000,0.000,0.000,139.79692,0.000*56,,,
$GPGGA,051737.20,3542.295759961,N,13943.269275572,E,5,11,1.10,24.837,M,36.997,M,5.2,4107*44
$PMSBATV,051737.20,2,2,-0.23266,-0.36612,-26.78949,0.000,0.000,0.000,139.79692,0.000*51,,,
$GPGGA,051737.30,3542.295760005,N,13943.269275616,E,5,11,1.10,24.837,M,36.997,M,5.3,4107*44
$PMSBATV,051737.30,2,2,-0.23646,-0.35923,-26.77851,0.000,0.000,0.000,139.79692,0.000*5F,,,
$GPGGA,051737.40,3542.295760039,N,13943.269275663,E,5,11,1.10,24.838,M,36.997,M,5.4,4107*46
$PMSBATV,051737.40,2,2,-0.23404,-0.36088,-26.77588,-0.000,-0.000,0.000,139.79692,0.000*5E,,,
$GPGGA,051737.50,3542.295760066,N,13943.269275717,E,5,11,1.10,24.838,M,36.997,M,5.5,4107*4E
$PMSBATV,051737.50,2,2,-0.23872,-0.36456,-26.77628,-0.001,0.000,-0.000,139.79692,0.000*5D,,,
$GPGGA,051737.60,3542.295760108,N,13943.269275765,E,5,11,1.10,24.838,M,36.997,M,5.6,4107*42
$PMSBATV,051737.60,2,2,-0.24043,-0.36408,-26.77874,0.000,0.000,-0.000,139.79692,0.000*73,,,
$GPGGA,051737.70,3542.295760153,N,13943.269275820,E,5,11,1.10,24.838,M,36.997,M,5.7,4107*42
$PMSBATV,051737.70,2,2,-0.24563,-0.35635,-26.77783,0.000,0.000,0.000,139.79692,0.000*50,,,
$GPGGA,051737.80,3542.295760191,N,13943.269275864,E,5,11,1.10,24.838,M,36.997,M,5.8,4107*4C
$PMSBATV,051737.80,2,2,-0.24492,-0.36204,-26.78309,0.000,0.000,0.000,139.79692,0.000*5C,,,
$GPGGA,051737.90,3542.295760231,N,13943.269275911,E,5,11,1.10,24.838,M,36.997,M,5.9,4107*46
$PMSBATV,051737.90,2,2,-0.24570,-0.35897,-26.77952,-0.000,0.000,0.000,139.79692,0.000*75,,,
$GPGGA,051738.00,3542.295760261,N,13943.269275962,E,5,11,1.10,24.839,M,36.997,M,6.0,4107*4A
$PMSBATV,051738.00,2,2,-0.24463,-0.36110,-26.78072,-0.000,-0.000,0.000,139.79692,0.000*5C,,,
$GPGGA,051738.10,3542.295760300,N,13943.269276006,E,5,11,1.10,24.839,M,36.997,M,6.1,4107*44
$PMSBATV,051738.10,2,2,-0.23890,-0.36026,-26.78569,0.000,-0.000,0.000,139.79692,0.000*7C,,,
$GPGGA,051738.20,3542.295760344,N,13943.269276050,E,5,11,1.10,24.839,M,36.997,M,6.2,4107*47
$PMSBATV,051738.20,2,2,-0.24005,-0.35337,-26.78322,0.000,-0.000,0.000,139.79692,0.000*75,,,
$GPGGA,051738.30,3542.295760383,N,13943.269276107,E,5,11,1.10,24.839,M,36.997,M,6.3,4107*4F
$PMSBATV,051738.30,2,2,-0.24625,-0.35856,-26.77631,-0.000,0.000,0.000,139.79692,0.000*74,,,
$GPGGA,051738.40,3542.295760416,N,13943.269276155,E,5,11,1.10,24.839,M,36.997,M,6.4,4107*43
$PMSBATV,051738.40,2,2,-0.24573,-0.35822,-26.77554,-0.000,0.000,0.000,139.79692,0.000*70,,,
$GPGGA,051738.50,3542.295760443,N,13943.269276203,E,4,14,0.89,24.839,M,36.997,M,6.5,4107*46
$PMSBATV,051738.50,2,2,-0.24368,-0.36706,-26.77334,-0.000,-0.000,0.000,139.79692,0.000*5A,,,
$GPGGA,051738.60,3542.295759156,N,13943.269275755,E,4,14,0.89,24.837,M,36.997,M,6.6,4107*46
$PMSBATV,051738.60,2,2,-0.24666,-0.36404,-26.77083,-0.000,-0.000,0.000,139.79692,0.000*5C,,,
$GPGGA,051738.70,3542.295758053,N,13943.269274896,E,5,11,1.10,24.836,M,36.997,M,6.7,4107*46
$PMSBATV,051738.70,2,2,-0.24406,-0.36179,-26.77372,-0.000,-0.000,0.000,139.79692,0.000*5B,,,
$GPGGA,051738.80,3542.295757690,N,13943.269274374,E,5,11,1.10,24.835,M,36.997,M,6.8,4107*44
$PMSBATV,051738.80,2,2,-0.24188,-0.36418,-26.77614,-0.000,0.000,-0.000,139.79692,0.000*50,,,
$GPGGA,051738.90,3542.295757730,N,13943.269274420,E,5,11,1.10,24.835,M,36.997,M,6.9,4107*49
$PMSBATV,051738.90,2,2,-0.24826,-0.36358,-26.77466,-0.000,0.000,-0.000,139.79692,0.000*58,,,
$GPGGA,051739.00,3542.295757768,N,13943.269274469,E,5,11,1.10,24.835,M,36.997,M,7.0,4107*49
$PMSBATV,051739.00,2,2,-0.24518,-0.36420,-26.77524,-0.000,0.000,0.000,139.79692,0.000*72,,,
$GPGGA,051739.10,3542.295757808,N,13943.269274518,E,5,11,1.10,24.835,M,36.997,M,2.1,4107*42
$PMSBATV,051739.10,2,2,-0.24516,-0.36355,-26.77447,-0.000,0.000,0.000,139.79692,0.000*7C,,,
$GPGGA,051739.20,3542.295757798,N,13943.269274534,E,5,11,1.10,24.836,M,36.997,M,2.2,4107*49
$PMSBATV,051739.20,2,2,-0.24550,-0.37110,-26.77600,0.000,-0.000,-0.000,139.79692,0.000*53,,,
$GPGGA,051739.30,3542.295757787,N,13943.269274554,E,5,11,1.10,24.836,M,36.997,M,2.3,4107*41
$PMSBATV,051739.30,2,2,-0.24800,-0.36910,-26.78161,-0.000,-0.000,0.000,139.79692,0.000*5C,,,
$GPGGA,051739.40,3542.295757775,N,13943.269274573,E,5,11,1.10,24.836,M,36.997,M,2.4,4107*49
$PMSBATV,051739.40,2,2,-0.24312,-0.37417,-26.78229,-0.000,0.000,0.000,139.79692,0.000*7A,,,
$GPGGA,051739.50,3542.295757760,N,13943.269274591,E,5,11,1.10,24.836,M,36.997,M,2.5,4107*41
$PMSBATV,051739.50,2,2,-0.24359,-0.37353,-26.78056,-0.000,-0.000,0.000,139.79692,0.000*54,,,
$GPGGA,051739.60,3542.295757749,N,13943.269274608,E,5,11,1.10,24.836,M,36.997,M,2.6,4107*49
$PMSBATV,051739.60,2,2,-0.24059,-0.36993,-26.78030,0.000,-0.000,0.000,139.79692,0.000*7E,,,
$GPGGA,051739.70,3542.295757737,N,13943.269274622,E,5,11,1.10,24.836,M,36.997,M,2.7,4107*48
$PMSBATV,051739.70,2,2,-0.23764,-0.36908,-26.77666,0.000,-0.000,0.000,139.79692,0.000*79,,,
$GPGGA,051739.80,3542.295757723,N,13943.269274635,E,5,11,1.10,24.836,M,36.997,M,2.8,4107*4B
$PMSBATV,051739.80,2,2,-0.23953,-0.37010,-26.77627,0.000,-0.000,0.000,139.79692,0.000*78,,,
$GPGGA,051739.90,3542.295757703,N,13943.269274654,E,5,11,1.10,24.836,M,36.997,M,2.9,4107*4E
$PMSBATV,051739.90,2,2,-0.23538,-0.37348,-26.77683,-0.000,-0.000,0.000,139.79692,0.000*55,,,
$GPGGA,051740.00,3542.295757693,N,13943.269274672,E,5,11,1.10,24.836,M,36.997,M,3.0,4107*4D
$PMSBATV,051740.00,2,2,-0.23053,-0.37141,-26.77438,0.000,-0.000,0.000,139.79692,0.000*7E,,,
$GPGGA,051740.10,3542.295757676,N,13943.269274692,E,5,11,1.10,24.836,M,36.997,M,3.1,4107*48
$PMSBATV,051740.10,2,2,-0.23193,-0.37131,-26.77742,-0.000,0.000,0.000,139.79692,0.000*7B,,,
$GPGGA,051740.20,3542.295757664,N,13943.269274710,E,5,11,1.10,24.836,M,36.997,M,3.2,4107*40
$PMSBATV,051740.20,2,2,-0.23210,-0.36897,-26.78435,0.000,-0.000,0.000,139.79692,0.000*78,,,
$GPGGA,051740.30,3542.295757662,N,13943.269274725,E,5,11,1.10,24.836,M,36.997,M,3.3,4107*40
$PMSBATV,051740.30,2,2,-0.24125,-0.36440,-26.77446,0.000,0.000,0.000,139.79692,0.000*5B,,,
$GPGGA,051740.40,3542.295757639,N,13943.269274761,E,5,11,1.10,24.836,M,36.997,M,3.4,4107*4E
$PMSBATV,051740.40,2,2,-0.23984,-0.37286,-26.78007,-0.000,-0.000,-0.000,139.79692,0.000*76,,,
$GPGGA,051740.50,3542.295757626,N,13943.269274777,E,5,11,1.10,24.836,M,36.997,M,3.5,4107*47
$PMSBATV,051740.50,2,2,-0.23194,-0.36889,-26.77547,-0.000,-0.000,-0.000,139.79692,0.000*74,,,
$GPGGA,051740.60,3542.295757615,N,13943.269274807,E,5,11,1.10,24.836,M,36.997,M,3.6,4107*4F
$PMSBATV,051740.60,2,2,-0.23413,-0.36790,-26.77724,0.000,-0.000,0.000,139.79692,0.000*7D,,,
$GPGGA,051740.70,3542.295757606,N,13943.269274834,E,5,11,1.10,24.837,M,36.997,M,3.7,4107*4C
$PMSBATV,051740.70,2,2,-0.23553,-0.36375,-26.77259,0.000,0.000,-0.000,139.79692,0.000*79,,,
$GPGGA,051740.80,3542.295757591,N,13943.269274866,E,5,11,1.10,24.837,M,36.997,M,3.8,4107*46
$PMSBATV,051740.80,2,2,-0.23697,-0.36751,-26.77440,0.000,-0.000,0.000,139.79692,0.000*71,,,
$GPGGA,051740.90,3542.295757578,N,13943.269274893,E,5,11,1.10,24.837,M,36.997,M,3.9,4107*4B
$PMSBATV,051740.90,2,2,-0.24211,-0.36721,-26.77372,-0.000,0.000,-0.000,139.79692,0.000*51,,,
$GPGGA,051741.00,3542.295757561,N,13943.269274925,E,5,11,1.10,24.837,M,36.997,M,4.0,4107*49
$PMSBATV,051741.00,2,2,-0.24466,-0.36301,-26.77550,-0.000,0.000,0.000,139.79692,0.000*72,,,
$GPGGA,051741.10,3542.295757538,N,13943.269274952,E,5,11,1.10,24.837,M,36.997,M,4.1,4107*45
$PMSBATV,051741.10,2,2,-0.23899,-0.37070,-26.79028,-0.000,-0.000,0.000,139.79692,0.000*55,,,
$GPGGA,051741.20,3542.295757525,N,13943.269274985,E,5,11,1.10,24.837,M,36.997,M,4.2,4107*43
$PMSBATV,051741.20,2,2,-0.23473,-0.37497,-26.80329,-0.000,0.000,0.000,139.79692,0.000*7A,,,
$GPGGA,051741.30,3542.295757525,N,13943.269274997,E,5,11,1.10,24.837,M,36.997,M,4.3,4107*40
$PMSBATV,051741.30,2,2,-0.23405,-0.37323,-26.80277,0.001,-0.000,-0.000,139.79692,0.000*54,,,
$GPGGA,051741.40,3542.295757523,N,13943.269275028,E,4,14,0.89,24.837,M,36.997,M,4.4,4107*4F
$PMSBATV,051741.40,2,2,-0.24849,-0.36419,-26.79967,-0.000,-0.000,0.000,139.79692,0.000*52,,,
$GPGGA,051741.50,3542.295757515,N,13943.269275060,E,4,14,0.89,24.837,M,36.997,M,4.5,4107*46
$PMSBATV,051741.50,2,2,-0.24197,-0.36673,-26.79671,0.000,-0.000,-0.000,139.79692,0.000*5F,,,
$GPGGA,051741.60,3542.295757488,N,13943.269275093,E,5,11,1.10,24.837,M,36.997,M,4.6,4107*4A
$PMSBATV,051741.60,2,2,-0.23216,-0.36766,-26.79393,-0.001,0.000,0.000,139.79692,0.000*71,,,
$GPGGA,051741.70,3542.295757479,N,13943.269275125,E,4,14,0.89,24.837,M,36.997,M,4.7,4107*4D
$PMSBATV,051741.70,2,2,-0.24335,-0.36876,-26.79343,0.000,0.000,0.000,139.79692,0.000*58,,,
$GPGGA,051741.80,3542.295757468,N,13943.269275149,E,4,14,0.89,24.838,M,36.997,M,4.8,4107*48
$PMSBATV,051741.80,2,2,-0.24552,-0.36675,-26.78579,-0.000,0.000,0.000,139.79692,0.000*7E,,,
$GPGGA,051741.90,3542.295757451,N,13943.269275175,E,4,14,0.89,24.838,M,36.997,M,4.9,4107*4D
$PMSBATV,051741.90,2,2,-0.24446,-0.36794,-26.78388,-0.000,0.000,0.000,139.79692,0.000*7D,,,
$GPGGA,051742.00,3542.295757206,N,13943.269273707,E,4,14,0.89,24.837,M,36.997,M,5.0,4107*41
$PMSBATV,051742.00,2,2,-0.23954,-0.37155,-26.79255,0.000,-0.000,0.000,139.79692,0.000*74,,,
$GPGGA,051742.10,3542.295756356,N,13943.269273278,E,4,14,0.89,24.835,M,36.997,M,5.1,4107*4B
$PMSBATV,051742.10,2,2,-0.24151,-0.36113,-26.79584,0.001,0.000,0.000,139.79692,0.000*5B,,,
$GPGGA,051742.20,3542.295756063,N,13943.269272400,E,4,14,0.89,24.835,M,36.997,M,5.2,4107*46
$PMSBATV,051742.20,2,2,-0.23286,-0.36377,-26.79329,-0.000,-0.000,-0.000,139.79692,0.000*7B,,,
$GPGGA,051742.30,3542.295755613,N,13943.269271816,E,4,14,0.89,24.834,M,36.997,M,5.3,4107*4D
$PMSBATV,051742.30,2,2,-0.23585,-0.36830,-26.79307,-0.000,-0.000,0.000,139.79692,0.000*57,,,
$GPGGA,051742.40,3542.295754888,N,13943.269271586,E,4,14,0.89,24.833,M,36.997,M,5.4,4107*43
$PMSBATV,051742.40,2,2,-0.23970,-0.37354,-26.79514,-0.000,-0.000,-0.000,139.79692,0.000*77,,,
$GPGGA,051742.50,3542.295754472,N,13943.269271023,E,4,14,0.89,24.832,M,36.997,M,5.5,4107*41
$PMSBATV,051742.50,2,2,-0.24390,-0.37560,-26.79316,-0.000,-0.000,0.000,139.79692,0.000*5D,,,
$GPGGA,051742.60,3542.295754182,N,13943.269270852,E,4,14,0.89,24.831,M,36.997,M,5.6,4107*47
$PMSBATV,051742.60,2,2,-0.24248,-0.38143,-26.79536,0.000,0.000,0.000,139.79692,0.000*54,,,
$GPGGA,051742.70,3542.295753929,N,13943.269270730,E,4,14,0.89,24.831,M,36.997,M,5.7,4107*42
$PMSBATV,051742.70,2,2,-0.23902,-0.36638,-26.79266,0.000,-0.000,0.000,139.79692,0.000*7D,,,
$GPGGA,051742.80,3542.295753500,N,13943.269270093,E,4,14,0.89,24.830,M,36.997,M,5.8,4107*4A
$PMSBATV,051742.80,2,2,-0.24134,-0.36644,-26.79506,0.000,-0.000,-0.000,139.79692,0.000*5F,,,
$GPGGA,051742.90,3542.295752927,N,13943.269269760,E,4,14,0.89,24.830,M,36.997,M,5.9,4107*41
$PMSBATV,051742.90,2,2,-0.25001,-0.36826,-26.79325,0.000,0.000,0.000,139.79692,0.000*55,,,
$GPGGA,051743.00,3542.295752577,N,13943.269269112,E,4,14,0.89,24.829,M,36.997,M,6.0,4107*41
$PMSBATV,051743.00,2,2,-0.25067,-0.36807,-26.78911,-0.000,0.000,0.000,139.79692,0.000*7F,,,
$GPGGA,051743.10,3542.295752482,N,13943.269268706,E,4,14,0.89,24.828,M,36.997,M,6.1,4107*49
$PMSBATV,051743.10,2,2,-0.24337,-0.36791,-26.79417,-0.000,-0.000,0.000,139.79692,0.000*5E,,,
$GPGGA,051743.20,3542.295752000,N,13943.269268493,E,4,14,0.89,24.827,M,36.997,M,6.2,4107*47
$PMSBATV,051743.20,2,2,-0.24448,-0.36435,-26.79902,0.000,-0.000,0.000,139.79692,0.000*7B,,,
$GPGGA,051743.30,3542.295751467,N,13943.269268121,E,4,14,0.89,24.826,M,36.997,M,6.3,4107*4C
$PMSBATV,051743.30,2,2,-0.24481,-0.36366,-26.79754,-0.000,-0.000,0.000,139.79692,0.000*5E,,,
$GPGGA,051743.40,3542.295751084,N,13943.269267771,E,4,14,0.89,24.826,M,36.997,M,6.4,4107*49
$PMSBATV,051743.40,2,2,-0.24814,-0.36608,-26.80411,0.000,0.000,0.000,139.79692,0.000*50,,,
$GPGGA,051743.50,3542.295750557,N,13943.269267491,E,4,14,0.89,24.826,M,36.997,M,6.5,4107*4E
$PMSBATV,051743.50,2,2,-0.24599,-0.36588,-26.80122,-0.001,-0.000,-0.000,139.79692,0.000*7B,,,
$GPGGA,051743.60,3542.295750059,N,13943.269267413,E,4,14,0.89,24.827,M,36.997,M,6.6,4107*4E
$PMSBATV,051743.60,2,2,-0.25080,-0.37512,-26.79363,-0.000,0.000,0.000,139.79692,0.000*76,,,
$GPGGA,051743.70,3542.295749851,N,13943.269266836,E,4,14,0.89,24.827,M,36.997,M,6.7,4107*4C
$PMSBATV,051743.70,2,2,-0.25070,-0.37799,-26.80025,0.000,-0.000,0.000,139.79692,0.000*7E,,,
$GPGGA,051743.80,3542.295749350,N,13943.269266702,E,4,14,0.89,24.826,M,36.997,M,6.8,4107*4F
$PMSBATV,051743.80,2,2,-0.24291,-0.37107,-26.80015,0.000,-0.000,0.000,139.79692,0.000*7F,,,
$GPGGA,051743.90,3542.295749143,N,13943.269266360,E,4,14,0.89,24.826,M,36.997,M,6.9,4107*4F
$PMSBATV,051743.90,2,2,-0.24339,-0.37188,-26.79949,0.000,0.000,0.000,139.79692,0.000*51,,,
$GPGGA,051744.00,3542.295748926,N,13943.269266124,E,4,14,0.89,24.826,M,36.997,M,7.0,4107*41
$PMSBATV,051744.00,2,2,-0.23985,-0.36801,-26.79431,-0.000,-0.000,0.000,139.79692,0.000*5E,,,
$GPGGA,051744.10,3542.295748548,N,13943.269266024,E,4,13,1.02,24.826,M,36.997,M,7.1,4107*41
$PMSBATV,051744.10,2,2,-0.24093,-0.37144,-26.79472,-0.000,0.000,0.000,139.79692,0.000*75,,,
$GPGGA,051744.20,3542.295748076,N,13943.269265722,E,4,13,1.02,24.825,M,36.997,M,7.2,4107*48
$PMSBATV,051744.20,2,2,-0.23692,-0.37685,-26.79820,-0.000,0.000,0.000,139.79692,0.000*77,,,
$GPGGA,051744.30,3542.295747812,N,13943.269265680,E,4,13,1.02,24.824,M,36.997,M,7.3,4107*45
$PMSBATV,051744.30,2,2,-0.22856,-0.37206,-26.79606,-0.000,0.000,0.000,139.79692,0.000*74,,,
$GPGGA,051744.40,3542.295747606,N,13943.269265539,E,4,13,1.02,24.825,M,36.997,M,7.4,4107*4E
$PMSBATV,051744.40,2,2,-0.23175,-0.37403,-26.79549,0.000,0.000,0.000,139.79692,0.000*5C,,,
$GPGGA,051744.50,3542.295747207,N,13943.269265312,E,4,13,1.02,24.824,M,36.997,M,7.5,4107*45
$PMSBATV,051744.50,2,2,-0.23071,-0.36732,-26.80298,0.000,0.000,0.000,139.79692,0.000*55,,,
$GPGGA,051744.60,3542.295746732,N,13943.269264912,E,4,13,1.02,24.824,M,36.997,M,7.6,4107*4C
$PMSBATV,051744.60,2,2,-0.23036,-0.36172,-26.79998,0.000,0.000,-0.000,139.79692,0.000*77,,,
$GPGGA,051744.70,3542.295746588,N,13943.269264798,E,4,13,1.02,24.824,M,36.997,M,7.7,4107*43
$PMSBATV,051744.70,2,2,-0.23587,-0.36647,-26.80032,-0.000,-0.000,-0.000,139.79692,0.000*77,,,
$GPGGA,051744.80,3542.295746093,N,13943.269264504,E,4,13,1.02,24.824,M,36.997,M,7.8,4107*4B
$PMSBATV,051744.80,2,2,-0.23441,-0.37325,-26.80265,-0.000,0.000,-0.000,139.79692,0.000*5E,,,
$GPGGA,051744.90,3542.295745796,N,13943.269264136,E,4,13,1.02,24.823,M,36.997,M,7.9,4107*48
$PMSBATV,051744.90,2,2,-0.22982,-0.37641,-26.79944,0.000,-0.000,-0.000,139.79692,0.000*55,,,
$GPGGA,051745.00,3542.295745642,N,13943.269263899,E,4,13,1.02,24.823,M,36.997,M,8.0,4107*45
$PMSBATV,051745.00,2,2,-0.23242,-0.37450,-26.80323,0.000,-0.000,0.000,139.79692,0.000*79,,,
$GPGGA,051745.10,3542.295745166,N,13943.269263872,E,4,13,1.02,24.823,M,36.997,M,3.1,4107*4A
$PMSBATV,051745.10,2,2,-0.22682,-0.37120,-26.80122,0.000,-0.000,-0.000,139.79692,0.000*5D,,,
$GPGGA,051745.20,3542.295744955,N,13943.269263445,E,4,13,1.02,24.823,M,36.997,M,3.2,4107*4B
$PMSBATV,051745.20,2,2,-0.22530,-0.37629,-26.80427,-0.000,0.000,0.000,139.79692,0.000*77,,,
$GPGGA,051745.30,3542.295744674,N,13943.269263352,E,4,13,1.02,24.823,M,36.997,M,3.3,4107*46
$PMSBATV,051745.30,2,2,-0.23553,-0.37869,-26.80725,-0.000,0.000,0.000,139.79692,0.000*79,,,
$GPGGA,051745.40,3542.295744161,N,13943.269263108,E,4,13,1.02,24.822,M,36.997,M,3.4,4107*49
$PMSBATV,051745.40,2,2,-0.23164,-0.37627,-26.80859,0.000,0.000,-0.000,139.79692,0.000*7E,,,
$GPGGA,051745.50,3542.295744036,N,13943.269262795,E,4,13,1.02,24.822,M,36.997,M,3.5,4107*49
$PMSBATV,051745.50,2,2,-0.22560,-0.37658,-26.80940,0.000,-0.000,0.000,139.79692,0.000*7F,,,
$GPGGA,051745.60,3542.295743650,N,13943.269262532,E,4,13,1.02,24.822,M,36.997,M,3.6,4107*47
$PMSBATV,051745.60,2,2,-0.22745,-0.37240,-26.80786,-0.000,-0.000,0.000,139.79692,0.000*5D,,,
$GPGGA,051745.70,3542.295743512,N,13943.269262399,E,4,13,1.02,24.822,M,36.997,M,3.7,4107*45
$PMSBATV,051745.70,2,2,-0.23068,-0.37183,-26.81199,-0.000,-0.000,0.000,139.79692,0.000*50,,,
$GPGGA,051745.80,3542.295743261,N,13943.269262173,E,4,13,1.02,24.822,M,36.997,M,3.8,4107*40
$PMSBATV,051745.80,2,2,-0.23334,-0.37437,-26.81213,-0.000,-0.000,0.000,139.79692,0.000*5E,,,
$GPGGA,051745.90,3542.295743016,N,13943.269262101,E,4,13,1.02,24.822,M,36.997,M,3.9,4107*47
$PMSBATV,051745.90,2,2,-0.23384,-0.37119,-26.81568,0.000,0.000,0.000,139.79692,0.000*56,,,
$GPGGA,051746.00,3542.295742931,N,13943.269261960,E,4,13,1.02,24.822,M,36.997,M,4.0,4107*42
$PMSBATV,051746.00,2,2,-0.23553,-0.36451,-26.81733,0.000,0.000,0.000,139.79692,0.000*54,,,
$GPGGA,051746.10,3542.295742636,N,13943.269261817,E,4,13,1.02,24.822,M,36.997,M,4.1,4107*4B
$PMSBATV,051746.10,2,2,-0.22517,-0.36873,-26.81045,-0.000,-0.000,0.000,139.79692,0.000*5E,,,
$GPGGA,051746.20,3542.295742400,N,13943.269261624,E,4,13,1.02,24.821,M,36.997,M,4.2,4107*41
$PMSBATV,051746.20,2,2,-0.22500,-0.37353,-26.81149,-0.000,-0.000,0.000,139.79692,0.000*5E,,,
$GPGGA,051746.30,3542.295742334,N,13943.269261231,E,4,13,1.02,24.821,M,36.997,M,4.3,4107*41
$PMSBATV,051746.30,2,2,-0.22629,-0.36116,-26.81071,0.001,-0.000,-0.000,139.79692,0.000*5E,,,
$GPGGA,051746.40,3542.295742050,N,13943.269261042,E,4,13,1.02,24.821,M,36.997,M,4.4,4107*46
$PMSBATV,051746.40,2,2,-0.22347,-0.35900,-26.81443,-0.000,0.000,0.000,139.79692,0.000*71,,,
$GPGGA,051746.50,3542.295741908,N,13943.269260736,E,4,13,1.02,24.821,M,36.997,M,4.5,4107*44
$PMSBATV,051746.50,2,2,-0.22148,-0.36042,-26.81905,0.001,-0.000,-0.000,139.79692,0.000*52,,,
$GPGGA,051746.60,3542.295741890,N,13943.269260431,E,4,13,1.02,24.821,M,36.997,M,4.6,4107*40
$PMSBATV,051746.60,2,2,-0.22397,-0.35181,-26.80941,-0.000,-0.000,0.000,139.79692,0.000*5C,,,
$GPGGA,051746.70,3542.295741711,N,13943.269260422,E,4,13,1.02,24.821,M,36.997,M,4.7,4107*44
$PMSBATV,051746.70,2,2,-0.22310,-0.36658,-26.81581,-0.000,-0.000,0.000,139.79692,0.000*53,,,
$GPGGA,051746.80,3542.295741493,N,13943.269260157,E,5,11,1.10,24.821,M,36.997,M,4.8,4107*4A
$PMSBATV,051746.80,2,2,-0.22205,-0.36048,-26.81721,0.000,-0.000,0.000,139.79692,0.000*7B,,,
$GPGGA,051746.90,3542.295741487,N,13943.269260164,E,5,11,1.10,24.821,M,36.997,M,4.9,4107*4F
$PMSBATV,051746.90,2,2,-0.22181,-0.36461,-26.81151,-0.000,-0.000,0.000,139.79692,0.000*56,,,
$GPGGA,051747.00,3542.295741493,N,13943.269260171,E,5,11,1.10,24.821,M,36.997,M,5.0,4107*4E
$PMSBATV,051747.00,2,2,-0.22048,-0.35695,-26.80849,0.000,0.000,0.000,139.79692,0.000*51,,,
$GPGGA,051747.10,3542.295741486,N,13943.269260169,E,5,11,1.10,24.822,M,36.997,M,5.1,4107*40
$PMSBATV,051747.10,2,2,-0.21263,-0.35924,-26.80327,-0.000,-0.000,-0.000,139.79692,0.000*73,,,
$GPGGA,051747.20,3542.295741490,N,13943.269260184,E,5,11,1.10,24.822,M,36.997,M,5.2,4107*44
$PMSBATV,051747.20,2,2,-0.22075,-0.36014,-26.80067,0.000,0.000,0.000,139.79692,0.000*55,,,
$GPGGA,051747.30,3542.295741491,N,13943.269260205,E,5,11,1.10,24.822,M,36.997,M,5.3,4107*4F
$PMSBATV,051747.30,2,2,-0.22465,-0.35725,-26.79756,-0.000,0.000,-0.000,139.79692,0.000*54,,,
$GPGGA,051747.40,3542.295741485,N,13943.269260219,E,5,11,1.10,24.822,M,36.997,M,5.4,4107*47
$PMSBATV,051747.40,2,2,-0.21591,-0.36292,-26.79907,-0.000,-0.000,-0.000,139.79692,0.000*77,,,
$GPGGA,051747.50,3542.295741491,N,13943.269260233,E,4,13,1.02,24.822,M,36.997,M,5.5,4107*4A
$PMSBATV,051747.50,2,2,-0.22025,-0.35634,-26.79445,-0.000,0.000,0.000,139.79692,0.000*7F,,,
$GPGGA,051747.60,3542.295741135,N,13943.269260037,E,4,13,1.02,24.821,M,36.997,M,5.6,4107*44
$PMSBATV,051747.60,2,2,-0.22215,-0.36650,-26.79884,-0.000,-0.000,0.000,139.79692,0.000*50,,,
$GPGGA,051747.70,3542.295740675,N,13943.269259817,E,4,13,1.02,24.821,M,36.997,M,5.7,4107*46
$PMSBATV,051747.70,2,2,-0.21222,-0.36174,-26.80180,0.000,-0.000,0.000,139.79692,0.000*71,,,
$GPGGA,051747.80,3542.295740308,N,13943.269259588,E,4,13,1.02,24.820,M,36.997,M,5.8,4107*43
$PMSBATV,051747.80,2,2,-0.22303,-0.37029,-26.79103,-0.001,-0.000,0.000,139.79692,0.000*56,,,
$GPGGA,051747.90,3542.295740051,N,13943.269259377,E,4,13,1.02,24.820,M,36.997,M,5.9,4107*4A
$PMSBATV,051747.90,2,2,-0.22463,-0.36747,-26.79480,0.000,-0.000,0.000,139.79692,0.000*7A,,,
$GPGGA,051748.00,3542.295739926,N,13943.269259142,E,4,13,1.02,24.820,M,36.997,M,6.0,4107*45
$PMSBATV,051748.00,2,2,-0.21192,-0.36146,-26.79421,0.000,-0.000,0.000,139.79692,0.000*78,,,
$GPGGA,051748.10,3542.295739843,N,13943.269258916,E,4,13,1.02,24.820,M,36.997,M,6.1,4107*4F
$PMSBATV,051748.10,2,2,-0.21651,-0.36488,-26.79358,0.000,-0.000,0.000,139.79692,0.000*7F,,,
$GPGGA,051748.20,3542.295739571,N,13943.269258753,E,4,13,1.02,24.820,M,36.997,M,6.2,4107*4C
$PMSBATV,051748.20,2,2,-0.21531,-0.36602,-26.79358,-0.000,-0.000,0.000,139.79692,0.000*54,,,
$GPGGA,051748.30,3542.295739262,N,13943.269258588,E,4,13,1.02,24.820,M,36.997,M,6.3,4107*4D
$PMSBATV,051748.30,2,2,-0.21319,-0.37503,-26.79035,-0.000,-0.000,0.000,139.79692,0.000*52,,,
$GPGGA,051748.40,3542.295738934,N,13943.269258455,E,4,13,1.02,24.820,M,36.997,M,6.4,4107*45
$PMSBATV,051748.40,2,2,-0.21721,-0.37506,-26.78804,0.000,-0.000,0.000,139.79692,0.000*79,,,
$GPGGA,051748.50,3542.295738834,N,13943.269258303,E,4,13,1.02,24.819,M,36.997,M,6.5,4107*4A
$PMSBATV,051748.50,2,2,-0.21321,-0.37780,-26.79224,-0.000,0.000,0.000,139.79692,0.000*79,,,
$GPGGA,051748.60,3542.295738628,N,13943.269258105,E,4,14,0.89,24.819,M,36.997,M,6.6,4107*48
$PMSBATV,051748.60,2,2,-0.20603,-0.37171,-26.79550,0.000,0.000,-0.000,139.79692,0.000*72,,,
$GPGGA,051748.70,3542.295738441,N,13943.269257841,E,4,14,0.89,24.819,M,36.997,M,6.7,4107*43
$PMSBATV,051748.70,2,2,-0.20946,-0.36629,-26.79099,0.000,0.000,-0.000,139.79692,0.000*76,,,
$GPGGA,051748.80,3542.295738327,N,13943.269257620,E,4,14,0.89,24.819,M,36.997,M,6.8,4107*4D
$PMSBATV,051748.80,2,2,-0.21400,-0.37427,-26.78940,-0.001,0.000,-0.000,139.79692,0.000*5A,,,
$GPGGA,051748.90,3542.295738035,N,13943.269257329,E,4,14,0.89,24.819,M,36.997,M,6.9,4107*41
$PMSBATV,051748.90,2,2,-0.21207,-0.37671,-26.79751,-0.000,-0.000,-0.000,139.79692,0.000*78,,,
$GPGGA,051749.00,3542.295737751,N,13943.269257271,E,4,14,0.89,24.818,M,36.997,M,7.0,4107*46
$PMSBATV,051749.00,2,2,-0.20783,-0.37164,-26.79149,0.000,-0.000,0.000,139.79692,0.000*74,,,
$GPGGA,051749.10,3542.295737546,N,13943.269257053,E,4,14,0.89,24.818,M,36.997,M,2.1,4107*45
$PMSBATV,051749.10,2,2,-0.21860,-0.36972,-26.78724,-0.001,0.000,0.000,139.79692,0.000*75,,,
$GPGGA,051749.20,3542.295737318,N,13943.269256853,E,4,14,0.89,24.818,M,36.997,M,2.2,4107*41
$PMSBATV,051749.20,2,2,-0.21080,-0.37480,-26.78923,0.000,-0.000,-0.000,139.79692,0.000*54,,,
$GPGGA,051749.30,3542.295737097,N,13943.269256628,E,4,14,0.89,24.819,M,36.997,M,2.3,4107*46
$PMSBATV,051749.30,2,2,-0.20677,-0.36628,-26.79009,-0.000,0.000,0.000,139.79692,0.000*76,,,
$GPGGA,051749.40,3542.295737074,N,13943.269256521,E,5,11,1.10,24.819,M,36.997,M,2.4,4107*44
$PMSBATV,051749.40,2,2,-0.21215,-0.36440,-26.79155,-0.000,0.000,0.000,139.79692,0.000*74,,,
$GPGGA,051749.50,3542.295737072,N,13943.269256534,E,5,11,1.10,24.819,M,36.997,M,2.5,4107*46
$PMSBATV,051749.50,2,2,-0.21356,-0.36311,-26.78795,-0.000,0.000,0.000,139.79692,0.000*7B,,,
$GPGGA,051749.60,3542.295737075,N,13943.269256540,E,5,11,1.10,24.819,M,36.997,M,2.6,4107*42
$PMSBATV,051749.60,2,2,-0.20874,-0.36525,-26.78897,0.000,-0.000,0.000,139.79692,0.000*7E,,,
$GPGGA,051749.70,3542.295737076,N,13943.269256544,E,4,14,0.89,24.819,M,36.997,M,2.7,4107*40
$PMSBATV,051749.70,2,2,-0.19906,-0.36362,-26.78581,0.000,-0.000,0.000,139.79692,0.000*7E,,,
$GPGGA,051749.80,3542.295736862,N,13943.269256137,E,4,14,0.89,24.819,M,36.997,M,2.8,4107*4C
$PMSBATV,051749.80,2,2,-0.19881,-0.36702,-26.78221,0.000,0.000,0.000,139.79692,0.000*5D,,,
$GPGGA,051749.90,3542.295736834,N,13943.269255971,E,4,14,0.89,24.819,M,36.997,M,2.9,4107*46
$PMSBATV,051749.90,2,2,-0.20194,-0.36422,-26.77731,-0.000,0.000,-0.000,139.79692,0.000*51,,,
$GPGGA,051750.00,3542.295736784,N,13943.269255795,E,4,13,1.02,24.819,M,36.997,M,3.0,4107*4A
$PMSBATV,051750.00,2,2,-0.19746,-0.37318,-26.77977,0.000,0.000,-0.000,139.79692,0.000*7D,,,
$GPGGA,051750.10,3542.295736563,N,13943.269255559,E,4,13,1.02,24.819,M,36.997,M,3.1,4107*43
$PMSBATV,051750.10,2,2,-0.20979,-0.36035,-26.78184,0.001,0.000,0.000,139.79692,0.000*5E,,,
$GPGGA,051750.20,3542.295736602,N,13943.269255383,E,4,14,0.89,24.819,M,36.997,M,3.2,4107*43
$PMSBATV,051750.20,2,2,-0.19571,-0.36348,-26.77749,-0.000,-0.000,0.000,139.79692,0.000*53,,,
$GPGGA,051750.30,3542.295736467,N,13943.269255146,E,4,14,0.89,24.819,M,36.997,M,3.3,4107*49
$PMSBATV,051750.30,2,2,-0.19011,-0.35827,-26.78206,0.000,-0.000,0.000,139.79692,0.000*7C,,,
$GPGGA,051750.40,3542.295736323,N,13943.269255085,E,4,14,0.89,24.819,M,36.997,M,3.4,4107*40
$PMSBATV,051750.40,2,2,-0.19111,-0.35967,-26.78389,-0.000,-0.000,0.000,139.79692,0.000*54,,,
$GPGGA,051750.50,3542.295736224,N,13943.269254829,E,4,14,0.89,24.820,M,36.997,M,3.5,4107*43
$PMSBATV,051750.50,2,2,-0.18819,-0.35815,-26.79220,-0.000,0.000,0.000,139.79692,0.000*7F,,,
$GPGGA,051750.60,3542.295736193,N,13943.269254652,E,5,11,1.10,24.820,M,36.997,M,3.6,4107*4B
$PMSBATV,051750.60,2,2,-0.19068,-0.35117,-26.79163,0.001,0.000,-0.000,139.79692,0.000*7D,,,
$GPGGA,051750.70,3542.295736188,N,13943.269254667,E,5,11,1.10,24.820,M,36.997,M,3.7,4107*47
$PMSBATV,051750.70,2,2,-0.19019,-0.34880,-26.79002,-0.000,0.000,0.000,139.79692,0.000*7B,,,
$GPGGA,051750.80,3542.295736185,N,13943.269254676,E,4,14,0.89,24.820,M,36.997,M,3.8,4107*4F
$PMSBATV,051750.80,2,2,-0.19596,-0.36321,-26.78945,0.000,0.000,0.000,139.79692,0.000*52,,,
$GPGGA,051750.90,3542.295736184,N,13943.269254483,E,4,14,0.89,24.820,M,36.997,M,3.9,4107*46
$PMSBATV,051750.90,2,2,-0.20069,-0.36567,-26.78369,0.000,-0.000,0.000,139.79692,0.000*71,,,
$GPGGA,051751.00,3542.295736081,N,13943.269254289,E,4,14,0.89,24.820,M,36.997,M,4.0,4107*48
$PMSBATV,051751.00,2,2,-0.20822,-0.37101,-26.78587,-0.000,0.000,0.000,139.79692,0.000*7D,,,
$GPGGA,051751.10,3542.295735820,N,13943.269254155,E,4,14,0.89,24.820,M,36.997,M,4.1,4107*4A
$PMSBATV,051751.10,2,2,-0.19936,-0.37289,-26.78918,-0.000,0.000,0.000,139.79692,0.000*7B,,,
$GPGGA,051751.20,3542.295735892,N,13943.269253831,E,5,11,1.10,24.820,M,36.997,M,4.2,4107*4A
$PMSBATV,051751.20,2,2,-0.20154,-0.37236,-26.78931,-0.000,0.000,0.000,139.79692,0.000*71,,,
$GPGGA,051751.30,3542.295735897,N,13943.269253846,E,5,11,1.10,24.820,M,36.997,M,4.3,4107*4F
$PMSBATV,051751.30,2,2,-0.21953,-0.37379,-26.78926,-0.000,0.000,0.000,139.79692,0.000*72,,,
$GPGGA,051751.40,3542.295735882,N,13943.269253859,E,5,11,1.10,24.820,M,36.997,M,4.4,4107*45
$PMSBATV,051751.40,2,2,-0.20731,-0.37798,-26.78863,-0.001,-0.000,0.000,139.79692,0.000*59,,,
$GPGGA,051751.50,3542.295735882,N,13943.269253857,E,4,13,1.02,24.820,M,36.997,M,4.5,4107*4B
$PMSBATV,051751.50,2,2,-0.20146,-0.37807,-26.78801,0.000,-0.000,-0.000,139.79692,0.000*52,,,
$GPGGA,051751.60,3542.295735742,N,13943.269253793,E,4,13,1.02,24.819,M,36.997,M,4.6,4107*45
$PMSBATV,051751.60,2,2,-0.21282,-0.37850,-26.78576,0.000,0.000,0.000,139.79692,0.000*54,,,
$GPGGA,051751.70,3542.295735643,N,13943.269253475,E,4,13,1.02,24.819,M,36.997,M,4.7,4107*4E
$PMSBATV,051751.70,2,2,-0.21056,-0.38123,-26.78579,-0.000,0.000,0.000,139.79692,0.000*7E,,,
$GPGGA,051751.80,3542.295735543,N,13943.269253292,E,4,14,0.89,24.819,M,36.997,M,4.8,4107*47
$PMSBATV,051751.80,2,2,-0.20568,-0.37598,-26.78391,0.000,-0.000,-0.000,139.79692,0.000*5E,,,
$GPGGA,051751.90,3542.295735348,N,13943.269253147,E,4,14,0.89,24.819,M,36.997,M,4.9,4107*41
$PMSBATV,051751.90,2,2,-0.21036,-0.37307,-26.78265,0.000,-0.000,-0.000,139.79692,0.000*5A,,,
$GPGGA,051752.00,3542.295735397,N,13943.269252856,E,5,11,1.10,24.819,M,36.997,M,5.0,4107*4C
$PMSBATV,051752.00,2,2,-0.21206,-0.37626,-26.77958,-0.000,0.000,-0.000,139.79692,0.000*5D,,,
$GPGGA,051752.10,3542.295735413,N,13943.269252881,E,4,14,0.89,24.820,M,36.997,M,5.1,4107*42
$PMSBATV,051752.10,2,2,-0.20713,-0.38561,-26.78695,-0.000,-0.000,-0.000,139.79692,0.000*7F,,,
$GPGGA,051752.20,3542.295735301,N,13943.269252507,E,4,14,0.89,24.819,M,36.997,M,5.2,4107*4F
$PMSBATV,051752.20,2,2,-0.20611,-0.38276,-26.78612,0.000,0.000,-0.000,139.79692,0.000*71,,,
$GPGGA,051752.30,3542.295735363,N,13943.269252354,E,4,13,1.02,24.819,M,36.997,M,5.3,4107*4E
$PMSBATV,051752.30,2,2,-0.20864,-0.38186,-26.79644,0.000,0.000,0.000,139.79692,0.000*5F,,,
$GPGGA,051752.40,3542.295735295,N,13943.269252081,E,4,13,1.02,24.820,M,36.997,M,5.4,4107*47
$PMSBATV,051752.40,2,2,-0.21205,-0.37920,-26.79839,0.000,0.000,0.000,139.79692,0.000*5B,,,
$GPGGA,051752.50,3542.295735229,N,13943.269251825,E,4,13,1.02,24.820,M,36.997,M,5.5,4107*45
$PMSBATV,051752.50,2,2,-0.21234,-0.37708,-26.79604,0.000,0.000,0.000,139.79692,0.000*5C,,,
$GPGGA,051752.60,3542.295735204,N,13943.269251715,E,4,13,1.02,24.820,M,36.997,M,5.6,4107*46
$PMSBATV,051752.60,2,2,-0.21152,-0.37706,-26.79000,-0.000,-0.000,-0.000,139.79692,0.000*7D,,,
$GPGGA,051752.70,3542.295735158,N,13943.269251551,E,4,13,1.02,24.820,M,36.997,M,5.7,4107*4E
$PMSBATV,051752.70,2,2,-0.21258,-0.37618,-26.79146,0.000,0.000,-0.000,139.79692,0.000*78,,,
$GPGGA,051752.80,3542.295735096,N,13943.269251306,E,4,13,1.02,24.820,M,36.997,M,5.8,4107*49
$PMSBATV,051752.80,2,2,-0.21494,-0.37612,-26.78847,0.000,0.000,0.000,139.79692,0.000*5F,,,
$GPGGA,051752.90,3542.295734979,N,13943.269251080,E,4,13,1.02,24.820,M,36.997,M,5.9,4107*4D
$PMSBATV,051752.90,2,2,-0.21556,-0.38072,-26.78923,-0.001,-0.000,0.000,139.79692,0.000*5C,,,
$GPGGA,051753.00,3542.295734882,N,13943.269250868,E,4,13,1.02,24.820,M,36.997,M,6.0,4107*45
$PMSBATV,051753.00,2,2,-0.21827,-0.38558,-26.79114,0.001,0.000,0.000,139.79692,0.000*5F,,,
$GPGGA,051753.10,3542.295734857,N,13943.269250719,E,4,13,1.02,24.820,M,36.997,M,6.1,4107*44
$PMSBATV,051753.10,2,2,-0.21424,-0.37681,-26.79375,-0.001,0.000,-0.000,139.79692,0.000*5C,,,
$GPGGA,051753.20,3542.295734804,N,13943.269250527,E,4,13,1.02,24.820,M,36.997,M,6.2,4107*4D
$PMSBATV,051753.20,2,2,-0.21315,-0.37763,-26.79513,0.001,-0.000,-0.000,139.79692,0.000*51,,,
$GPGGA,051753.30,3542.295734517,N,13943.269250396,E,4,12,1.25,24.820,M,36.997,M,6.3,4107*4A
$PMSBATV,051753.30,2,2,-0.22357,-0.37361,-26.79133,0.000,0.000,0.000,139.79692,0.000*54,,,
$GPGGA,051753.40,3542.295734498,N,13943.269250157,E,5,11,1.10,24.820,M,36.997,M,6.4,4107*47
$PMSBATV,051753.40,2,2,-0.21997,-0.38058,-26.79273,-0.000,-0.000,-0.000,139.79692,0.000*7A,,,
$GPGGA,051753.50,3542.295734335,N,13943.269250059,E,5,10,1.61,24.820,M,36.997,M,6.5,4107*4F
$PMSBATV,051753.50,2,2,-0.20716,-0.37894,-26.78861,-0.000,-0.000,-0.000,139.79692,0.000*72,,,
$GPGGA,051753.60,3542.295734335,N,13943.269250058,E,5,10,1.61,24.820,M,36.997,M,6.6,4107*4E
$PMSBATV,051753.60,2,2,-0.20483,-0.37210,-26.79096,0.000,0.000,-0.000,139.79692,0.000*79,,,
$GPGGA,051753.70,3542.295734338,N,13943.269250058,E,5,10,1.61,24.820,M,36.997,M,6.7,4107*43
$PMSBATV,051753.70,2,2,-0.20180,-0.36664,-26.79390,0.000,0.000,-0.000,139.79692,0.000*7D,,,
$GPGGA,051753.80,3542.295734334,N,13943.269250059,E,5,10,1.61,24.820,M,36.997,M,6.8,4107*4E
$PMSBATV,051753.80,2,2,-0.19470,-0.36563,-26.78808,-0.000,0.000,-0.000,139.79692,0.000*50,,,
$GPGGA,051753.90,3542.295734329,N,13943.269250068,E,5,10,1.61,24.820,M,36.997,M,6.9,4107*40
$PMSBATV,051753.90,2,2,-0.19990,-0.37253,-26.79311,-0.000,0.000,0.000,139.79692,0.000*78,,,
$GPGGA,051754.00,3542.295734330,N,13943.269250069,E,5,10,1.61,24.820,M,36.997,M,7.0,4107*4F
$PMSBATV,051754.00,2,2,-0.19958,-0.36898,-26.79071,0.000,-0.000,0.000,139.79692,0.000*7B,,,
$GPGGA,051754.10,3542.295734321,N,13943.269250075,E,4,12,1.25,24.820,M,36.997,M,2.1,4107*44
$PMSBATV,051754.10,2,2,-0.20595,-0.37032,-26.79368,0.000,0.000,0.000,139.79692,0.000*52,,,
$GPGGA,051754.20,3542.295734538,N,13943.269249567,E,4,12,1.25,24.819,M,36.997,M,2.2,4107*4E
$PMSBATV,051754.20,2,2,-0.20507,-0.37570,-26.79496,0.000,-0.000,0.000,139.79692,0.000*72,,,
$GPGGA,051754.30,3542.295734732,N,13943.269249132,E,4,12,1.25,24.819,M,36.997,M,2.3,4107*42
$PMSBATV,051754.30,2,2,-0.20713,-0.37605,-26.79792,0.000,-0.000,0.000,139.79692,0.000*72,,,
$GPGGA,051754.40,3542.295734976,N,13943.269248726,E,4,12,1.25,24.819,M,36.997,M,2.4,4107*4E
$PMSBATV,051754.40,2,2,-0.20806,-0.37584,-26.79961,0.000,0.000,0.000,139.79692,0.000*5B,,,
$GPGGA,051754.50,3542.295735102,N,13943.269248299,E,4,12,1.25,24.819,M,36.997,M,2.5,4107*45
$PMSBATV,051754.50,2,2,-0.20092,-0.37606,-26.79907,0.000,-0.000,-0.000,139.79692,0.000*56,,,
$GPGGA,051754.60,3542.295735294,N,13943.269247941,E,4,12,1.25,24.819,M,36.997,M,2.6,4107*48
$PMSBATV,051754.60,2,2,-0.20137,-0.38102,-26.79783,-0.000,-0.000,0.000,139.79692,0.000*55,,,
$GPGGA,051754.70,3542.295735352,N,13943.269247709,E,4,12,1.25,24.819,M,36.997,M,2.7,4107*41
$PMSBATV,051754.70,2,2,-0.20967,-0.38001,-26.79720,0.000,0.000,0.000,139.79692,0.000*52,,,
$GPGGA,051754.80,3542.295735405,N,13943.269247450,E,4,12,1.25,24.819,M,36.997,M,2.8,4107*4B
$PMSBATV,051754.80,2,2,-0.20744,-0.37657,-26.79388,0.001,0.000,0.000,139.79692,0.000*5F,,,
$GPGGA,051754.90,3542.295735415,N,13943.269247348,E,4,12,1.25,24.819,M,36.997,M,2.9,4107*44
$PMSBATV,051754.90,2,2,-0.20661,-0.37902,-26.79458,-0.000,0.000,0.000,139.79692,0.000*71,,,
$GPGGA,051755.00,3542.295735509,N,13943.269247203,E,4,12,1.25,24.819,M,36.997,M,3.0,4107*46
$PMSBATV,051755.00,2,2,-0.20916,-0.38658,-26.79520,-0.000,-0.000,0.000,139.79692,0.000*5A,,,
$GPGGA,051755.10,3542.295735498,N,13943.269246970,E,4,12,1.25,24.819,M,36.997,M,3.1,4107*41
$PMSBATV,051755.10,2,2,-0.21064,-0.38631,-26.79905,0.000,0.000,-0.000,139.79692,0.000*7F,,,
$GPGGA,051755.20,3542.295735642,N,13943.269246737,E,4,12,1.25,24.819,M,36.997,M,3.2,4107*49
$PMSBATV,051755.20,2,2,-0.20958,-0.38728,-26.80040,0.000,-0.000,-0.000,139.79692,0.000*51,,,
$GPGGA,051755.30,3542.295735628,N,13943.269246639,E,4,12,1.25,24.819,M,36.997,M,3.3,4107*4A
$PMSBATV,051755.30,2,2,-0.21345,-0.38896,-26.79605,0.000,-0.000,0.000,139.79692,0.000*71,,,
$GPGGA,051755.40,3542.295735661,N,13943.269246417,E,4,12,1.25,24.818,M,36.997,M,3.4,4107*48
$PMSBATV,051755.40,2,2,-0.21740,-0.38997,-26.79291,0.000,0.000,-0.000,139.79692,0.000*7E,,,
$GPGGA,051755.50,3542.295735675,N,13943.269246177,E,4,12,1.25,24.818,M,36.997,M,3.5,4107*4E
$PMSBATV,051755.50,2,2,-0.21984,-0.38451,-26.78928,0.000,0.000,0.000,139.79692,0.000*5B,,,
$GPGGA,051755.60,3542.295735739,N,13943.269245916,E,4,12,1.25,24.818,M,36.997,M,3.6,4107*4B
$PMSBATV,051755.60,2,2,-0.21714,-0.38758,-26.79364,0.000,0.000,-0.000,139.79692,0.000*7B,,,
$GPGGA,051755.70,3542.295735685,N,13943.269245711,E,4,12,1.25,24.818,M,36.997,M,3.7,4107*44
$PMSBATV,051755.70,2,2,-0.21849,-0.38404,-26.79259,0.000,0.000,-0.000,139.79692,0.000*78,,,
$GPGGA,051755.80,3542.295735801,N,13943.269245592,E,4,12,1.25,24.818,M,36.997,M,3.8,4107*4F
$PMSBATV,051755.80,2,2,-0.22514,-0.38513,-26.79263,-0.000,0.000,0.000,139.79692,0.000*7F,,,
$GPGGA,051755.90,3542.295735849,N,13943.269245370,E,4,12,1.25,24.818,M,36.997,M,3.9,4107*49
$PMSBATV,051755.90,2,2,-0.23067,-0.38496,-26.79373,0.001,0.000,-0.000,139.79692,0.000*73,,,
$GPGGA,051756.00,3542.295735821,N,13943.269245211,E,4,12,1.25,24.817,M,36.997,M,4.0,4107*4A
$PMSBATV,051756.00,2,2,-0.21460,-0.38443,-26.79119,-0.000,-0.000,-0.000,139.79692,0.000*7F,,,
$GPGGA,051756.10,3542.295735950,N,13943.269245085,E,4,12,1.25,24.817,M,36.997,M,4.1,4107*42
$PMSBATV,051756.10,2,2,-0.22499,-0.38797,-26.79234,0.000,-0.000,-0.000,139.79692,0.000*50,,,
$GPGGA,051756.20,3542.295735829,N,13943.269244994,E,4,12,1.25,24.817,M,36.997,M,4.2,4107*45
$PMSBATV,051756.20,2,2,-0.23074,-0.39202,-26.79449,0.000,-0.000,0.000,139.79692,0.000*7C,,,
$GPGGA,051756.30,3542.295735838,N,13943.269244770,E,4,12,1.25,24.817,M,36.997,M,4.3,4107*41
$PMSBATV,051756.30,2,2,-0.22149,-0.39276,-26.79854,-0.000,-0.000,0.000,139.79692,0.000*5D,,,
$GPGGA,051756.40,3542.295735859,N,13943.269244744,E,5,10,1.61,24.817,M,36.997,M,4.4,4107*42
$PMSBATV,051756.40,2,2,-0.21944,-0.39170,-26.79520,0.000,-0.000,-0.000,139.79692,0.000*57,,,
$GPGGA,051756.50,3542.295735799,N,13943.269244730,E,5,10,1.61,24.817,M,36.997,M,4.5,4107*42
$PMSBATV,051756.50,2,2,-0.22461,-0.38785,-26.80030,0.000,0.000,0.000,139.79692,0.000*50,,,
$GPGGA,051756.60,3542.295735805,N,13943.269244734,E,5,10,1.61,24.817,M,36.997,M,4.6,4107*4C
$PMSBATV,051756.60,2,2,-0.22460,-0.37989,-26.79822,0.000,-0.000,0.000,139.79692,0.000*7F,,,
$GPGGA,051756.70,3542.295735806,N,13943.269244738,E,5,10,1.61,24.817,M,36.997,M,4.7,4107*43
$PMSBATV,051756.70,2,2,-0.21894,-0.37451,-26.80048,0.000,0.000,0.000,139.79692,0.000*5D,,,
$GPGGA,051756.80,3542.295735804,N,13943.269244742,E,5,10,1.61,24.817,M,36.997,M,4.8,4107*4C
$PMSBATV,051756.80,2,2,-0.21844,-0.37794,-26.79793,0.000,0.000,0.000,139.79692,0.000*52,,,
$GPGGA,051756.90,3542.295735809,N,13943.269244758,E,5,10,1.61,24.817,M,36.997,M,4.9,4107*4A
$PMSBATV,051756.90,2,2,-0.22759,-0.37453,-26.79957,0.000,0.000,-0.000,139.79692,0.000*70,,,
$GPGGA,051757.00,3542.295735809,N,13943.269244768,E,5,10,1.61,24.817,M,36.997,M,5.0,4107*49
$PMSBATV,051757.00,2,2,-0.22568,-0.37861,-26.79815,-0.000,-0.000,0.000,139.79692,0.000*5F,,,
$GPGGA,051757.10,3542.295735791,N,13943.269244755,E,4,12,1.25,24.817,M,36.997,M,5.1,4107*4A
$PMSBATV,051757.10,2,2,-0.22127,-0.38302,-26.79772,-0.000,-0.000,-0.000,139.79692,0.000*73,,,
$GPGGA,051757.20,3542.295735986,N,13943.269244500,E,4,12,1.25,24.817,M,36.997,M,5.2,4107*40
$PMSBATV,051757.20,2,2,-0.22281,-0.38631,-26.79060,0.000,0.000,0.000,139.79692,0.000*53,,,
$GPGGA,051757.30,3542.295735945,N,13943.269244345,E,4,12,1.25,24.817,M,36.997,M,5.3,4107*48
$PMSBATV,051757.30,2,2,-0.22941,-0.38879,-26.78881,0.000,0.000,0.000,139.79692,0.000*51,,,
$GPGGA,051757.40,3542.295736092,N,13943.269244155,E,5,10,1.61,24.817,M,36.997,M,5.4,4107*48
$PMSBATV,051757.40,2,2,-0.22376,-0.38859,-26.79276,-0.000,-0.000,-0.000,139.79692,0.000*74,,,
$GPGGA,051757.50,3542.295736103,N,13943.269244032,E,5,10,1.61,24.817,M,36.997,M,5.5,4107*41
$PMSBATV,051757.50,2,2,-0.21722,-0.38913,-26.79737,0.000,-0.000,0.000,139.79692,0.000*7C,,,
$GPGGA,051757.60,3542.295736092,N,13943.269244026,E,5,10,1.61,24.817,M,36.997,M,5.6,4107*4D
$PMSBATV,051757.60,2,2,-0.21463,-0.38816,-26.80051,-0.000,-0.000,0.000,139.79692,0.000*51,,,
$GPGGA,051757.70,3542.295736082,N,13943.269244019,E,5,10,1.61,24.817,M,36.997,M,5.7,4107*40
$PMSBATV,051757.70,2,2,-0.20741,-0.38869,-26.80655,0.000,-0.000,-0.000,139.79692,0.000*58,,,
$GPGGA,051757.80,3542.295736083,N,13943.269244020,E,5,10,1.61,24.817,M,36.997,M,5.8,4107*4B
$PMSBATV,051757.80,2,2,-0.20740,-0.39091,-26.80666,0.000,-0.000,0.000,139.79692,0.000*75,,,
$GPGGA,051757.90,3542.295736070,N,13943.269244010,E,5,10,1.61,24.817,M,36.997,M,5.9,4107*44
$PMSBATV,051757.90,2,2,-0.20366,-0.39381,-26.80360,-0.000,-0.000,0.000,139.79692,0.000*58,,,
$GPGGA,051758.00,3542.295736073,N,13943.269244017,E,5,10,1.61,24.817,M,36.997,M,6.0,4107*4C
$PMSBATV,051758.00,2,2,-0.20134,-0.39391,-26.80923,-0.000,0.000,0.000,139.79692,0.000*7A,,,
$GPGGA,051758.10,3542.295736090,N,13943.269244010,E,5,10,1.61,24.817,M,36.997,M,6.1,4107*46
$PMSBATV,051758.10,2,2,-0.20112,-0.39049,-26.80837,0.001,-0.000,0.000,139.79692,0.000*7C,,,
$GPGGA,051758.20,3542.295736087,N,13943.269244015,E,5,10,1.61,24.817,M,36.997,M,6.2,4107*45
$PMSBATV,051758.20,2,2,-0.20088,-0.38860,-26.80228,-0.000,0.000,0.000,139.79692,0.000*7A,,,
$GPGGA,051758.30,3542.295736072,N,13943.269244023,E,5,10,1.61,24.817,M,36.997,M,6.3,4107*4A
$PMSBATV,051758.30,2,2,-0.19251,-0.40085,-26.80599,-0.000,-0.000,0.000,139.79692,0.000*5B,,,
$GPGGA,051758.40,3542.295736073,N,13943.269244026,E,5,10,1.61,24.817,M,36.997,M,6.4,4107*4E
$PMSBATV,051758.40,2,2,-0.19051,-0.39475,-26.80511,-0.000,-0.000,0.000,139.79692,0.000*5B,,,
$GPGGA,051758.50,3542.295736068,N,13943.269244019,E,5,10,1.61,24.817,M,36.997,M,6.5,4107*48
$PMSBATV,051758.50,2,2,-0.19880,-0.39837,-26.80816,0.001,0.000,0.000,139.79692,0.000*5F,,,
$GPGGA,051758.60,3542.295736073,N,13943.269244017,E,5,10,1.61,24.817,M,36.997,M,6.6,4107*4C
$PMSBATV,051758.60,2,2,-0.20626,-0.38170,-26.80978,0.000,0.000,0.000,139.79692,0.000*57,,,
$GPGGA,051758.70,3542.295736070,N,13943.269244017,E,4,12,1.25,24.817,M,36.997,M,6.7,4107*4C
$PMSBATV,051758.70,2,2,-0.19294,-0.38076,-26.80760,0.000,-0.000,-0.000,139.79692,0.000*51,,,
$GPGGA,051758.80,3542.295736176,N,13943.269243812,E,4,12,1.25,24.817,M,36.997,M,6.8,4107*41
$PMSBATV,051758.80,2,2,-0.19903,-0.38483,-26.80199,0.000,0.000,-0.000,139.79692,0.000*78,,,
$GPGGA,051758.90,3542.295736153,N,13943.269243621,E,4,12,1.25,24.816,M,36.997,M,6.9,4107*49
$PMSBATV,051758.90,2,2,-0.20770,-0.38367,-26.80532,0.000,0.000,0.000,139.79692,0.000*5C,,,
$GPGGA,051759.00,3542.295736397,N,13943.269243323,E,4,12,1.25,24.816,M,36.997,M,7.0,4107*44
$PMSBATV,051759.00,2,2,-0.19502,-0.38546,-26.80267,0.000,-0.000,-0.000,139.79692,0.000*5B,,,
$GPGGA,051759.10,3542.295736635,N,13943.269242897,E,4,12,1.25,24.816,M,36.997,M,2.1,4107*49
$PMSBATV,051759.10,2,2,-0.20478,-0.38035,-26.80413,0.001,0.000,-0.000,139.79692,0.000*74,,,
$GPGGA,051759.20,3542.295736895,N,13943.269242514,E,4,12,1.25,24.816,M,36.997,M,2.2,4107*4B
$PMSBATV,051759.20,2,2,-0.21340,-0.36862,-26.80375,-0.000,0.000,-0.000,139.79692,0.000*55,,,
$GPGGA,051759.30,3542.295737179,N,13943.269242245,E,5,11,1.10,24.816,M,36.997,M,2.3,4107*46
$PMSBATV,051759.30,2,2,-0.20629,-0.37462,-26.80132,-0.000,-0.000,-0.000,139.79692,0.000*7E,,,
$GPGGA,051759.40,3542.295737177,N,13943.269242259,E,5,11,1.10,24.816,M,36.997,M,2.4,4107*45
$PMSBATV,051759.40,2,2,-0.21028,-0.38047,-26.80365,-0.000,0.000,-0.000,139.79692,0.000*5E,,,
$GPGGA,051759.50,3542.295737190,N,13943.269242270,E,5,11,1.10,24.816,M,36.997,M,2.5,4107*47
$PMSBATV,051759.50,2,2,-0.21464,-0.37395,-26.80292,0.000,-0.000,0.000,139.79692,0.000*74,,,
$GPGGA,051759.60,3542.295737199,N,13943.269242268,E,5,11,1.10,24.816,M,36.997,M,2.6,4107*47
$PMSBATV,051759.60,2,2,-0.20651,-0.36734,-26.80695,0.000,-0.000,0.000,139.79692,0.000*7F,,,
$GPGGA,051759.70,3542.295737210,N,13943.269242262,E,5,11,1.10,24.816,M,36.997,M,2.7,4107*4F
$PMSBATV,051759.70,2,2,-0.21044,-0.36098,-26.79964,0.001,-0.000,0.000,139.79692,0.000*7A,,,
$GPGGA,051759.80,3542.295737204,N,13943.269242269,E,5,11,1.10,24.816,M,36.997,M,2.8,4107*41
$PMSBATV,051759.80,2,2,-0.20734,-0.35633,-26.79774,-0.000,-0.000,0.000,139.79692,0.000*53,,,
$GPGGA,051759.90,3542.295737195,N,13943.269242281,E,5,11,1.10,24.816,M,36.997,M,2.9,4107*4C
$PMSBATV,051759.90,2,2,-0.20620,-0.36421,-26.79468,0.000,0.000,0.000,139.79692,0.000*5A,,,
$GPGGA,051800.00,3542.295737192,N,13943.269242279,E,5,11,1.10,24.816,M,36.997,M,3.0,4107*4E
$PMSBATV,051800.00,2,2,-0.20346,-0.36502,-26.79467,-0.000,-0.000,0.000,139.79692,0.000*5A,,,
$GPGGA,051800.10,3542.295737188,N,13943.269242287,E,4,13,1.02,24.816,M,36.997,M,3.1,4107*44
$PMSBATV,051800.10,2,2,-0.20686,-0.36166,-26.79948,0.000,-0.000,0.000,139.79692,0.000*79,,,
$GPGGA,051800.20,3542.295737924,N,13943.269241932,E,4,13,1.02,24.817,M,36.997,M,3.2,4107*4D
$PMSBATV,051800.20,2,2,-0.20012,-0.35687,-26.79809,0.001,-0.000,0.000,139.79692,0.000*7F,,,
$GPGGA,051800.30,3542.295738716,N,13943.269241371,E,4,13,1.02,24.817,M,36.997,M,3.3,4107*40
$PMSBATV,051800.30,2,2,-0.19350,-0.35067,-26.79089,0.000,-0.000,-0.000,139.79692,0.000*55,,,
$GPGGA,051800.40,3542.295739385,N,13943.269241116,E,4,13,1.02,24.818,M,36.997,M,3.4,4107*43
$PMSBATV,051800.40,2,2,-0.19425,-0.35148,-26.78567,0.000,0.000,-0.000,139.79692,0.000*72,,,
$GPGGA,051800.50,3542.295739990,N,13943.269240708,E,4,13,1.02,24.819,M,36.997,M,3.5,4107*44
$PMSBATV,051800.50,2,2,-0.19344,-0.35593,-26.78300,-0.000,-0.000,-0.000,139.79692,0.000*76,,,
$GPGGA,051800.60,3542.295740607,N,13943.269240356,E,4,13,1.02,24.819,M,36.997,M,3.6,4107*44
$PMSBATV,051800.60,2,2,-0.19836,-0.35321,-26.77640,0.000,-0.000,0.000,139.79692,0.000*7A,,,
$GPGGA,051800.70,3542.295741183,N,13943.269240061,E,4,13,1.02,24.820,M,36.997,M,3.7,4107*43
$PMSBATV,051800.70,2,2,-0.20018,-0.35329,-26.77592,-0.000,0.000,0.000,139.79692,0.000*71,,,
$GPGGA,051800.80,3542.295741449,N,13943.269239853,E,4,13,1.02,24.821,M,36.997,M,3.8,4107*46
$PMSBATV,051800.80,2,2,-0.19907,-0.36247,-26.77282,0.000,-0.000,0.000,139.79692,0.000*7F,,,
$GPGGA,051800.90,3542.295741929,N,13943.269239545,E,5,11,1.10,24.822,M,36.997,M,3.9,4107*44
$PMSBATV,051800.90,2,2,-0.20025,-0.36091,-26.77140,-0.000,-0.000,0.000,139.79692,0.000*54,,,
$GPGGA,051801.00,3542.295742331,N,13943.269239431,E,4,13,1.02,24.823,M,36.997,M,4.0,4107*41
$PMSBATV,051801.00,2,2,-0.19867,-0.35910,-26.77276,0.000,0.000,0.000,139.79692,0.000*5D,,,
$GPGGA,051801.10,3542.295742670,N,13943.269239323,E,4,13,1.02,24.824,M,36.997,M,4.1,4107*42
$PMSBATV,051801.10,2,2,-0.20011,-0.35332,-26.77374,0.000,0.000,0.000,139.79692,0.000*56,,,
$GPGGA,051801.20,3542.295743083,N,13943.269239079,E,4,13,1.02,24.824,M,36.997,M,4.2,4107*45
$PMSBATV,051801.20,2,2,-0.20011,-0.35044,-26.77719,0.000,0.000,0.000,139.79692,0.000*58,,,
$GPGGA,051801.30,3542.295743454,N,13943.269238906,E,4,13,1.02,24.825,M,36.997,M,4.3,4107*4A
$PMSBATV,051801.30,2,2,-0.20253,-0.34849,-26.77277,0.000,0.000,0.000,139.79692,0.000*54,,,
$GPGGA,051801.40,3542.295743901,N,13943.269238907,E,5,11,1.10,24.825,M,36.997,M,4.4,4107*46
$PMSBATV,051801.40,2,2,-0.21278,-0.35692,-26.77325,-0.000,-0.000,0.000,139.79692,0.000*54,,,
$GPGGA,051801.50,3542.295744097,N,13943.269238744,E,4,13,1.02,24.826,M,36.997,M,4.5,4107*4D
$PMSBATV,051801.50,2,2,-0.21257,-0.36064,-26.77606,0.000,0.000,-0.000,139.79692,0.000*7D,,,
$GPGGA,051801.60,3542.295744344,N,13943.269238586,E,4,13,1.02,24.826,M,36.997,M,4.6,4107*4C
$PMSBATV,051801.60,2,2,-0.21086,-0.36080,-26.78160,0.000,0.000,0.000,139.79692,0.000*5F,,,
$GPGGA,051801.70,3542.295744818,N,13943.269238391,E,4,13,1.02,24.827,M,36.997,M,4.7,4107*4F
$PMSBATV,051801.70,2,2,-0.20920,-0.35855,-26.78100,0.000,0.000,0.000,139.79692,0.000*5F,,,
$GPGGA,051801.80,3542.295745107,N,13943.269238286,E,4,13,1.02,24.828,M,36.997,M,4.8,4107*41
$PMSBATV,051801.80,2,2,-0.21365,-0.36175,-26.78551,-0.000,0.000,0.000,139.79692,0.000*7F,,,
$GPGGA,051801.90,3542.295745306,N,13943.269238257,E,5,11,1.10,24.828,M,36.997,M,4.9,4107*4E
$PMSBATV,051801.90,2,2,-0.20530,-0.35868,-26.78257,0.000,-0.000,0.000,139.79692,0.000*7E,,,
$GPGGA,051802.00,3542.295745701,N,13943.269238204,E,4,13,1.02,24.829,M,36.997,M,5.0,4107*48
$PMSBATV,051802.00,2,2,-0.20012,-0.36614,-26.78341,-0.000,-0.000,0.000,139.79692,0.000*5C,,,
$GPGGA,051802.10,3542.295745915,N,13943.269238016,E,4,13,1.02,24.829,M,36.997,M,5.1,4107*42
$PMSBATV,051802.10,2,2,-0.20155,-0.38231,-26.78058,-0.000,-0.000,0.000,139.79692,0.000*59,,,
$GPGGA,051802.20,3542.295746122,N,13943.269238123,E,4,13,1.02,24.830,M,36.997,M,5.2,4107*42
$PMSBATV,051802.20,2,2,-0.21256,-0.36668,-26.78811,0.001,-0.000,0.000,139.79692,0.000*74,,,
$GPGGA,051802.30,3542.295746565,N,13943.269237898,E,4,13,1.02,24.830,M,36.997,M,5.3,4107*43
$PMSBATV,051802.30,2,2,-0.19951,-0.36115,-26.77767,-0.000,-0.000,0.000,139.79692,0.000*52,,,
$GPGGA,051802.40,3542.295746791,N,13943.269237672,E,4,13,1.02,24.831,M,36.997,M,5.4,4107*41
$PMSBATV,051802.40,2,2,-0.21178,-0.37778,-26.78682,-0.000,0.000,0.000,139.79692,0.000*79,,,
$GPGGA,051802.50,3542.295747075,N,13943.269237588,E,5,11,1.10,24.831,M,36.997,M,5.5,4107*4B
$PMSBATV,051802.50,2,2,-0.23020,-0.36643,-26.78039,0.001,0.000,-0.000,139.79692,0.000*79,,,
$GPGGA,051802.60,3542.295747287,N,13943.269237480,E,4,13,1.02,24.831,M,36.997,M,5.6,4107*4D
$PMSBATV,051802.60,2,2,-0.21706,-0.36950,-26.78909,-0.000,0.000,-0.000,139.79692,0.000*50,,,
$GPGGA,051802.70,3542.295747579,N,13943.269237298,E,4,13,1.02,24.832,M,36.997,M,5.7,4107*47
$PMSBATV,051802.70,2,2,-0.21403,-0.36499,-26.78686,0.001,-0.000,0.000,139.79692,0.000*7B,,,
$GPGGA,051802.80,3542.295747764,N,13943.269237277,E,4,13,1.02,24.832,M,36.997,M,5.8,4107*48
$PMSBATV,051802.80,2,2,-0.21798,-0.36551,-26.78934,-0.000,-0.000,0.000,139.79692,0.000*5A,,,
$GPGGA,051802.90,3542.295748061,N,13943.269237178,E,4,13,1.02,24.833,M,36.997,M,5.9,4107*48
$PMSBATV,051802.90,2,2,-0.20723,-0.37045,-26.78580,0.000,-0.000,-0.000,139.79692,0.000*58,,,
$GPGGA,051803.00,3542.295748211,N,13943.269237149,E,4,13,1.02,24.833,M,36.997,M,6.0,4107*4D
$PMSBATV,051803.00,2,2,-0.20432,-0.37878,-26.78635,-0.000,0.000,0.000,139.79692,0.000*75,,,
$GPGGA,051803.10,3542.295748361,N,13943.269237095,E,5,11,1.10,24.834,M,36.997,M,1.1,4107*4B
$PMSBATV,051803.10,2,2,-0.20172,-0.37629,-26.78381,0.000,-0.000,0.000,139.79692,0.000*75,,,
$GPGGA,051803.20,3542.295748622,N,13943.269236974,E,4,13,1.02,24.835,M,36.997,M,1.2,4107*4F
$PMSBATV,051803.20,2,2,-0.19593,-0.37861,-26.78655,0.000,-0.000,-0.000,139.79692,0.000*54,,,
$GPGGA,051803.30,3542.295748953,N,13943.269236947,E,4,14,0.89,24.835,M,36.997,M,1.3,4107*43
$PMSBATV,051803.30,2,2,-0.19843,-0.37455,-26.78962,0.001,0.000,-0.000,139.79692,0.000*79,,,
$GPGGA,051803.40,3542.295749150,N,13943.269236879,E,4,14,0.89,24.836,M,36.997,M,1.4,4107*46
$PMSBATV,051803.40,2,2,-0.20605,-0.37931,-26.78937,-0.000,-0.000,0.000,139.79692,0.000*5B,,,
$GPGGA,051803.50,3542.295749431,N,13943.269236713,E,4,14,0.89,24.836,M,36.997,M,1.5,4107*47
$PMSBATV,051803.50,2,2,-0.20741,-0.37787,-26.78887,-0.000,-0.000,0.000,139.79692,0.000*52,,,
$GPGGA,051803.60,3542.295749692,N,13943.269236742,E,4,14,0.89,24.837,M,36.997,M,1.6,4107*49
$PMSBATV,051803.60,2,2,-0.20872,-0.37679,-26.78486,0.000,0.000,0.000,139.79692,0.000*53,,,
$GPGGA,051803.70,3542.295749894,N,13943.269236667,E,5,11,1.10,24.837,M,36.997,M,1.7,4107*42
$PMSBATV,051803.70,2,2,-0.20932,-0.37883,-26.78461,-0.000,-0.000,0.000,139.79692,0.000*55,,,
$GPGGA,051803.80,3542.295750130,N,13943.269236530,E,4,14,0.89,24.838,M,36.997,M,1.8,4107*46
$PMSBATV,051803.80,2,2,-0.21512,-0.37697,-26.78774,0.000,-0.000,0.000,139.79692,0.000*74,,,
$GPGGA,051803.90,3542.295750336,N,13943.269236531,E,4,14,0.89,24.838,M,36.997,M,1.9,4107*43
$PMSBATV,051803.90,2,2,-0.21344,-0.37831,-26.79160,-0.000,0.000,0.000,139.79692,0.000*70,,,
$GPGGA,051804.00,3542.295750486,N,13943.269236532,E,4,14,0.89,24.839,M,36.997,M,2.0,4107*49
$PMSBATV,051804.00,2,2,-0.21342,-0.37799,-26.79382,0.000,-0.000,0.000,139.79692,0.000*7B,,,
$GPGGA,051804.10,3542.295750723,N,13943.269236364,E,4,14,0.89,24.839,M,36.997,M,2.1,4107*40
$PMSBATV,051804.10,2,2,-0.21952,-0.38129,-26.79689,-0.000,0.000,0.000,139.79692,0.000*7D,,,
$GPGGA,051804.20,3542.295750916,N,13943.269236249,E,4,14,0.89,24.840,M,36.997,M,2.2,4107*48
$PMSBATV,051804.20,2,2,-0.22276,-0.38249,-26.79576,0.000,0.000,-0.000,139.79692,0.000*76,,,
$GPGGA,051804.30,3542.295751169,N,13943.269236200,E,4,14,0.89,24.840,M,36.997,M,2.3,4107*44
$PMSBATV,051804.30,2,2,-0.22847,-0.38837,-26.79782,-0.000,0.000,0.000,139.79692,0.000*75,,,
$GPGGA,051804.40,3542.295751232,N,13943.269236358,E,4,14,0.89,24.841,M,36.997,M,2.4,4107*44
$PMSBATV,051804.40,2,2,-0.22725,-0.39298,-26.79612,0.000,0.000,0.000,139.79692,0.000*52,,,
$GPGGA,051804.50,3542.295751338,N,13943.269236310,E,4,14,0.89,24.841,M,36.997,M,2.5,4107*43
$PMSBATV,051804.50,2,2,-0.22261,-0.38564,-26.80028,0.000,-0.000,-0.000,139.79692,0.000*5A,,,
$GPGGA,051804.60,3542.295751444,N,13943.269236205,E,5,11,1.10,24.842,M,36.997,M,2.6,4107*4C
$PMSBATV,051804.60,2,2,-0.22419,-0.37826,-26.79710,0.000,-0.000,0.000,139.79692,0.000*73,,,
$GPGGA,051804.70,3542.295751600,N,13943.269236232,E,4,14,0.89,24.842,M,36.997,M,2.7,4107*4F
$PMSBATV,051804.70,2,2,-0.22347,-0.38016,-26.79480,-0.000,-0.000,0.000,139.79692,0.000*5D,,,
$GPGGA,051804.80,3542.295751727,N,13943.269236128,E,4,14,0.89,24.843,M,36.997,M,2.8,4107*42
$PMSBATV,051804.80,2,2,-0.22635,-0.37829,-26.79713,0.000,-0.000,0.000,139.79692,0.000*7D,,,
$GPGGA,051804.90,3542.295751932,N,13943.269236013,E,4,14,0.89,24.843,M,36.997,M,2.9,4107*41
$PMSBATV,051804.90,2,2,-0.22947,-0.37844,-26.79199,-0.000,-0.000,0.000,139.79692,0.000*54,,,
$GPGGA,051805.00,3542.295752007,N,13943.269236014,E,4,14,0.89,24.844,M,36.997,M,3.0,4107*4D
$PMSBATV,051805.00,2,2,-0.22622,-0.38176,-26.78971,0.000,0.000,0.000,139.79692,0.000*58,,,
$GPGGA,051805.10,3542.295752254,N,13943.269235993,E,4,14,0.89,24.844,M,36.997,M,3.1,4107*4C
$PMSBATV,051805.10,2,2,-0.22918,-0.37253,-26.78850,0.000,0.000,0.000,139.79692,0.000*56,,,
$GPGGA,051805.20,3542.295752383,N,13943.269235982,E,4,14,0.89,24.844,M,36.997,M,3.2,4107*47
$PMSBATV,051805.20,2,2,-0.23132,-0.37698,-26.78651,0.000,0.000,0.000,139.79692,0.000*58,,,
$GPGGA,051805.30,3542.295752497,N,13943.269236047,E,4,13,1.02,24.845,M,36.997,M,3.3,4107*42
$PMSBATV,051805.30,2,2,-0.23005,-0.37911,-26.78995,0.000,-0.000,0.000,139.79692,0.000*78,,,
$GPGGA,051805.40,3542.295752730,N,13943.269236027,E,4,13,1.02,24.845,M,36.997,M,3.4,4107*4A
$PMSBATV,051805.40,2,2,-0.22998,-0.38232,-26.79120,0.000,-0.000,-0.000,139.79692,0.000*5C,,,
$GPGGA,051805.50,3542.295752905,N,13943.269235854,E,4,13,1.02,24.846,M,36.997,M,3.5,4107*4E
$PMSBATV,051805.50,2,2,-0.23666,-0.37954,-26.78656,0.000,0.000,0.000,139.79692,0.000*51,,,
$GPGGA,051805.60,3542.295753100,N,13943.269235829,E,5,11,1.10,24.846,M,36.997,M,3.6,4107*48
$PMSBATV,051805.60,2,2,-0.23555,-0.37429,-26.78883,0.000,0.000,0.000,139.79692,0.000*50,,,
$GPGGA,051805.70,3542.295753243,N,13943.269235719,E,4,14,0.89,24.846,M,36.997,M,3.7,4107*45
$PMSBATV,051805.70,2,2,-0.22632,-0.36956,-26.78053,0.000,-0.000,0.000,139.79692,0.000*7E,,,
$GPGGA,051805.80,3542.295753313,N,13943.269235867,E,4,13,1.02,24.847,M,36.997,M,3.8,4107*43
$PMSBATV,051805.80,2,2,-0.22936,-0.37025,-26.78315,-0.000,0.000,-0.000,139.79692,0.000*5A,,,
$GPGGA,051805.90,3542.295753443,N,13943.269235831,E,4,14,0.89,24.847,M,36.997,M,3.9,4107*47
$PMSBATV,051805.90,2,2,-0.22459,-0.37657,-26.78740,-0.000,0.000,-0.000,139.79692,0.000*58,,,
$GPGGA,051806.00,3542.295753621,N,13943.269235847,E,4,14,0.89,24.847,M,36.997,M,4.0,4107*44
$PMSBATV,051806.00,2,2,-0.21074,-0.37873,-26.79416,0.000,-0.000,-0.000,139.79692,0.000*53,,,
$GPGGA,051806.10,3542.295753788,N,13943.269235699,E,5,11,1.10,24.848,M,36.997,M,4.1,4107*41
$PMSBATV,051806.10,2,2,-0.21313,-0.37013,-26.79437,0.000,0.000,0.000,139.79692,0.000*5D,,,
$GPGGA,051806.20,3542.295753819,N,13943.269235675,E,4,14,0.89,24.848,M,36.997,M,4.2,4107*41
$PMSBATV,051806.20,2,2,-0.21317,-0.36562,-26.79540,0.000,0.000,0.000,139.79692,0.000*59,,,
$GPGGA,051806.30,3542.295753983,N,13943.269235684,E,4,14,0.89,24.849,M,36.997,M,4.3,4107*4C
$PMSBATV,051806.30,2,2,-0.20717,-0.36483,-26.79719,0.000,-0.000,0.000,139.79692,0.000*70,,,
$GPGGA,051806.40,3542.295754078,N,13943.269235611,E,4,14,0.89,24.849,M,36.997,M,4.4,4107*4A
$PMSBATV,051806.40,2,2,-0.20589,-0.36594,-26.80111,-0.000,0.000,0.000,139.79692,0.000*7D,,,
$GPGGA,051806.50,3542.295754217,N,13943.269235532,E,4,14,0.89,24.849,M,36.997,M,4.5,4107*43
$PMSBATV,051806.50,2,2,-0.20503,-0.37142,-26.80773,0.000,0.000,0.000,139.79692,0.000*5F,,,
$GPGGA,051806.60,3542.295754359,N,13943.269235544,E,4,14,0.89,24.850,M,36.997,M,4.6,4107*41
$PMSBATV,051806.60,2,2,-0.20263,-0.36958,-26.80997,0.000,0.000,0.000,139.79692,0.000*5B,,,
$GPGGA,051806.70,3542.295754537,N,13943.269235462,E,4,14,0.89,24.850,M,36.997,M,4.7,4107*4A
$PMSBATV,051806.70,2,2,-0.20520,-0.36778,-26.80719,0.000,-0.000,0.000,139.79692,0.000*73,,,
$GPGGA,051806.80,3542.295754497,N,13943.269235416,E,4,13,1.02,24.850,M,36.997,M,4.8,4107*47
$PMSBATV,051806.80,2,2,-0.21007,-0.36542,-26.80262,0.000,0.000,0.000,139.79692,0.000*52,,,
$GPGGA,051806.90,3542.295754615,N,13943.269235399,E,4,13,1.02,24.851,M,36.997,M,4.9,4107*4E
$PMSBATV,051806.90,2,2,-0.20822,-0.37365,-26.79599,-0.000,-0.000,-0.000,139.79692,0.000*77,,,
$GPGGA,051807.00,3542.295754800,N,13943.269235199,E,4,13,1.02,24.851,M,36.997,M,5.0,4107*46
$PMSBATV,051807.00,2,2,-0.20640,-0.37802,-26.79779,0.000,0.000,-0.000,139.79692,0.000*73,,,
$GPGGA,051807.10,3542.295754975,N,13943.269235143,E,4,13,1.02,24.851,M,36.997,M,5.1,4107*42
$PMSBATV,051807.10,2,2,-0.20917,-0.38466,-26.79462,0.000,-0.000,-0.000,139.79692,0.000*5A,,,
$GPGGA,051807.20,3542.295755112,N,13943.269235142,E,4,13,1.02,24.851,M,36.997,M,5.2,4107*4B
$PMSBATV,051807.20,2,2,-0.20229,-0.38576,-26.79715,0.000,0.000,0.000,139.79692,0.000*5C,,,
$GPGGA,051807.30,3542.295755225,N,13943.269234987,E,4,13,1.02,24.852,M,36.997,M,5.3,4107*4F
$PMSBATV,051807.30,2,2,-0.20027,-0.38219,-26.79834,0.000,0.000,0.000,139.79692,0.000*53,,,
$GPGGA,051807.40,3542.295755266,N,13943.269235054,E,5,11,1.10,24.852,M,36.997,M,5.4,4107*4E
$PMSBATV,051807.40,2,2,-0.20498,-0.38054,-26.79752,-0.000,-0.000,0.000,139.79692,0.000*50,,,
$GPGGA,051807.50,3542.295755435,N,13943.269234990,E,4,13,1.02,24.852,M,36.997,M,5.5,4107*4E
$PMSBATV,051807.50,2,2,-0.20942,-0.38122,-26.79910,-0.000,-0.000,-0.000,139.79692,0.000*7E,,,
$GPGGA,051807.60,3542.295755602,N,13943.269234993,E,4,13,1.02,24.852,M,36.997,M,5.6,4107*4B
$PMSBATV,051807.60,2,2,-0.20246,-0.37959,-26.79720,0.000,-0.000,0.000,139.79692,0.000*74,,,
$GPGGA,051807.70,3542.295755733,N,13943.269234990,E,4,13,1.02,24.853,M,36.997,M,5.7,4107*4A
$PMSBATV,051807.70,2,2,-0.20396,-0.37858,-26.79934,0.000,-0.000,0.000,139.79692,0.000*72,,,
$GPGGA,051807.80,3542.295755803,N,13943.269235116,E,4,13,1.02,24.853,M,36.997,M,5.8,4107*41
$PMSBATV,051807.80,2,2,-0.20543,-0.37553,-26.80219,-0.000,-0.000,-0.000,139.79692,0.000*77,,,
$GPGGA,051807.90,3542.295755941,N,13943.269235093,E,4,13,1.02,24.853,M,36.997,M,5.9,4107*4A
$PMSBATV,051807.90,2,2,-0.20671,-0.37185,-26.80116,-0.000,0.000,0.000,139.79692,0.000*77,,,
$GPGGA,051808.00,3542.295756037,N,13943.269235160,E,4,13,1.02,24.853,M,36.997,M,6.0,4107*40
$PMSBATV,051808.00,2,2,-0.21644,-0.37586,-26.80018,-0.000,-0.000,0.000,139.79692,0.000*53,,,
$GPGGA,051808.10,3542.295755972,N,13943.269235122,E,4,13,1.02,24.854,M,36.997,M,1.1,4107*4D
$PMSBATV,051808.10,2,2,-0.21235,-0.37580,-26.80192,-0.000,-0.000,0.000,139.79692,0.000*55,,,
$GPGGA,051808.20,3542.295755825,N,13943.269235218,E,4,13,1.02,24.854,M,36.997,M,1.2,4107*44
$PMSBATV,051808.20,2,2,-0.21519,-0.37463,-26.79880,0.000,-0.000,0.000,139.79692,0.000*72,,,
$GPGGA,051808.30,3542.295755718,N,13943.269235150,E,4,13,1.02,24.854,M,36.997,M,1.3,4107*4A
$PMSBATV,051808.30,2,2,-0.21959,-0.37482,-26.79905,-0.000,0.000,0.000,139.79692,0.000*78,,,
$GPGGA,051808.40,3542.295755767,N,13943.269235179,E,4,13,1.02,24.854,M,36.997,M,1.4,4107*49
$PMSBATV,051808.40,2,2,-0.22399,-0.37792,-26.79938,-0.000,0.000,0.000,139.79692,0.000*76,,,
$GPGGA,051808.50,3542.295755679,N,13943.269235250,E,4,13,1.02,24.854,M,36.997,M,1.5,4107*4F
$PMSBATV,051808.50,2,2,-0.22293,-0.38030,-26.80008,-0.000,-0.000,0.000,139.79692,0.000*5D,,,
$GPGGA,051808.60,3542.295755549,N,13943.269235354,E,4,13,1.02,24.855,M,36.997,M,1.6,4107*4B
$PMSBATV,051808.60,2,2,-0.22167,-0.37958,-26.79693,-0.000,-0.000,0.000,139.79692,0.000*5C,,,
$GPGGA,051808.70,3542.295755476,N,13943.269235341,E,4,13,1.02,24.855,M,36.997,M,1.7,4107*42
$PMSBATV,051808.70,2,2,-0.22296,-0.38183,-26.79451,-0.000,0.000,0.000,139.79692,0.000*70,,,
$GPGGA,051808.80,3542.295755406,N,13943.269235378,E,4,13,1.02,24.855,M,36.997,M,1.8,4107*4F
$PMSBATV,051808.80,2,2,-0.22073,-0.38797,-26.79141,0.000,0.000,0.000,139.79692,0.000*5C,,,
$GPGGA,051808.90,3542.295755456,N,13943.269235302,E,5,11,1.10,24.855,M,36.997,M,1.9,4107*47
$PMSBATV,051808.90,2,2,-0.22941,-0.37786,-26.78865,0.000,0.000,-0.000,139.79692,0.000*79,,,
$GPGGA,051809.00,3542.295755268,N,13943.269235415,E,4,13,1.02,24.856,M,36.997,M,2.0,4107*4C
$PMSBATV,051809.00,2,2,-0.22365,-0.37127,-26.78452,0.000,-0.000,-0.000,139.79692,0.000*55,,,
$GPGGA,051809.10,3542.295755325,N,13943.269235429,E,4,13,1.02,24.856,M,36.997,M,2.1,4107*4B
$PMSBATV,051809.10,2,2,-0.21922,-0.37405,-26.78164,-0.000,-0.000,-0.000,139.79692,0.000*76,,,
$GPGGA,051809.20,3542.295755268,N,13943.269235432,E,4,13,1.02,24.856,M,36.997,M,2.2,4107*49
