$GPGGA,065828.10,3542.292971090,N,13943.288262246,E,1,08,4.16,21.934,M,36.995,M,,*6D
$GPGGA,065828.20,3542.292965090,N,13943.288274246,E,1,08,4.16,21.923,M,36.995,M,,*6A
$GPGGA,065828.30,3542.292959090,N,13943.288274246,E,1,08,4.16,21.914,M,36.995,M,,*60
$GPGGA,065828.40,3542.292959090,N,13943.288274246,E,1,08,4.16,21.933,M,36.995,M,,*62
$GPGGA,065828.50,3542.292959090,N,13943.288268246,E,1,08,4.16,21.944,M,36.995,M,,*6E
$GPGGA,065828.60,3542.292959090,N,13943.288256246,E,1,08,4.16,21.969,M,36.995,M,,*6F
$GPGGA,065828.70,3542.292959090,N,13943.288250246,E,1,08,4.16,21.987,M,36.995,M,,*68
$GPGGA,065828.80,3542.292959090,N,13943.288250246,E,1,08,4.16,21.995,M,36.995,M,,*64
$GPGGA,065828.90,3542.292959090,N,13943.288232246,E,1,08,4.16,22.037,M,36.995,M,,*63
$GPGGA,065829.00,3542.292959090,N,13943.288226246,E,1,08,4.16,22.062,M,36.995,M,,*6E
$GPGGA,065829.10,3542.292959090,N,13943.288226246,E,1,08,4.16,22.069,M,36.995,M,,*64
$GPGGA,065829.20,3542.292959090,N,13943.288214246,E,1,08,4.16,22.088,M,36.995,M,,*69
$GPGGA,065829.30,3542.292953090,N,13943.288220246,E,1,08,4.16,22.082,M,36.995,M,,*6F
$GPGGA,065829.40,3542.292953090,N,13943.288220246,E,1,08,4.16,22.097,M,36.995,M,,*6C
$GPGGA,065829.50,3542.292947090,N,13943.288220246,E,1,08,4.16,22.096,M,36.995,M,,*69
$GPGGA,065829.60,3542.292941090,N,13943.288226246,E,1,08,4.16,22.094,M,36.995,M,,*68
$GPGGA,065829.70,3542.292947090,N,13943.288220246,E,1,08,4.16,22.105,M,36.995,M,,*60
$GPGGA,065829.80,3542.292941090,N,13943.288226246,E,1,08,4.16,22.097,M,36.995,M,,*65
$GPGGA,065829.90,3542.292935090,N,13943.288226246,E,1,08,4.16,22.095,M,36.995,M,,*65
$GPGGA,065830.00,3542.292941090,N,13943.288214246,E,1,08,4.16,22.131,M,36.995,M,,*69
$GPGGA,065830.10,3542.292935090,N,13943.288208246,E,1,08,4.16,22.147,M,36.995,M,,*67
$GPGGA,065830.20,3542.292935090,N,13943.288208246,E,1,08,4.16,22.138,M,36.995,M,,*6C
$GPGGA,065830.30,3542.292929090,N,13943.288214246,E,1,08,4.16,22.134,M,36.995,M,,*61
$GPGGA,065830.40,3542.292929090,N,13943.288220246,E,1,08,4.16,22.132,M,36.995,M,,*67
$GPGGA,065830.50,3542.292929090,N,13943.288214246,E,1,08,4.16,22.139,M,36.995,M,,*6A
$GPGGA,065830.60,3542.292923090,N,13943.288214246,E,1,08,4.16,22.137,M,36.995,M,,*6D
$GPGGA,065830.70,3542.292929090,N,13943.288202246,E,1,08,4.16,22.162,M,36.995,M,,*61
$GPGGA,065830.80,3542.292923090,N,13943.288196246,E,1,08,4.16,22.181,M,36.995,M,,*67
$GPGGA,065830.90,3542.292923090,N,13943.288196246,E,1,08,4.16,22.189,M,36.995,M,,*6E
$GPGGA,065831.00,3542.292923090,N,13943.288196246,E,1,08,4.16,22.188,M,36.995,M,,*67
$GPGGA,065831.10,3542.292917090,N,13943.288190246,E,1,08,4.16,22.202,M,36.995,M,,*66
$GPGGA,065831.20,3542.292917090,N,13943.288184246,E,1,08,4.16,22.212,M,36.995,M,,*61
$GPGGA,065831.30,3542.292917090,N,13943.288184246,E,1,08,4.16,22.219,M,36.995,M,,*6B
$GPGGA,065831.40,3542.292917090,N,13943.288178246,E,1,08,4.16,22.242,M,36.995,M,,*61
$GPGGA,065831.50,3542.292917090,N,13943.288178246,E,1,08,4.16,22.243,M,36.995,M,,*61
$GPGGA,065831.60,3542.292911090,N,13943.288178246,E,1,08,4.16,22.258,M,36.995,M,,*6E
$GPGGA,065831.70,3542.292917090,N,13943.288172246,E,1,08,4.16,22.274,M,36.995,M,,*6D
$GPGGA,065831.80,3542.292911090,N,13943.288184246,E,1,08,4.16,22.255,M,36.995,M,,*6E
$GPGGA,065831.90,3542.292911090,N,13943.288166246,E,1,08,4.16,22.290,M,36.995,M,,*6A
$GPGGA,065832.00,3542.292911090,N,13943.288166246,E,1,08,4.16,22.306,M,36.995,M,,*6E
$GPGGA,065832.10,3542.292911090,N,13943.288160246,E,1,08,4.16,22.305,M,36.995,M,,*6A
$GPGGA,065832.20,3542.292905090,N,13943.288160246,E,1,08,4.16,22.326,M,36.995,M,,*6D
$GPGGA,065832.30,3542.292905090,N,13943.288154246,E,1,08,4.16,22.351,M,36.995,M,,*6B
$GPGGA,065832.40,3542.292905090,N,13943.288148246,E,1,08,4.16,22.351,M,36.995,M,,*61
$GPGGA,065832.50,3542.292905090,N,13943.288148246,E,1,08,4.16,22.366,M,36.995,M,,*64
$GPGGA,065832.60,3542.292899090,N,13943.288148246,E,1,08,4.16,22.359,M,36.995,M,,*6F
$GPGGA,065832.70,3542.292899090,N,13943.288148246,E,1,08,4.16,22.377,M,36.995,M,,*62
$GPGGA,065832.80,3542.292899090,N,13943.288136246,E,1,08,4.16,22.404,M,36.995,M,,*67
$GPGGA,065832.90,3542.292899090,N,13943.288136246,E,1,08,4.16,22.423,M,36.995,M,,*63
$GPGGA,065833.00,3542.292899090,N,13943.288130246,E,1,08,4.16,22.434,M,36.995,M,,*6B
$GPGGA,065833.10,3542.292893090,N,13943.288136246,E,1,08,4.16,22.437,M,36.995,M,,*65
$GPGGA,065833.20,3542.292893090,N,13943.288136246,E,1,08,4.16,22.447,M,36.995,M,,*61
$GPGGA,065833.30,3542.292893090,N,13943.288124246,E,1,08,4.16,22.475,M,36.995,M,,*62
$GPGGA,065833.40,3542.292887090,N,13943.288118246,E,1,08,4.16,22.497,M,36.995,M,,*63
$GPGGA,065833.50,3542.292893090,N,13943.288112246,E,1,08,4.16,22.506,M,36.995,M,,*64
$GPGGA,065833.60,3542.292887090,N,13943.288106246,E,1,08,4.16,22.528,M,36.995,M,,*6B
$GPGGA,065833.70,3542.292887090,N,13943.288100246,E,1,08,4.16,22.542,M,36.995,M,,*60
$GPGGA,065833.80,3542.292887090,N,13943.288100246,E,1,08,4.16,22.555,M,36.995,M,,*69
$GPGGA,065833.90,3542.292893090,N,13943.288094246,E,1,08,4.16,22.581,M,36.995,M,,*68
$GPGGA,065834.00,3542.292893090,N,13943.288094246,E,1,08,4.16,22.588,M,36.995,M,,*6F
$GPGGA,065834.10,3542.292887090,N,13943.288088246,E,1,08,4.16,22.617,M,36.995,M,,*63
$GPGGA,065834.20,3542.292887090,N,13943.288082246,E,1,08,4.16,22.631,M,36.995,M,,*6E
$GPGGA,065834.30,3542.292887090,N,13943.288082246,E,1,08,4.16,22.630,M,36.995,M,,*6E
$GPGGA,065834.40,3542.292887090,N,13943.288088246,E,1,08,4.16,22.640,M,36.995,M,,*64
$GPGGA,065834.50,3542.292881090,N,13943.288076246,E,1,08,4.16,22.657,M,36.995,M,,*64
$GPGGA,065834.60,3542.292881090,N,13943.288070246,E,1,08,4.16,22.670,M,36.995,M,,*64
$GPGGA,065834.70,3542.292881090,N,13943.288082246,E,1,08,4.16,22.665,M,36.995,M,,*6C
$GPGGA,065834.80,3542.292881090,N,13943.288064246,E,1,08,4.16,22.702,M,36.995,M,,*6B
$GPGGA,065834.90,3542.292875090,N,13943.288052246,E,1,08,4.16,22.733,M,36.995,M,,*66
$GPGGA,065835.00,3542.292881090,N,13943.288052246,E,1,08,4.16,22.722,M,36.995,M,,*65
$GPGGA,065835.10,3542.292881090,N,13943.288046246,E,1,08,4.16,22.745,M,36.995,M,,*60
$GPGGA,065835.20,3542.292881090,N,13943.288040246,E,1,08,4.16,22.764,M,36.995,M,,*66
$GPGGA,065835.30,3542.292875090,N,13943.288040246,E,1,08,4.16,22.764,M,36.995,M,,*6C
$GPGGA,065835.40,3542.292881090,N,13943.288028246,E,1,08,4.16,22.786,M,36.995,M,,*62
$GPGGA,065835.50,3542.292881090,N,13943.288022246,E,1,08,4.16,22.805,M,36.995,M,,*6D
$GPGGA,065835.60,3542.292875090,N,13943.288022247,E,1,08,4.16,22.808,M,36.995,M,,*69
$GPGGA,065835.70,3542.292881090,N,13943.288016246,E,1,08,4.16,22.812,M,36.995,M,,*6E
$GPGGA,065835.80,3542.292881090,N,13943.288010247,E,1,08,4.16,22.826,M,36.995,M,,*61
$GPGGA,065835.90,3542.292875090,N,13943.288004247,E,1,08,4.16,22.848,M,36.995,M,,*66
$GPGGA,065836.00,3542.292875090,N,13943.287998247,E,1,08,4.16,22.855,M,36.995,M,,*63
$GPGGA,065836.10,3542.292881090,N,13943.287998247,E,1,08,4.16,22.859,M,36.995,M,,*65
$GPGGA,065836.20,3542.292875090,N,13943.287998247,E,1,08,4.16,22.860,M,36.995,M,,*67
$GPGGA,065836.30,3542.292875090,N,13943.287980247,E,1,08,4.16,22.890,M,36.995,M,,*60
$GPGGA,065836.40,3542.292875090,N,13943.287980247,E,1,08,4.16,22.903,M,36.995,M,,*6C
$GPGGA,065836.50,3542.292875090,N,13943.287980247,E,1,08,4.16,22.905,M,36.995,M,,*6B
$GPGGA,065836.60,3542.292869090,N,13943.287980247,E,1,08,4.16,22.893,M,36.995,M,,*6B
$GPGGA,065836.70,3542.292869090,N,13943.287974247,E,1,08,4.16,22.906,M,36.995,M,,*6C
$GPGGA,065836.80,3542.292869090,N,13943.287974247,E,1,08,4.16,22.920,M,36.995,M,,*67
$GPGGA,065836.90,3542.292869090,N,13943.287956247,E,1,08,4.16,22.940,M,36.995,M,,*60
$GPGGA,065837.00,3542.292869090,N,13943.287962247,E,1,08,4.16,22.937,M,36.995,M,,*6F
$GPGGA,065837.10,3542.292869090,N,13943.287962247,E,1,08,4.16,22.940,M,36.995,M,,*6E
$GPGGA,065837.20,3542.292863090,N,13943.287956247,E,1,08,4.16,22.942,M,36.995,M,,*62
$GPGGA,065837.30,3542.292869090,N,13943.287950247,E,1,08,4.16,22.948,M,36.995,M,,*65
$GPGGA,065837.40,3542.292863090,N,13943.287944247,E,1,08,4.16,22.965,M,36.995,M,,*62
$GPGGA,065837.50,3542.292863090,N,13943.287938247,E,1,08,4.16,22.976,M,36.995,M,,*6A
$GPGGA,065837.60,3542.292863090,N,13943.287938247,E,1,08,4.16,22.975,M,36.995,M,,*6A
$GPGGA,065837.70,3542.292863090,N,13943.287932247,E,1,08,4.16,22.986,M,36.995,M,,*6D
$GPGGA,065837.80,3542.292863090,N,13943.287926247,E,1,08,4.16,22.996,M,36.995,M,,*66
$GPGGA,065837.90,3542.292863090,N,13943.287920247,E,1,08,4.16,23.007,M,36.995,M,,*61
$GPGGA,065838.00,3542.292863090,N,13943.287920247,E,1,08,4.16,23.022,M,36.995,M,,*60
$GPGGA,065838.10,3542.292863090,N,13943.287914247,E,1,08,4.16,23.021,M,36.995,M,,*65
$GPGGA,065838.20,3542.292857090,N,13943.287914247,E,1,08,4.16,23.015,M,36.995,M,,*66
$GPGGA,065838.30,3542.292857090,N,13943.287914247,E,1,08,4.16,23.023,M,36.995,M,,*62
$GPGGA,065838.40,3542.292863090,N,13943.287896247,E,1,08,4.15,23.050,M,36.995,M,,*6E
$GPGGA,065838.50,3542.292863090,N,13943.287890247,E,1,08,4.15,23.055,M,36.995,M,,*6C
$GPGGA,065838.60,3542.292857090,N,13943.287890247,E,1,08,4.15,23.066,M,36.995,M,,*68
$GPGGA,065838.70,3542.292863090,N,13943.287884247,E,1,08,4.15,23.074,M,36.995,M,,*68
$GPGGA,065838.80,3542.292863090,N,13943.287878247,E,1,08,4.15,23.074,M,36.995,M,,*64
$GPGGA,065838.90,3542.292857090,N,13943.287878247,E,1,08,4.15,23.081,M,36.995,M,,*68
$GPGGA,065839.00,3542.292863090,N,13943.287872247,E,1,08,4.15,23.087,M,36.995,M,,*6B
$GPGGA,065839.10,3542.292863090,N,13943.287866247,E,1,08,4.15,23.106,M,36.995,M,,*67
$GPGGA,065839.20,3542.292857089,N,13943.287866247,E,1,08,4.15,23.096,M,36.995,M,,*63
$GPGGA,065839.30,3542.292857089,N,13943.287860247,E,1,08,4.15,23.116,M,36.995,M,,*6D
$GPGGA,065839.40,3542.292857089,N,13943.287854247,E,1,08,4.15,23.131,M,36.995,M,,*68
$GPGGA,065839.50,3542.292857089,N,13943.287848247,E,1,09,4.00,23.136,M,36.995,M,,*66
$GPGGA,065839.60,3542.292857089,N,13943.287848247,E,1,09,4.00,23.129,M,36.995,M,,*6B
$GPGGA,065839.70,3542.292857089,N,13943.287848247,E,1,09,4.00,23.125,M,36.995,M,,*66
$GPGGA,065839.80,3542.292857089,N,13943.287842247,E,1,09,4.00,23.146,M,36.995,M,,*66
$GPGGA,065839.90,3542.292857089,N,13943.287842247,E,1,09,4.00,23.143,M,36.995,M,,*62
$GPGGA,065840.00,3542.292851089,N,13943.287836247,E,1,08,4.15,23.152,M,36.995,M,,*65
$GPGGA,065840.10,3542.292851089,N,13943.287830247,E,1,08,4.15,23.168,M,36.995,M,,*6B
$GPGGA,065840.20,3542.292851089,N,13943.287824247,E,1,09,4.00,23.173,M,36.995,M,,*62
$GPGGA,065840.30,3542.292851089,N,13943.287824247,E,1,09,4.00,23.182,M,36.995,M,,*6D
$GPGGA,065840.40,3542.292857089,N,13943.287818247,E,1,09,4.00,23.191,M,36.995,M,,*61
$GPGGA,065840.50,3542.292851089,N,13943.287818247,E,1,10,3.97,23.197,M,36.995,M,,*61
$GPGGA,065840.60,3542.292845089,N,13943.287812247,E,1,10,3.97,23.213,M,36.995,M,,*62
$GPGGA,065840.70,3542.292851089,N,13943.287806247,E,1,09,4.07,23.221,M,36.995,M,,*64
$GPGGA,065840.80,3542.292851089,N,13943.287800247,E,1,08,4.15,23.240,M,36.995,M,,*68
$GPGGA,065840.90,3542.292851089,N,13943.287800247,E,1,08,4.15,23.240,M,36.995,M,,*69
$GPGGA,065841.00,3542.292851089,N,13943.287794247,E,1,08,4.15,23.239,M,36.995,M,,*6D
$GPGGA,065841.10,3542.292851089,N,13943.287782247,E,1,08,4.15,23.266,M,36.995,M,,*61
$GPGGA,065841.20,3542.292845089,N,13943.287782247,E,1,08,4.15,23.277,M,36.995,M,,*67
$GPGGA,065841.30,3542.292845089,N,13943.287782247,E,1,08,4.15,23.282,M,36.995,M,,*6C
$GPGGA,065841.40,3542.292845089,N,13943.287782247,E,1,08,4.15,23.282,M,36.995,M,,*6B
$GPGGA,065841.50,3542.292845089,N,13943.287782247,E,1,08,4.15,23.284,M,36.995,M,,*6C
$GPGGA,065841.60,3542.292851089,N,13943.287770247,E,1,08,4.15,23.307,M,36.995,M,,*6D
$GPGGA,065841.70,3542.292845089,N,13943.287764247,E,1,08,4.15,23.319,M,36.995,M,,*63
$GPGGA,065841.80,3542.292845089,N,13943.287764247,E,1,08,4.15,23.331,M,36.995,M,,*66
$GPGGA,065841.90,3542.292845089,N,13943.287758247,E,1,08,4.15,23.342,M,36.995,M,,*6C
$GPGGA,065842.00,3542.292845089,N,13943.287758247,E,1,08,4.15,23.337,M,36.995,M,,*64
$GPGGA,065842.10,3542.292845089,N,13943.287746247,E,1,08,4.15,23.352,M,36.995,M,,*69
$GPGGA,065842.20,3542.292845089,N,13943.287740247,E,1,08,4.15,23.370,M,36.995,M,,*6C
$GPGGA,065842.30,3542.292845089,N,13943.287740247,E,1,08,4.15,23.366,M,36.995,M,,*6A
$GPGGA,065842.40,3542.292845089,N,13943.287740247,E,1,08,4.15,23.368,M,36.995,M,,*63
$GPGGA,065842.50,3542.292845089,N,13943.287734247,E,1,08,4.15,23.375,M,36.995,M,,*6D
$GPGGA,065842.60,3542.292845089,N,13943.287728247,E,1,08,4.15,23.386,M,36.995,M,,*6F
$GPGGA,065842.70,3542.292839089,N,13943.287728247,E,1,08,4.15,23.395,M,36.995,M,,*67
$GPGGA,065842.80,3542.292839089,N,13943.287716247,E,1,08,4.15,23.403,M,36.995,M,,*6D
$GPGGA,065842.90,3542.292839089,N,13943.287722247,E,1,08,4.15,23.406,M,36.995,M,,*6E
$GPGGA,065843.00,3542.292845089,N,13943.287710247,E,1,08,4.15,23.427,M,36.995,M,,*6F
$GPGGA,065843.10,3542.292839089,N,13943.287710247,E,1,08,4.15,23.420,M,36.995,M,,*62
$GPGGA,065843.20,3542.292839089,N,13943.287704247,E,1,08,4.15,23.440,M,36.995,M,,*62
$GPGGA,065843.30,3542.292839089,N,13943.287698247,E,1,08,4.15,23.447,M,36.995,M,,*60
$GPGGA,065843.40,3542.292839089,N,13943.287692247,E,1,08,4.15,23.451,M,36.995,M,,*6A
$GPGGA,065843.50,3542.292845089,N,13943.287686247,E,1,08,4.15,23.462,M,36.995,M,,*65
$GPGGA,065843.60,3542.292839089,N,13943.287686247,E,1,08,4.15,23.459,M,36.995,M,,*65
$GPGGA,065843.70,3542.292833089,N,13943.287692247,E,1,08,4.15,23.449,M,36.995,M,,*6A
$GPGGA,065843.80,3542.292839089,N,13943.287680247,E,1,08,4.15,23.483,M,36.995,M,,*6A
$GPGGA,065843.90,3542.292839089,N,13943.287668247,E,1,08,4.15,23.504,M,36.995,M,,*63
$GPGGA,065844.00,3542.292839089,N,13943.287668247,E,1,08,4.15,23.513,M,36.995,M,,*6B
$GPGGA,065844.10,3542.292839089,N,13943.287662247,E,1,08,4.15,23.523,M,36.995,M,,*63
$GPGGA,065844.20,3542.292839089,N,13943.287656247,E,1,08,4.15,23.540,M,36.995,M,,*62
$GPGGA,065844.30,3542.292833089,N,13943.287656247,E,1,08,4.15,23.543,M,36.995,M,,*6A
$GPGGA,065844.40,3542.292839089,N,13943.287644247,E,1,08,4.15,23.556,M,36.995,M,,*60
$GPGGA,065844.50,3542.292833089,N,13943.287644247,E,1,08,4.15,23.553,M,36.995,M,,*6E
$GPGGA,065844.60,3542.292833089,N,13943.287638247,E,1,08,4.15,23.568,M,36.995,M,,*6E
$GPGGA,065844.70,3542.292833089,N,13943.287638247,E,1,08,4.15,23.571,M,36.995,M,,*67
$GPGGA,065844.80,3542.292833089,N,13943.287632247,E,1,08,4.15,23.584,M,36.995,M,,*68
$GPGGA,065844.90,3542.292833089,N,13943.287626247,E,1,08,4.15,23.600,M,36.995,M,,*63
$GPGGA,065845.00,3542.292833089,N,13943.287626247,E,1,08,4.15,23.593,M,36.995,M,,*62
$GPGGA,065845.10,3542.292833089,N,13943.287620247,E,1,08,4.15,23.605,M,36.995,M,,*69
$GPGGA,065845.20,3542.292833089,N,13943.287614247,E,1,08,4.15,23.619,M,36.995,M,,*60
$GPGGA,065845.30,3542.292839089,N,13943.287614247,E,1,08,4.15,23.622,M,36.995,M,,*63
$GPGGA,065845.40,3542.292839089,N,13943.287608247,E,1,08,4.15,23.629,M,36.995,M,,*62
$GPGGA,065845.50,3542.292839089,N,13943.287596247,E,1,08,4.15,23.667,M,36.995,M,,*6D
$GPGGA,065845.60,3542.292839089,N,13943.287596247,E,1,08,4.15,23.667,M,36.995,M,,*6E
$GPGGA,065845.70,3542.292839089,N,13943.287596247,E,1,08,4.15,23.666,M,36.995,M,,*6E
$GPGGA,065845.80,3542.292833089,N,13943.287584247,E,1,08,4.15,23.688,M,36.995,M,,*68
$GPGGA,065845.90,3542.292833089,N,13943.287590247,E,1,08,4.15,23.677,M,36.995,M,,*6C
$GPGGA,065846.00,3542.292833089,N,13943.287590247,E,1,08,4.15,23.686,M,36.995,M,,*68
$GPGGA,065846.10,3542.292833089,N,13943.287584247,E,1,08,4.15,23.693,M,36.995,M,,*68
$GPGGA,065846.20,3542.292833089,N,13943.287584247,E,1,08,4.15,23.702,M,36.995,M,,*62
$GPGGA,065846.30,3542.292839089,N,13943.287572247,E,1,08,4.15,23.713,M,36.995,M,,*60
$GPGGA,065846.40,3542.292833089,N,13943.287566247,E,1,08,4.15,23.729,M,36.995,M,,*61
$GPGGA,065846.50,3542.292833089,N,13943.287560247,E,1,08,4.15,23.733,M,36.995,M,,*6D
$GPGGA,065846.60,3542.292833089,N,13943.287560247,E,1,08,4.15,23.743,M,36.995,M,,*69
$GPGGA,065846.70,3542.292833089,N,13943.287554247,E,1,08,4.15,23.758,M,36.995,M,,*65
$GPGGA,065846.80,3542.292833089,N,13943.287542247,E,1,08,4.15,23.782,M,36.995,M,,*6A
$GPGGA,065846.90,3542.292839089,N,13943.287536247,E,1,08,4.15,23.786,M,36.995,M,,*66
$GPGGA,065847.00,3542.292833089,N,13943.287524247,E,1,08,4.15,23.818,M,36.995,M,,*6F
$GPGGA,065847.10,3542.292839089,N,13943.287518247,E,1,08,4.15,23.838,M,36.995,M,,*69
$GPGGA,065847.20,3542.292839089,N,13943.287518247,E,1,08,4.15,23.847,M,36.995,M,,*62
$GPGGA,065847.30,3542.292839089,N,13943.287506247,E,1,08,4.15,23.865,M,36.995,M,,*6C
$GPGGA,065847.40,3542.292839089,N,13943.287500247,E,1,08,4.15,23.880,M,36.995,M,,*66
$GPGGA,065847.50,3542.292839089,N,13943.287494247,E,1,08,4.15,23.892,M,36.995,M,,*68
$GPGGA,065847.60,3542.292839089,N,13943.287494247,E,1,08,4.15,23.893,M,36.995,M,,*6A
$GPGGA,065847.70,3542.292839089,N,13943.287482247,E,1,08,4.15,23.917,M,36.995,M,,*61
$GPGGA,065847.80,3542.292845089,N,13943.287476247,E,1,08,4.15,23.940,M,36.995,M,,*6C
$GPGGA,065847.90,3542.292845089,N,13943.287464247,E,1,08,4.15,23.955,M,36.995,M,,*6A
$GPGGA,065848.00,3542.292845089,N,13943.287452247,E,1,08,4.15,23.990,M,36.995,M,,*60
$GPGGA,065848.10,3542.292845089,N,13943.287458247,E,1,08,4.15,23.984,M,36.995,M,,*6E
$GPGGA,065848.20,3542.292845089,N,13943.287458247,E,1,08,4.15,23.986,M,36.995,M,,*6F
$GPGGA,065848.30,3542.292845089,N,13943.287440247,E,1,08,4.15,24.013,M,36.995,M,,*65
$GPGGA,065848.40,3542.292851089,N,13943.287434247,E,1,07,7.18,24.022,M,36.995,M,,*67
$GPGGA,065848.50,3542.292851089,N,13943.287434247,E,1,07,7.18,24.034,M,36.995,M,,*61
$GPGGA,065848.60,3542.292845089,N,13943.287428247,E,1,07,7.18,24.055,M,36.995,M,,*6D
$GPGGA,065848.70,3542.292845089,N,13943.287422247,E,1,07,7.18,24.061,M,36.995,M,,*61
$GPGGA,065848.80,3542.292845089,N,13943.287422247,E,1,07,7.18,24.068,M,36.995,M,,*67
$GPGGA,065848.90,3542.292851089,N,13943.287416247,E,1,07,7.18,24.086,M,36.995,M,,*64
$GPGGA,065849.00,3542.292851089,N,13943.287410247,E,1,07,7.18,24.102,M,36.995,M,,*67
$GPGGA,065849.10,3542.292851089,N,13943.287404247,E,1,07,7.18,24.119,M,36.995,M,,*69
$GPGGA,065849.20,3542.292851089,N,13943.287392247,E,1,07,7.18,24.136,M,36.995,M,,*6F
$GPGGA,065849.30,3542.292851089,N,13943.287386247,E,1,07,7.18,24.158,M,36.995,M,,*63
$GPGGA,065849.40,3542.292857089,N,13943.287380247,E,1,07,7.18,24.159,M,36.995,M,,*65
$GPGGA,065849.50,3542.292851089,N,13943.287380247,E,1,07,7.18,24.179,M,36.995,M,,*60
$GPGGA,065849.60,3542.292851089,N,13943.287380247,E,1,07,7.18,24.177,M,36.995,M,,*6D
$GPGGA,065849.70,3542.292851089,N,13943.287380247,E,1,07,7.18,24.188,M,36.995,M,,*6C
$GPGGA,065849.80,3542.292851089,N,13943.287380247,E,1,07,7.18,24.181,M,36.995,M,,*6A
$GPGGA,065849.90,3542.292851089,N,13943.287368247,E,1,07,7.18,24.202,M,36.995,M,,*65
$GPGGA,065850.00,3542.292851089,N,13943.287368247,E,1,07,7.18,24.209,M,36.995,M,,*6F
$GPGGA,065850.10,3542.292851089,N,13943.287368247,E,1,08,4.15,24.225,M,36.995,M,,*61
$GPGGA,065850.20,3542.292851088,N,13943.287362247,E,1,08,4.15,24.230,M,36.995,M,,*6D
$GPGGA,065850.30,3542.292857088,N,13943.287350247,E,1,07,7.18,24.247,M,36.995,M,,*6A
$GPGGA,065850.40,3542.292851088,N,13943.287356247,E,1,08,4.15,24.246,M,36.995,M,,*6D
$GPGGA,065850.50,3542.292851088,N,13943.287350247,E,1,08,4.15,24.266,M,36.995,M,,*68
$GPGGA,065850.60,3542.292851088,N,13943.287344247,E,1,08,4.15,24.266,M,36.995,M,,*6E
$GPGGA,065850.70,3542.292851088,N,13943.287350247,E,1,08,4.15,24.259,M,36.995,M,,*66
$GPGGA,065850.80,3542.292851088,N,13943.287350247,E,1,08,4.15,24.269,M,36.995,M,,*6A
$GPGGA,065850.90,3542.292851088,N,13943.287344247,E,1,08,4.15,24.270,M,36.995,M,,*66
$GPGGA,065851.00,3542.292851088,N,13943.287332247,E,1,08,4.15,24.308,M,36.995,M,,*61
$GPGGA,065851.10,3542.292851088,N,13943.287332247,E,1,08,4.15,24.322,M,36.995,M,,*68
$GPGGA,065851.20,3542.292851088,N,13943.287326247,E,1,08,4.15,24.313,M,36.995,M,,*6C
$GPGGA,065851.30,3542.292851088,N,13943.287332247,E,1,08,4.15,24.314,M,36.995,M,,*6F
$GPGGA,065851.40,3542.292851088,N,13943.287326247,E,1,08,4.15,24.324,M,36.995,M,,*6E
$GPGGA,065851.50,3542.292845088,N,13943.287320247,E,1,08,4.15,24.339,M,36.995,M,,*60
$GPGGA,065851.60,3542.292851088,N,13943.287314247,E,1,08,4.15,24.341,M,36.995,M,,*6E
$GPGGA,065851.70,3542.292845088,N,13943.287308247,E,1,08,4.15,24.367,M,36.995,M,,*63
$GPGGA,065851.80,3542.292845088,N,13943.287302247,E,1,08,4.15,24.375,M,36.995,M,,*65
$GPGGA,065851.90,3542.292845088,N,13943.287302247,E,1,08,4.15,24.372,M,36.995,M,,*63
$GPGGA,065852.00,3542.292851088,N,13943.287296247,E,1,08,4.15,24.376,M,36.995,M,,*64
$GPGGA,065852.10,3542.292851088,N,13943.287290247,E,1,08,4.15,24.398,M,36.995,M,,*63
$GPGGA,065852.20,3542.292851088,N,13943.287290247,E,1,08,4.15,24.416,M,36.995,M,,*61
$GPGGA,065852.30,3542.292845088,N,13943.287290247,E,1,08,4.15,24.401,M,36.995,M,,*63
$GPGGA,065852.40,3542.292845088,N,13943.287290247,E,1,08,4.15,24.401,M,36.995,M,,*64
$GPGGA,065852.50,3542.292851088,N,13943.287290247,E,1,08,4.15,24.411,M,36.995,M,,*61
$GPGGA,065852.60,3542.292851088,N,13943.287284247,E,1,08,4.15,24.417,M,36.996,M,,*62
$GPGGA,065852.70,3542.292845088,N,13943.287278247,E,1,08,4.15,24.421,M,36.996,M,,*60
$GPGGA,065852.80,3542.292851088,N,13943.287278247,E,1,08,4.15,24.419,M,36.996,M,,*61
$GPGGA,065852.90,3542.292845088,N,13943.287278247,E,1,08,4.15,24.430,M,36.996,M,,*6E
$GPGGA,065853.00,3542.292839088,N,13943.287272247,E,1,08,4.15,24.436,M,36.995,M,,*62
$GPGGA,065853.10,3542.292851088,N,13943.287272247,E,1,08,4.15,24.447,M,36.996,M,,*68
$GPGGA,065853.20,3542.292851088,N,13943.287266247,E,1,08,4.15,24.453,M,36.996,M,,*6B
$GPGGA,065853.30,3542.292845088,N,13943.287266247,E,1,08,4.15,24.460,M,36.996,M,,*6F
$GPGGA,065853.40,3542.292857088,N,13943.287260247,E,1,08,4.15,24.471,M,36.996,M,,*6D
$GPGGA,065853.50,3542.292857088,N,13943.287254247,E,1,08,4.15,24.474,M,36.996,M,,*6E
$GPGGA,065853.60,3542.292851088,N,13943.287254247,E,1,08,4.15,24.489,M,36.996,M,,*69
$GPGGA,065853.70,3542.292851088,N,13943.287260247,E,1,08,4.15,24.478,M,36.996,M,,*61
$GPGGA,065853.80,3542.292851088,N,13943.287260247,E,1,08,4.15,24.457,M,36.996,M,,*63
$GPGGA,065853.90,3542.292857088,N,13943.287260247,E,1,08,4.15,24.458,M,36.996,M,,*6B
$GPGGA,065854.00,3542.292863088,N,13943.287260247,E,1,08,4.15,24.451,M,36.996,M,,*6B
$GPGGA,065854.10,3542.292863088,N,13943.287254247,E,1,08,4.15,24.484,M,36.996,M,,*65
$GPGGA,065854.20,3542.292881088,N,13943.287260247,E,1,07,7.19,24.468,M,36.996,M,,*6F
$GPGGA,065854.30,3542.292887088,N,13943.287266247,E,1,08,6.06,24.475,M,36.996,M,,*62
$GPGGA,065854.40,3542.292905088,N,13943.287260247,E,1,07,6.83,24.484,M,36.996,M,,*64
$GPGGA,065854.50,3542.292929088,N,13943.287260247,E,1,08,4.20,24.490,M,36.996,M,,*6A
$GPGGA,065854.60,3542.292947088,N,13943.287260247,E,1,09,2.36,24.481,M,36.996,M,,*61
$GPGGA,065854.70,3542.292971088,N,13943.287278247,E,1,09,2.36,24.482,M,36.996,M,,*6F
$GPGGA,065854.80,3542.293001089,N,13943.287278247,E,1,08,4.20,24.526,M,36.996,M,,*61
$GPGGA,065854.90,3542.293037089,N,13943.287290247,E,1,07,4.75,24.475,M,36.996,M,,*6B
$GPGGA,065855.00,3542.293055089,N,13943.287338247,E,1,07,4.75,24.441,M,36.996,M,,*63
$GPGGA,065855.10,3542.293091089,N,13943.287326247,E,1,06,6.69,24.487,M,36.996,M,,*61
$GPGGA,065855.20,3542.293127089,N,13943.287338246,E,1,06,6.69,24.483,M,36.996,M,,*64
$GPGGA,065855.30,3542.293151089,N,13943.287350246,E,1,07,4.75,24.476,M,36.996,M,,*6E
$GPGGA,065855.40,3542.293199089,N,13943.287356246,E,1,06,9.36,24.498,M,36.996,M,,*60
$GPGGA,065855.50,3542.293229089,N,13943.287356246,E,1,07,2.92,24.493,M,36.996,M,,*66
$GPGGA,065855.60,3542.293271089,N,13943.287332246,E,1,08,2.89,24.534,M,36.996,M,,*63
$GPGGA,065855.70,3542.293325089,N,13943.287356246,E,1,10,2.33,24.531,M,36.996,M,,*6D
$GPGGA,065855.80,3542.293361089,N,13943.287398246,E,1,08,4.20,24.508,M,36.996,M,,*67
$GPGGA,065855.90,3542.293415089,N,13943.287422246,E,1,08,4.20,24.519,M,36.996,M,,*64
$GPGGA,065856.00,3542.293433089,N,13943.287476245,E,1,06,9.36,24.516,M,36.996,M,,*63
$GPGGA,065856.10,3542.293469089,N,13943.287488245,E,1,07,9.27,24.468,M,36.996,M,,*65
$GPGGA,065856.20,3542.293517090,N,13943.287464245,E,1,08,7.68,24.537,M,36.996,M,,*65
$GPGGA,065856.30,3542.293571090,N,13943.287458245,E,1,09,5.98,24.584,M,36.996,M,,*6F
$GPGGA,065856.40,3542.293565090,N,13943.287440245,E,1,11,2.32,24.669,M,36.996,M,,*6A
$GPGGA,065856.50,3542.293583090,N,13943.287482245,E,1,09,4.50,24.677,M,36.996,M,,*69
$GPGGA,065856.60,3542.293667090,N,13943.287470245,E,1,11,2.32,24.637,M,36.996,M,,*61
$GPGGA,065856.70,3542.293733090,N,13943.287446245,E,1,10,2.72,24.684,M,36.996,M,,*68
$GPGGA,065856.80,3542.293793090,N,13943.287440245,E,1,10,1.78,24.681,M,36.996,M,,*67
$GPGGA,065856.90,3542.293835090,N,13943.287458244,E,1,12,2.29,24.662,M,36.996,M,,*65
$GPGGA,065857.00,3542.293919090,N,13943.287452244,E,1,12,2.29,24.665,M,36.996,M,,*6F
$GPGGA,065857.10,3542.293955090,N,13943.287428244,E,1,10,2.72,24.695,M,36.996,M,,*68
$GPGGA,065857.20,3542.294003090,N,13943.287458244,E,1,10,2.72,24.664,M,36.996,M,,*6F
$GPGGA,065857.30,3542.294039090,N,13943.287488244,E,1,10,2.72,24.662,M,36.996,M,,*6C
$GPGGA,065857.40,3542.294105090,N,13943.287476244,E,1,10,2.72,24.745,M,36.996,M,,*60
$GPGGA,065857.50,3542.294177090,N,13943.287470244,E,1,12,1.66,24.739,M,36.996,M,,*6D
$GPGGA,065857.60,3542.294219090,N,13943.287500243,E,1,10,2.45,24.696,M,36.996,M,,*60
$GPGGA,065857.70,3542.294279091,N,13943.287500243,E,1,11,1.78,24.749,M,36.996,M,,*69
$GPGGA,065857.80,3542.294321091,N,13943.287524243,E,1,11,1.78,24.736,M,36.996,M,,*64
$GPGGA,065857.90,3542.294375091,N,13943.287560243,E,1,12,1.76,24.634,M,36.996,M,,*6A
$GPGGA,065858.00,3542.294423091,N,13943.287554243,E,1,12,1.70,24.696,M,36.996,M,,*61
$GPGGA,065858.10,3542.294459091,N,13943.287560243,E,1,12,1.59,24.683,M,36.996,M,,*65
$GPGGA,065858.20,3542.294525091,N,13943.287560243,E,1,09,1.76,24.712,M,36.996,M,,*62
$GPGGA,065858.30,3542.294579091,N,13943.287614242,E,1,10,1.72,24.636,M,36.996,M,,*60
$GPGGA,065858.40,3542.294627091,N,13943.287608242,E,1,10,1.72,24.709,M,36.996,M,,*6F
$GPGGA,065858.50,3542.294687091,N,13943.287632242,E,1,11,1.65,24.656,M,36.996,M,,*61
$GPGGA,065858.60,3542.294753091,N,13943.287656242,E,1,11,1.65,24.658,M,36.996,M,,*66
$GPGGA,065858.70,3542.294801091,N,13943.287674242,E,1,12,1.61,24.679,M,36.996,M,,*6B
$GPGGA,065858.80,3542.294861092,N,13943.287698242,E,1,13,1.29,24.671,M,36.996,M,,*66
$GPGGA,065858.90,3542.294927092,N,13943.287716241,E,1,14,1.23,24.647,M,36.996,M,,*68
$GPGGA,065859.00,3542.294975092,N,13943.287728241,E,1,14,1.31,24.681,M,36.996,M,,*63
$GPGGA,065859.10,3542.295029092,N,13943.287758241,E,1,15,1.27,24.654,M,36.996,M,,*6A
$GPGGA,065859.20,3542.295089092,N,13943.287758241,E,1,15,1.27,24.698,M,36.996,M,,*63
$GPGGA,065859.30,3542.295149092,N,13943.287782241,E,1,16,1.18,24.661,M,36.996,M,,*61
$GPGGA,065859.40,3542.295197092,N,13943.287824241,E,1,15,1.17,24.631,M,36.996,M,,*6F
$GPGGA,065859.50,3542.295245092,N,13943.287854240,E,1,15,1.18,24.613,M,36.996,M,,*6B
$GPGGA,065859.60,3542.295311092,N,13943.287872240,E,1,17,1.13,24.619,M,36.996,M,,*6F
$GPGGA,065859.70,3542.295359093,N,13943.287896240,E,1,17,1.13,24.599,M,36.996,M,,*62
$GPGGA,065859.80,3542.295425093,N,13943.287908240,E,1,16,1.41,24.603,M,36.996,M,,*61
$GPGGA,065859.90,3542.295479093,N,13943.287956240,E,1,15,1.42,24.572,M,36.996,M,,*67
$GPGGA,065900.00,3542.295527093,N,13943.287980240,E,1,16,1.15,24.566,M,36.996,M,,*66
$GPGGA,065900.10,3542.295593093,N,13943.288016239,E,1,15,1.24,24.544,M,36.996,M,,*6E
$GPGGA,065900.20,3542.295647093,N,13943.288052239,E,1,15,1.24,24.521,M,36.996,M,,*64
$GPGGA,065900.30,3542.295701093,N,13943.288076239,E,1,17,1.21,24.518,M,36.996,M,,*6D
$GPGGA,065900.40,3542.295761094,N,13943.288118239,E,1,17,1.21,24.484,M,36.996,M,,*66
$GPGGA,065900.50,3542.295815094,N,13943.288160239,E,1,17,1.13,24.448,M,36.996,M,,*65
$GPGGA,065900.60,3542.295869094,N,13943.288196239,E,1,17,1.13,24.473,M,36.996,M,,*6C
$GPGGA,065900.70,3542.295923094,N,13943.288226238,E,1,16,1.17,24.429,M,36.996,M,,*61
$GPGGA,065900.80,3542.295977094,N,13943.288256238,E,1,16,1.17,24.425,M,36.996,M,,*64
$GPGGA,065900.90,3542.296031094,N,13943.288298238,E,1,17,1.16,24.409,M,36.996,M,,*61
$GPGGA,065901.00,3542.296091094,N,13943.288352238,E,1,16,1.24,24.357,M,36.996,M,,*68
$GPGGA,065901.10,3542.296151095,N,13943.288382238,E,1,15,1.25,24.344,M,36.996,M,,*68
$GPGGA,065901.20,3542.296205095,N,13943.288412237,E,1,15,1.25,24.309,M,36.996,M,,*61
$GPGGA,065901.30,3542.296265095,N,13943.288448237,E,1,14,1.62,24.304,M,36.996,M,,*66
$GPGGA,065901.40,3542.296319095,N,13943.288502237,E,1,13,1.64,24.274,M,36.996,M,,*63
$GPGGA,065901.50,3542.296373095,N,13943.288532237,E,1,16,1.41,24.233,M,36.996,M,,*6C
$GPGGA,065901.60,3542.296445095,N,13943.288556237,E,1,17,1.13,24.207,M,36.996,M,,*6E
$GPGGA,065901.70,3542.296493095,N,13943.288598237,E,1,17,1.13,24.181,M,36.996,M,,*6B
$GPGGA,065901.80,3542.296553096,N,13943.288640236,E,1,17,1.13,24.160,M,36.996,M,,*62
$GPGGA,065901.90,3542.296625096,N,13943.288682236,E,1,18,1.11,24.144,M,36.996,M,,*64
$GPGGA,065902.00,3542.296691096,N,13943.288706236,E,1,20,0.93,24.126,M,36.996,M,,*68
$GPGGA,065902.10,3542.296769096,N,13943.288742236,E,1,19,0.94,24.106,M,36.996,M,,*60
$GPGGA,065902.20,3542.296811096,N,13943.288784236,E,1,18,0.96,24.062,M,36.996,M,,*69
$GPGGA,065902.30,3542.296853096,N,13943.288826235,E,1,17,0.97,24.050,M,36.996,M,,*65
$GPGGA,065902.40,3542.296913096,N,13943.288850235,E,1,15,1.10,24.030,M,36.996,M,,*6C
$GPGGA,065902.50,3542.296973097,N,13943.288874235,E,1,15,1.10,23.976,M,36.996,M,,*60
$GPGGA,065902.60,3542.297033097,N,13943.288898235,E,1,15,1.10,23.978,M,36.996,M,,*63
$GPGGA,065902.70,3542.297111097,N,13943.288916235,E,1,16,1.02,23.983,M,36.996,M,,*60
$GPGGA,065902.80,3542.297159097,N,13943.288964234,E,1,15,1.07,23.927,M,36.996,M,,*6F
$GPGGA,065902.90,3542.297213097,N,13943.288994234,E,1,15,1.09,23.956,M,36.996,M,,*64
$GPGGA,065903.00,3542.297285097,N,13943.289036234,E,1,16,1.03,23.942,M,36.996,M,,*6F
$GPGGA,065903.10,3542.297345097,N,13943.289090234,E,1,15,1.09,23.887,M,36.996,M,,*6E
$GPGGA,065903.20,3542.297411098,N,13943.289120234,E,1,17,1.00,23.903,M,36.996,M,,*68
$GPGGA,065903.30,3542.297495098,N,13943.289150233,E,1,17,1.00,23.890,M,36.996,M,,*6E
$GPGGA,065903.40,3542.297555098,N,13943.289192233,E,1,17,1.00,23.852,M,36.996,M,,*64
$GPGGA,065903.50,3542.297621098,N,13943.289234233,E,1,15,1.07,23.810,M,36.996,M,,*69
$GPGGA,065903.60,3542.297681098,N,13943.289270233,E,1,16,1.04,23.785,M,36.996,M,,*63
$GPGGA,065903.70,3542.297747098,N,13943.289330233,E,1,15,1.07,23.740,M,36.996,M,,*65
$GPGGA,065903.80,3542.297807099,N,13943.289372232,E,1,15,1.05,23.743,M,36.996,M,,*66
$GPGGA,065903.90,3542.297879099,N,13943.289408232,E,1,14,1.16,23.757,M,36.996,M,,*62
$GPGGA,065904.00,3542.297945099,N,13943.289456232,E,1,14,1.16,23.716,M,36.996,M,,*6C
$GPGGA,065904.10,3542.298011099,N,13943.289498232,E,1,14,1.16,23.706,M,36.996,M,,*69
$GPGGA,065904.20,3542.298077099,N,13943.289540232,E,1,15,1.07,23.666,M,36.996,M,,*68
$GPGGA,065904.30,3542.298161099,N,13943.289576231,E,1,17,1.00,23.623,M,36.996,M,,*6D
$GPGGA,065904.40,3542.298221099,N,13943.289612231,E,1,16,1.06,23.596,M,36.996,M,,*66
$GPGGA,065904.50,3542.298299100,N,13943.289672231,E,1,16,1.06,23.589,M,36.996,M,,*6D
$GPGGA,065904.60,3542.298371100,N,13943.289732231,E,1,16,1.06,23.554,M,36.996,M,,*6C
$GPGGA,065904.70,3542.298425100,N,13943.289774231,E,1,14,1.48,23.559,M,36.996,M,,*6C
$GPGGA,065904.80,3542.298485100,N,13943.289804230,E,1,14,1.48,23.532,M,36.996,M,,*6D
$GPGGA,065904.90,3542.298551100,N,13943.289840230,E,1,14,1.48,23.528,M,36.996,M,,*6F
$GPGGA,065905.00,3542.298611100,N,13943.289876230,E,1,15,1.29,23.513,M,36.996,M,,*6B
$GPGGA,065905.10,3542.298683101,N,13943.289942230,E,1,15,1.29,23.486,M,36.996,M,,*6B
$GPGGA,065905.20,3542.298731101,N,13943.289996230,E,1,15,1.29,23.463,M,36.996,M,,*62
$GPGGA,065905.30,3542.298797101,N,13943.290032229,E,1,15,1.29,23.452,M,36.996,M,,*6A
$GPGGA,065905.40,3542.298875101,N,13943.290074229,E,1,16,1.27,23.407,M,36.996,M,,*61
$GPGGA,065905.50,3542.298911101,N,13943.290128229,E,1,16,1.27,23.420,M,36.996,M,,*6E
$GPGGA,065905.60,3542.298989102,N,13943.290176229,E,1,16,1.27,23.407,M,36.996,M,,*61
$GPGGA,065905.70,3542.299049102,N,13943.290218229,E,1,16,1.27,23.385,M,36.996,M,,*62
$GPGGA,065905.80,3542.299103102,N,13943.290266228,E,1,16,1.27,23.379,M,36.996,M,,*69
$GPGGA,065905.90,3542.299169102,N,13943.290302228,E,1,16,1.27,23.323,M,36.996,M,,*68
$GPGGA,065906.00,3542.299235102,N,13943.290344228,E,1,16,1.27,23.292,M,36.996,M,,*61
$GPGGA,065906.10,3542.299301102,N,13943.290410228,E,1,16,1.27,23.294,M,36.996,M,,*66
$GPGGA,065906.20,3542.299361102,N,13943.290434228,E,1,17,1.15,23.295,M,36.996,M,,*64
$GPGGA,065906.30,3542.299421103,N,13943.290458227,E,1,16,1.33,23.240,M,36.996,M,,*6F
$GPGGA,065906.40,3542.299493103,N,13943.290494227,E,1,15,1.43,23.216,M,36.996,M,,*66
$GPGGA,065906.50,3542.299553103,N,13943.290542227,E,1,16,1.33,23.209,M,36.996,M,,*6A
$GPGGA,065906.60,3542.299631103,N,13943.290578227,E,1,17,1.15,23.206,M,36.996,M,,*6D
$GPGGA,065906.70,3542.299697103,N,13943.290614227,E,1,18,0.93,23.188,M,36.996,M,,*6C
$GPGGA,065906.80,3542.299751103,N,13943.290656226,E,1,18,0.93,23.201,M,36.996,M,,*6D
$GPGGA,065906.90,3542.299829104,N,13943.290704226,E,1,17,1.15,23.154,M,36.996,M,,*6E
$GPGGA,065907.00,3542.299895104,N,13943.290752226,E,1,17,1.15,23.123,M,36.996,M,,*62
$GPGGA,065907.10,3542.299949104,N,13943.290788226,E,1,17,1.15,23.158,M,36.996,M,,*68
$GPGGA,065907.20,3542.300015104,N,13943.290818226,E,1,17,1.15,23.151,M,36.996,M,,*65
$GPGGA,065907.30,3542.300087104,N,13943.290818225,E,1,16,1.33,23.174,M,36.996,M,,*6E
$GPGGA,065907.40,3542.300171104,N,13943.290812225,E,1,15,1.43,23.133,M,36.996,M,,*6C
$GPGGA,065907.50,3542.300255104,N,13943.290854225,E,1,15,1.43,23.118,M,36.996,M,,*63
$GPGGA,065907.60,3542.300315105,N,13943.290890225,E,1,15,1.06,23.093,M,36.996,M,,*6F
$GPGGA,065907.70,3542.300381105,N,13943.290932224,E,1,17,0.94,23.129,M,36.996,M,,*63
$GPGGA,065907.80,3542.300453105,N,13943.290968224,E,1,15,1.21,23.118,M,36.996,M,,*64
$GPGGA,065907.90,3542.300513105,N,13943.291022224,E,1,16,1.20,23.111,M,36.996,M,,*6D
$GPGGA,065908.00,3542.300567105,N,13943.291088224,E,1,16,1.20,23.097,M,36.996,M,,*67
$GPGGA,065908.10,3542.300609105,N,13943.291136224,E,1,16,1.20,23.088,M,36.996,M,,*67
$GPGGA,065908.20,3542.300675106,N,13943.291166223,E,1,16,1.20,23.039,M,36.996,M,,*64
$GPGGA,065908.30,3542.300723106,N,13943.291172223,E,1,16,1.20,22.959,M,36.996,M,,*6C
$GPGGA,065908.40,3542.300783106,N,13943.291196223,E,1,16,1.20,22.992,M,36.996,M,,*6C
$GPGGA,065908.50,3542.300849106,N,13943.291220223,E,1,15,1.43,23.060,M,36.996,M,,*69
$GPGGA,065908.60,3542.300915106,N,13943.291262223,E,1,15,1.43,23.005,M,36.996,M,,*67
$GPGGA,065908.70,3542.300987106,N,13943.291298223,E,1,15,1.43,23.025,M,36.996,M,,*6A
$GPGGA,065908.80,3542.301083106,N,13943.291328222,E,1,17,0.94,23.116,M,36.996,M,,*6A
$GPGGA,065908.90,3542.301143107,N,13943.291370222,E,1,17,0.94,23.174,M,36.996,M,,*6E
$GPGGA,065909.00,3542.301149107,N,13943.291400222,E,1,16,0.98,23.112,M,36.996,M,,*61
$GPGGA,065909.10,3542.301209107,N,13943.291448222,E,1,16,0.98,23.148,M,36.996,M,,*64
$GPGGA,065909.20,3542.301275107,N,13943.291484222,E,1,15,1.43,23.234,M,36.996,M,,*60
$GPGGA,065909.30,3542.301329107,N,13943.291520221,E,1,15,1.11,23.220,M,36.996,M,,*67
$GPGGA,065909.40,3542.301377107,N,13943.291562221,E,1,14,1.53,23.208,M,36.996,M,,*60
$GPGGA,065909.50,3542.301461107,N,13943.291586221,E,1,16,0.98,23.211,M,36.996,M,,*67
$GPGGA,065909.60,3542.301539107,N,13943.291622221,E,1,16,0.98,23.257,M,36.996,M,,*67
$GPGGA,065909.70,3542.301605108,N,13943.291670221,E,1,16,0.98,23.287,M,36.996,M,,*6F
$GPGGA,065909.80,3542.301665108,N,13943.291706220,E,1,15,1.43,23.282,M,36.996,M,,*66
$GPGGA,065909.90,3542.301749108,N,13943.291724220,E,1,14,1.48,23.271,M,36.996,M,,*6E
$GPGGA,065910.00,3542.301821108,N,13943.291754220,E,1,14,1.48,23.281,M,36.996,M,,*66
$GPGGA,065910.10,3542.301881108,N,13943.291784220,E,1,15,1.43,23.291,M,36.996,M,,*6B
$GPGGA,065910.20,3542.301935108,N,13943.291808220,E,1,15,1.01,23.240,M,36.996,M,,*67
$GPGGA,065910.30,3542.301989108,N,13943.291826220,E,1,14,1.48,23.296,M,36.996,M,,*6A
$GPGGA,065910.40,3542.302061109,N,13943.291868219,E,1,14,1.48,23.289,M,36.996,M,,*6E
$GPGGA,065910.50,3542.302133109,N,13943.291880219,E,1,14,1.48,23.341,M,36.996,M,,*6A
$GPGGA,065910.60,3542.302193109,N,13943.291922219,E,1,14,1.07,23.348,M,36.996,M,,*68
$GPGGA,065910.70,3542.302265109,N,13943.291970219,E,1,14,1.07,23.336,M,36.996,M,,*6D
$GPGGA,065910.80,3542.302325109,N,13943.292000218,E,1,13,1.56,23.340,M,36.996,M,,*69
$GPGGA,065910.90,3542.302397109,N,13943.292018218,E,1,14,1.07,23.346,M,36.996,M,,*6D
$GPGGA,065911.00,3542.302445109,N,13943.292078218,E,1,15,1.01,23.379,M,36.996,M,,*60
$GPGGA,065911.10,3542.302505110,N,13943.292102218,E,1,16,0.96,23.369,M,36.996,M,,*6D
$GPGGA,065911.20,3542.302571110,N,13943.292138218,E,1,14,1.10,23.387,M,36.996,M,,*69
$GPGGA,065911.30,3542.302637110,N,13943.292186218,E,1,12,1.64,23.457,M,36.996,M,,*63
$GPGGA,065911.40,3542.302715110,N,13943.292222217,E,1,14,1.07,23.433,M,36.996,M,,*66
$GPGGA,065911.50,3542.302763110,N,13943.292264217,E,1,14,1.07,23.487,M,36.996,M,,*6B
$GPGGA,065911.60,3542.302823110,N,13943.292288217,E,1,14,1.07,23.453,M,36.996,M,,*68
$GPGGA,065911.70,3542.302877110,N,13943.292300217,E,1,14,1.07,23.433,M,36.996,M,,*6F
$GPGGA,065911.80,3542.302949111,N,13943.292336217,E,1,14,1.07,23.512,M,36.996,M,,*6A
$GPGGA,065911.90,3542.303021111,N,13943.292360216,E,1,13,1.56,23.444,M,36.996,M,,*6E
$GPGGA,065912.00,3542.303081111,N,13943.292396216,E,1,12,1.58,23.477,M,36.996,M,,*68
$GPGGA,065912.10,3542.303135111,N,13943.292444216,E,1,13,1.09,23.554,M,36.996,M,,*6A
$GPGGA,065912.20,3542.303195111,N,13943.292486216,E,1,13,1.09,23.604,M,36.996,M,,*6B
$GPGGA,065912.30,3542.303243111,N,13943.292522216,E,1,12,1.58,23.708,M,36.996,M,,*65
$GPGGA,065912.40,3542.303303111,N,13943.292528215,E,1,12,1.58,23.738,M,36.996,M,,*6D
$GPGGA,065912.50,3542.303375112,N,13943.292564215,E,1,12,1.58,23.791,M,36.996,M,,*65
$GPGGA,065912.60,3542.303465112,N,13943.292534215,E,1,12,1.58,23.834,M,36.996,M,,*65
$GPGGA,065912.70,3542.303531112,N,13943.292492215,E,1,12,1.64,23.889,M,36.996,M,,*60
$GPGGA,065912.80,3542.303585112,N,13943.292504215,E,1,14,1.28,23.977,M,36.996,M,,*60
$GPGGA,065912.90,3542.303639112,N,13943.292558215,E,1,13,1.56,23.921,M,36.996,M,,*61
$GPGGA,065913.00,3542.303717112,N,13943.292576214,E,1,12,1.65,23.982,M,36.996,M,,*61
$GPGGA,065913.10,3542.303789112,N,13943.292570214,E,1,12,1.65,24.057,M,36.996,M,,*67
$GPGGA,065913.20,3542.303837112,N,13943.292582214,E,1,15,1.05,24.108,M,36.996,M,,*69
$GPGGA,065913.30,3542.303915112,N,13943.292588214,E,1,13,1.37,24.185,M,36.996,M,,*61
$GPGGA,065913.40,3542.303987112,N,13943.292600214,E,1,12,1.41,24.271,M,36.996,M,,*66
$GPGGA,065913.50,3542.304065112,N,13943.292582213,E,1,11,1.42,24.302,M,36.997,M,,*6F
$GPGGA,065913.60,3542.304125113,N,13943.292570213,E,1,13,1.37,24.341,M,36.997,M,,*62
$GPGGA,065913.70,3542.304191113,N,13943.292576213,E,1,13,1.37,24.361,M,36.997,M,,*68
$GPGGA,065913.80,3542.304263113,N,13943.292558213,E,1,13,1.37,24.369,M,36.997,M,,*6D
$GPGGA,065913.90,3542.304341113,N,13943.292540213,E,1,14,1.12,24.325,M,36.997,M,,*6C
$GPGGA,065914.00,3542.304401113,N,13943.292522213,E,1,15,1.11,24.382,M,36.997,M,,*6A
$GPGGA,065914.10,3542.304455113,N,13943.292510212,E,1,15,1.11,24.343,M,36.997,M,,*67
$GPGGA,065914.20,3542.304521113,N,13943.292504212,E,1,13,1.29,24.347,M,36.997,M,,*6A
$GPGGA,065914.30,3542.304593113,N,13943.292504212,E,1,12,1.34,24.313,M,36.997,M,,*6E
$GPGGA,065914.40,3542.304671113,N,13943.292486212,E,1,14,1.15,24.436,M,36.997,M,,*68
$GPGGA,065914.50,3542.304743113,N,13943.292462212,E,1,13,1.20,24.503,M,36.997,M,,*65
$GPGGA,065914.60,3542.304821113,N,13943.292450212,E,1,14,1.15,24.593,M,36.997,M,,*64
$GPGGA,065914.70,3542.304899113,N,13943.292438211,E,1,15,1.11,24.609,M,36.997,M,,*6E
$GPGGA,065914.80,3542.304971113,N,13943.292402211,E,1,14,1.15,24.625,M,36.997,M,,*64
$GPGGA,065914.90,3542.305043113,N,13943.292348211,E,1,15,1.11,24.618,M,36.997,M,,*6E
$GPGGA,065915.00,3542.305127113,N,13943.292342211,E,1,14,1.15,24.596,M,36.997,M,,*6F
$GPGGA,065915.10,3542.305187113,N,13943.292300211,E,1,13,1.16,24.621,M,36.997,M,,*69
$GPGGA,065915.20,3542.305265113,N,13943.292264211,E,1,13,1.16,24.612,M,36.997,M,,*66
$GPGGA,065915.30,3542.305313113,N,13943.292228210,E,1,13,1.16,24.613,M,36.997,M,,*6F
$GPGGA,065915.40,3542.305391113,N,13943.292210210,E,1,15,1.11,24.632,M,36.997,M,,*6B
$GPGGA,065915.50,3542.305463113,N,13943.292186210,E,1,15,1.11,24.617,M,36.997,M,,*6B
$GPGGA,065915.60,3542.305529113,N,13943.292156210,E,1,15,1.11,24.665,M,36.997,M,,*6F
$GPGGA,065915.70,3542.305589113,N,13943.292120210,E,1,15,1.05,24.685,M,36.997,M,,*6E
$GPGGA,065915.80,3542.305655113,N,13943.292090210,E,1,15,1.05,24.667,M,36.997,M,,*65
$GPGGA,065915.90,3542.305727113,N,13943.292066209,E,1,15,1.05,24.664,M,36.997,M,,*62
$GPGGA,065916.00,3542.305793113,N,13943.292030209,E,1,15,1.12,24.661,M,36.997,M,,*67
$GPGGA,065916.10,3542.305859113,N,13943.292000209,E,1,15,1.12,24.686,M,36.997,M,,*65
$GPGGA,065916.20,3542.305925114,N,13943.291964209,E,1,14,1.15,24.692,M,36.997,M,,*60
$GPGGA,065916.30,3542.305973114,N,13943.291940209,E,1,13,1.29,24.688,M,36.997,M,,*67
$GPGGA,065916.40,3542.306033114,N,13943.291898209,E,1,14,1.20,24.702,M,36.997,M,,*67
$GPGGA,065916.50,3542.306093114,N,13943.291868209,E,1,14,1.20,24.723,M,36.997,M,,*60
$GPGGA,065916.60,3542.306159114,N,13943.291832209,E,1,14,1.13,24.714,M,36.997,M,,*6F
$GPGGA,065916.70,3542.306219114,N,13943.291790208,E,1,14,1.13,24.751,M,36.997,M,,*6E
$GPGGA,065916.80,3542.306273114,N,13943.291766208,E,1,13,1.16,24.749,M,36.997,M,,*6F
$GPGGA,065916.90,3542.306333114,N,13943.291718208,E,1,15,1.10,24.777,M,36.997,M,,*6F
$GPGGA,065917.00,3542.306399114,N,13943.291670208,E,1,15,1.04,24.770,M,36.997,M,,*6A
$GPGGA,065917.10,3542.306459114,N,13943.291634208,E,1,13,1.15,24.764,M,36.997,M,,*63
$GPGGA,065917.20,3542.306525114,N,13943.291598208,E,1,13,1.23,24.811,M,36.997,M,,*67
$GPGGA,065917.30,3542.306597114,N,13943.291562208,E,1,13,1.23,24.789,M,36.997,M,,*64
$GPGGA,065917.40,3542.306639113,N,13943.291508208,E,1,14,1.17,24.811,M,36.997,M,,*61
$GPGGA,065917.50,3542.306687113,N,13943.291454207,E,1,15,1.10,24.833,M,36.997,M,,*64
$GPGGA,065917.60,3542.306753113,N,13943.291436207,E,1,14,1.18,24.812,M,36.997,M,,*61
$GPGGA,065917.70,3542.306825114,N,13943.291418207,E,1,15,1.10,24.824,M,36.997,M,,*69
$GPGGA,065917.80,3542.306885113,N,13943.291352207,E,1,16,1.05,24.842,M,36.997,M,,*65
$GPGGA,065917.90,3542.306933113,N,13943.291304207,E,1,16,1.05,24.842,M,36.997,M,,*6B
$GPGGA,065918.00,3542.306993113,N,13943.291250207,E,1,15,1.10,24.834,M,36.997,M,,*61
$GPGGA,065918.10,3542.307053113,N,13943.291196207,E,1,15,1.10,24.867,M,36.997,M,,*6B
$GPGGA,065918.20,3542.307113113,N,13943.291160207,E,1,15,1.10,24.860,M,36.997,M,,*63
$GPGGA,065918.30,3542.307173113,N,13943.291106206,E,1,14,1.17,24.851,M,36.997,M,,*61
$GPGGA,065918.40,3542.307239113,N,13943.291064206,E,1,16,1.05,24.852,M,36.997,M,,*6C
$GPGGA,065918.50,3542.307299113,N,13943.291016206,E,1,16,1.07,24.835,M,36.997,M,,*61
$GPGGA,065918.60,3542.307365113,N,13943.290962206,E,1,16,1.07,24.858,M,36.997,M,,*60
$GPGGA,065918.70,3542.307407113,N,13943.290902206,E,1,16,1.07,24.849,M,36.997,M,,*64
$GPGGA,065918.80,3542.307467113,N,13943.290848206,E,1,16,1.07,24.802,M,36.997,M,,*6D
$GPGGA,065918.90,3542.307527113,N,13943.290812206,E,1,15,1.10,24.797,M,36.997,M,,*60
$GPGGA,065919.00,3542.307581113,N,13943.290764206,E,1,14,1.17,24.808,M,36.997,M,,*65
$GPGGA,065919.10,3542.307641113,N,13943.290716206,E,1,13,1.27,24.784,M,36.997,M,,*61
$GPGGA,065919.20,3542.307701113,N,13943.290674205,E,1,15,1.14,24.747,M,36.997,M,,*68
$GPGGA,065919.30,3542.307755113,N,13943.290626205,E,1,15,0.95,24.754,M,36.997,M,,*65
$GPGGA,065919.40,3542.307815113,N,13943.290578205,E,1,17,0.87,24.743,M,36.997,M,,*66
$GPGGA,065919.50,3542.307881113,N,13943.290554205,E,1,16,1.05,24.730,M,36.997,M,,*6A
$GPGGA,065919.60,3542.307941113,N,13943.290500205,E,1,17,1.01,24.708,M,36.997,M,,*6B
$GPGGA,065919.70,3542.308001113,N,13943.290452205,E,1,18,0.84,24.687,M,36.997,M,,*6B
$GPGGA,065919.80,3542.308067113,N,13943.290422205,E,1,17,0.87,24.692,M,36.997,M,,*6B
$GPGGA,065919.90,3542.308139113,N,13943.290386205,E,1,17,0.87,24.669,M,36.997,M,,*6D
$GPGGA,065920.00,3542.308211113,N,13943.290338204,E,1,17,0.86,24.681,M,36.997,M,,*64
$GPGGA,065920.10,3542.308253113,N,13943.290284204,E,1,16,1.02,24.673,M,36.997,M,,*64
$GPGGA,065920.20,3542.308319113,N,13943.290254204,E,1,15,0.91,24.608,M,36.997,M,,*61
$GPGGA,065920.30,3542.308391113,N,13943.290218204,E,1,17,0.86,24.630,M,36.997,M,,*67
$GPGGA,065920.40,3542.308463113,N,13943.290170204,E,1,18,0.85,24.605,M,36.997,M,,*6D
$GPGGA,065920.50,3542.308523113,N,13943.290134204,E,1,18,0.85,24.588,M,36.997,M,,*6F
$GPGGA,065920.60,3542.308583113,N,13943.290092204,E,1,18,0.85,24.584,M,36.997,M,,*67
$GPGGA,065920.70,3542.308649113,N,13943.290062203,E,1,18,0.83,24.550,M,36.997,M,,*64
$GPGGA,065920.80,3542.308733113,N,13943.290050203,E,1,18,0.85,24.501,M,36.997,M,,*64
$GPGGA,065920.90,3542.308805113,N,13943.290026203,E,1,17,0.86,24.543,M,36.997,M,,*64
$GPGGA,065921.00,3542.308865113,N,13943.290008203,E,1,17,0.83,24.516,M,36.997,M,,*63
$GPGGA,065921.10,3542.308919113,N,13943.290008203,E,1,18,0.82,24.461,M,36.997,M,,*67
$GPGGA,065921.20,3542.308979113,N,13943.289990203,E,1,18,0.82,24.426,M,36.997,M,,*61
$GPGGA,065921.30,3542.309057113,N,13943.289966202,E,1,18,0.82,24.434,M,36.997,M,,*6F
$GPGGA,065921.40,3542.309117113,N,13943.289930202,E,1,20,0.79,24.397,M,36.997,M,,*6F
$GPGGA,065921.50,3542.309195113,N,13943.289888202,E,1,20,0.79,24.405,M,36.997,M,,*6A
$GPGGA,065921.60,3542.309291113,N,13943.289840202,E,1,21,0.76,24.378,M,36.997,M,,*69
$GPGGA,065921.70,3542.309345113,N,13943.289804202,E,1,21,0.76,24.389,M,36.997,M,,*6E
$GPGGA,065921.80,3542.309405114,N,13943.289810202,E,1,17,0.90,24.353,M,36.997,M,,*6A
$GPGGA,065921.90,3542.309477114,N,13943.289786202,E,1,18,0.82,24.332,M,36.997,M,,*65
$GPGGA,065922.00,3542.309555114,N,13943.289780201,E,1,19,0.81,24.308,M,36.997,M,,*60
$GPGGA,065922.10,3542.309627114,N,13943.289750201,E,1,18,0.81,24.307,M,36.997,M,,*64
$GPGGA,065922.20,3542.309693114,N,13943.289744201,E,1,18,0.85,24.290,M,36.997,M,,*66
$GPGGA,065922.30,3542.309753114,N,13943.289744201,E,1,18,0.87,24.272,M,36.997,M,,*64
$GPGGA,065922.40,3542.309831114,N,13943.289732201,E,1,20,0.80,24.231,M,36.997,M,,*62
$GPGGA,065922.50,3542.309903114,N,13943.289714200,E,1,20,0.80,24.233,M,36.997,M,,*64
$GPGGA,065922.60,3542.309975114,N,13943.289702200,E,1,21,0.79,24.223,M,36.997,M,,*67
$GPGGA,065922.70,3542.310047114,N,13943.289708200,E,1,21,0.76,24.190,M,36.997,M,,*68
$GPGGA,065922.80,3542.310125114,N,13943.289708200,E,1,21,0.76,24.179,M,36.997,M,,*65
$GPGGA,065922.90,3542.310203114,N,13943.289690200,E,1,20,0.80,24.172,M,36.997,M,,*60
$GPGGA,065923.00,3542.310263114,N,13943.289690200,E,1,21,0.79,24.132,M,36.997,M,,*6D
$GPGGA,065923.10,3542.310329114,N,13943.289684199,E,1,20,0.80,24.118,M,36.997,M,,*6A
$GPGGA,065923.20,3542.310401114,N,13943.289696199,E,1,21,0.76,24.096,M,36.997,M,,*68
$GPGGA,065923.30,3542.310473115,N,13943.289696199,E,1,20,0.80,24.099,M,36.997,M,,*6A
$GPGGA,065923.40,3542.310545115,N,13943.289696199,E,1,21,0.76,24.067,M,36.997,M,,*60
$GPGGA,065923.50,3542.310629115,N,13943.289684199,E,1,23,0.73,24.059,M,36.997,M,,*61
$GPGGA,065923.60,3542.310695115,N,13943.289690198,E,1,23,0.73,24.032,M,36.997,M,,*6C
$GPGGA,065923.70,3542.310767115,N,13943.289696198,E,1,22,0.75,24.029,M,36.997,M,,*6A
$GPGGA,065923.80,3542.310845115,N,13943.289690198,E,1,21,0.76,23.979,M,36.997,M,,*67
$GPGGA,065923.90,3542.310905115,N,13943.289690198,E,1,20,0.77,23.983,M,36.997,M,,*66
$GPGGA,065924.00,3542.310977115,N,13943.289690198,E,1,19,0.81,23.967,M,36.997,M,,*64
$GPGGA,065924.10,3542.311043115,N,13943.289696197,E,1,18,0.86,23.943,M,36.998,M,,*6C
$GPGGA,065924.20,3542.311115115,N,13943.289696197,E,1,19,0.85,23.907,M,36.998,M,,*6F
$GPGGA,065924.30,3542.311175115,N,13943.289702197,E,1,20,0.79,23.900,M,36.998,M,,*6A
$GPGGA,065924.40,3542.311241116,N,13943.289714197,E,1,21,0.79,23.885,M,36.998,M,,*60
$GPGGA,065924.50,3542.311313116,N,13943.289702197,E,1,23,0.68,23.872,M,36.998,M,,*6A
$GPGGA,065924.60,3542.311391116,N,13943.289690197,E,1,21,0.74,23.871,M,36.998,M,,*65
$GPGGA,065924.70,3542.311463116,N,13943.289684196,E,1,22,0.72,23.863,M,36.998,M,,*6C
$GPGGA,065924.80,3542.311523116,N,13943.289672196,E,1,22,0.72,23.834,M,36.998,M,,*6D
$GPGGA,065924.90,3542.311595116,N,13943.289660196,E,1,23,0.70,23.815,M,36.998,M,,*62
$GPGGA,065925.00,3542.311655116,N,13943.289660196,E,1,20,0.74,23.802,M,36.998,M,,*64
$GPGGA,065925.10,3542.311715116,N,13943.289654196,E,1,21,0.73,23.798,M,36.998,M,,*6D
$GPGGA,065925.20,3542.311787116,N,13943.289648196,E,1,18,0.88,23.759,M,36.998,M,,*6B
$GPGGA,065925.30,3542.311847116,N,13943.289618195,E,1,18,0.83,23.716,M,36.998,M,,*6F
$GPGGA,065925.40,3542.311907116,N,13943.289606195,E,1,22,0.72,23.699,M,36.998,M,,*63
$GPGGA,065925.50,3542.311967116,N,13943.289594195,E,1,21,0.73,23.686,M,36.998,M,,*60
$GPGGA,065925.60,3542.312027116,N,13943.289564195,E,1,21,0.73,23.659,M,36.998,M,,*60
$GPGGA,065925.70,3542.312081116,N,13943.289522195,E,1,18,0.81,23.637,M,36.998,M,,*60
$GPGGA,065925.80,3542.312129116,N,13943.289504195,E,1,20,0.74,23.619,M,36.998,M,,*65
$GPGGA,065925.90,3542.312195116,N,13943.289480195,E,1,21,0.72,23.593,M,36.998,M,,*68
$GPGGA,065926.00,3542.312243116,N,13943.289450195,E,1,18,0.77,23.562,M,36.998,M,,*66
$GPGGA,065926.10,3542.312291116,N,13943.289408194,E,1,12,1.13,23.567,M,36.998,M,,*68
$GPGGA,065926.20,3542.312339116,N,13943.289378194,E,1,11,1.40,23.568,M,36.998,M,,*62
$GPGGA,065926.30,3542.312387116,N,13943.289342194,E,1,12,1.11,23.529,M,36.998,M,,*6D
$GPGGA,065926.40,3542.312441116,N,13943.289300194,E,1,12,1.11,23.541,M,36.998,M,,*6F
$GPGGA,065926.50,3542.312483116,N,13943.289252194,E,1,13,1.25,23.514,M,36.998,M,,*60
$GPGGA,065926.60,3542.312525116,N,13943.289210194,E,1,14,1.22,23.506,M,36.998,M,,*6B
$GPGGA,065926.70,3542.312555116,N,13943.289162194,E,1,14,1.41,23.511,M,36.998,M,,*68
$GPGGA,065926.80,3542.312609116,N,13943.289114194,E,1,14,0.97,23.479,M,36.998,M,,*69
$GPGGA,065926.90,3542.312651116,N,13943.289066194,E,1,16,0.92,23.455,M,36.998,M,,*68
$GPGGA,065927.00,3542.312681116,N,13943.289012194,E,1,14,1.01,23.466,M,36.998,M,,*67
$GPGGA,065927.10,3542.312717116,N,13943.288958194,E,1,14,1.01,23.442,M,36.998,M,,*68
$GPGGA,065927.20,3542.312753116,N,13943.288910194,E,1,13,1.04,23.432,M,36.998,M,,*62
$GPGGA,065927.30,3542.312783116,N,13943.288856194,E,1,12,1.08,23.433,M,36.998,M,,*61
$GPGGA,065927.40,3542.312813116,N,13943.288814194,E,1,13,1.04,23.428,M,36.998,M,,*61
$GPGGA,065927.50,3542.312843116,N,13943.288754194,E,1,14,1.02,23.423,M,36.998,M,,*64
$GPGGA,065927.60,3542.312867116,N,13943.288688193,E,1,12,1.30,23.442,M,36.998,M,,*66
$GPGGA,065927.70,3542.312891115,N,13943.288646193,E,1,14,1.23,23.419,M,36.998,M,,*65
$GPGGA,065927.80,3542.312915115,N,13943.288580193,E,1,15,1.10,23.418,M,36.998,M,,*6E
$GPGGA,065927.90,3542.312939115,N,13943.288508193,E,1,13,1.26,23.412,M,36.998,M,,*68
$GPGGA,065928.00,3542.312957115,N,13943.288448193,E,1,15,1.13,23.404,M,36.998,M,,*64
$GPGGA,065928.10,3542.312963115,N,13943.288376193,E,1,16,1.11,23.420,M,36.998,M,,*6F
$GPGGA,065928.20,3542.312981115,N,13943.288298194,E,1,15,1.12,23.400,M,36.998,M,,*64
$GPGGA,065928.30,3542.312993115,N,13943.288256194,E,1,15,1.12,23.419,M,36.998,M,,*6C
$GPGGA,065928.40,3542.313005115,N,13943.288214194,E,1,14,1.15,23.384,M,36.998,M,,*6F
$GPGGA,065928.50,3542.313005115,N,13943.288136194,E,1,15,0.91,23.422,M,36.998,M,,*6A
$GPGGA,065928.60,3542.312999114,N,13943.288076194,E,1,12,1.35,23.440,M,36.998,M,,*6C
$GPGGA,065928.70,3542.313005114,N,13943.288034194,E,1,12,1.35,23.440,M,36.998,M,,*66
$GPGGA,065928.80,3542.312981114,N,13943.287968194,E,1,16,1.02,23.511,M,36.998,M,,*67
$GPGGA,065928.90,3542.312975114,N,13943.287908194,E,1,17,0.91,23.506,M,36.998,M,,*67
$GPGGA,065929.00,3542.312975114,N,13943.287842194,E,1,19,0.84,23.510,M,36.998,M,,*6D
$GPGGA,065929.10,3542.312945114,N,13943.287776194,E,1,19,0.84,23.512,M,36.998,M,,*65
$GPGGA,065929.20,3542.312921114,N,13943.287722194,E,1,20,0.82,23.527,M,36.998,M,,*6F
$GPGGA,065929.30,3542.312921114,N,13943.287656194,E,1,19,0.84,23.526,M,36.998,M,,*61
$GPGGA,065929.40,3542.312897113,N,13943.287590194,E,1,22,0.70,23.538,M,36.998,M,,*68
$GPGGA,065929.50,3542.312879113,N,13943.287536194,E,1,21,0.72,23.538,M,36.998,M,,*64
$GPGGA,065929.60,3542.312843113,N,13943.287476195,E,1,18,0.79,23.555,M,36.998,M,,*60
$GPGGA,065929.70,3542.312813113,N,13943.287410195,E,1,19,0.79,23.532,M,36.998,M,,*64
$GPGGA,065929.80,3542.312795113,N,13943.287344195,E,1,19,0.79,23.526,M,36.998,M,,*69
$GPGGA,065929.90,3542.312771113,N,13943.287272195,E,1,18,0.83,23.547,M,36.998,M,,*65
$GPGGA,065930.00,3542.312729112,N,13943.287206195,E,1,19,0.79,23.528,M,36.998,M,,*66
$GPGGA,065930.10,3542.312687112,N,13943.287152195,E,1,20,0.73,23.524,M,36.998,M,,*6C
$GPGGA,065930.20,3542.312663112,N,13943.287092195,E,1,21,0.72,23.537,M,36.998,M,,*6A
$GPGGA,065930.30,3542.312639112,N,13943.287032195,E,1,20,0.75,23.501,M,36.998,M,,*6D
$GPGGA,065930.40,3542.312591112,N,13943.286978196,E,1,20,0.77,23.491,M,36.998,M,,*64
$GPGGA,065930.50,3542.312561112,N,13943.286918196,E,1,21,0.75,23.494,M,36.998,M,,*6A
$GPGGA,065930.60,3542.312525111,N,13943.286864196,E,1,21,0.77,23.502,M,36.998,M,,*6C
$GPGGA,065930.70,3542.312489111,N,13943.286798196,E,1,21,0.80,23.487,M,36.998,M,,*62
$GPGGA,065930.80,3542.312447111,N,13943.286744196,E,1,21,0.76,23.473,M,36.998,M,,*6C
$GPGGA,065930.90,3542.312417111,N,13943.286678196,E,1,22,0.70,23.477,M,36.998,M,,*67
$GPGGA,065931.00,3542.312387111,N,13943.286624196,E,1,21,0.75,23.456,M,36.998,M,,*6D
$GPGGA,065931.10,3542.312351111,N,13943.286570197,E,1,22,0.70,23.439,M,36.998,M,,*6B
$GPGGA,065931.20,3542.312303111,N,13943.286504197,E,1,20,0.79,23.436,M,36.998,M,,*68
$GPGGA,065931.30,3542.312273110,N,13943.286450197,E,1,21,0.75,23.423,M,36.998,M,,*67
$GPGGA,065931.40,3542.312243110,N,13943.286384197,E,1,20,0.80,23.424,M,36.998,M,,*61
$GPGGA,065931.50,3542.312195110,N,13943.286330197,E,1,19,0.83,23.422,M,36.998,M,,*68
$GPGGA,065931.60,3542.312159110,N,13943.286276197,E,1,20,0.82,23.413,M,36.998,M,,*61
$GPGGA,065931.70,3542.312123110,N,13943.286222197,E,1,18,0.94,23.399,M,36.998,M,,*65
$GPGGA,065931.80,3542.312093110,N,13943.286162198,E,1,20,0.86,23.405,M,36.998,M,,*62
$GPGGA,065931.90,3542.312057109,N,13943.286102198,E,1,21,0.75,23.390,M,36.998,M,,*63
$GPGGA,065932.00,3542.312021109,N,13943.286042198,E,1,21,0.75,23.391,M,36.998,M,,*6C
$GPGGA,065932.10,3542.311979109,N,13943.285988198,E,1,19,0.82,23.363,M,36.998,M,,*68
$GPGGA,065932.20,3542.311943109,N,13943.285940198,E,1,18,0.83,23.384,M,36.998,M,,*6F
$GPGGA,065932.30,3542.311907109,N,13943.285880198,E,1,21,0.77,23.381,M,36.998,M,,*67
$GPGGA,065932.40,3542.311853109,N,13943.285808198,E,1,19,0.83,23.383,M,36.998,M,,*62
$GPGGA,065932.50,3542.311823108,N,13943.285754199,E,1,17,0.88,23.376,M,36.998,M,,*6D
$GPGGA,065932.60,3542.311781108,N,13943.285700199,E,1,18,0.85,23.372,M,36.998,M,,*6E
$GPGGA,065932.70,3542.311733108,N,13943.285640199,E,1,16,0.96,23.377,M,36.998,M,,*6A
$GPGGA,065932.80,3542.311697108,N,13943.285598199,E,1,16,0.96,23.378,M,36.998,M,,*63
$GPGGA,065932.90,3542.311661108,N,13943.285538199,E,1,16,1.00,23.384,M,36.998,M,,*6C
$GPGGA,065933.00,3542.311625108,N,13943.285466199,E,1,16,1.00,23.366,M,36.998,M,,*62
$GPGGA,065933.10,3542.311577107,N,13943.285406200,E,1,16,1.00,23.364,M,36.998,M,,*6F
$GPGGA,065933.20,3542.311535107,N,13943.285364200,E,1,18,0.87,23.366,M,36.998,M,,*6B
$GPGGA,065933.30,3542.311487107,N,13943.285304200,E,1,20,0.76,23.349,M,36.998,M,,*6C
$GPGGA,065933.40,3542.311439107,N,13943.285250200,E,1,19,0.82,23.355,M,36.998,M,,*62
$GPGGA,065933.50,3542.311397107,N,13943.285196200,E,1,19,0.82,23.338,M,36.998,M,,*62
$GPGGA,065933.60,3542.311379107,N,13943.285136200,E,1,18,0.91,23.366,M,36.998,M,,*63
$GPGGA,065933.70,3542.311337107,N,13943.285082200,E,1,17,0.93,23.371,M,36.998,M,,*6D
$GPGGA,065933.80,3542.311283106,N,13943.285034201,E,1,17,0.93,23.353,M,36.998,M,,*61
$GPGGA,065933.90,3542.311259106,N,13943.284974201,E,1,17,0.93,23.366,M,36.998,M,,*6D
$GPGGA,065934.00,3542.311205106,N,13943.284908201,E,1,17,0.88,23.346,M,36.998,M,,*69
$GPGGA,065934.10,3542.311163106,N,13943.284848201,E,1,19,0.83,23.341,M,36.998,M,,*6C
$GPGGA,065934.20,3542.311127106,N,13943.284788201,E,1,18,0.90,23.314,M,36.998,M,,*6F
$GPGGA,065934.30,3542.311103106,N,13943.284728201,E,1,19,0.86,23.317,M,36.998,M,,*67
$GPGGA,065934.40,3542.311061105,N,13943.284674201,E,1,19,0.86,23.300,M,36.998,M,,*68
$GPGGA,065934.50,3542.311019105,N,13943.284620202,E,1,19,0.86,23.285,M,36.998,M,,*68
$GPGGA,065934.60,3542.310989105,N,13943.284554202,E,1,18,0.89,23.277,M,36.998,M,,*69
$GPGGA,065934.70,3542.310965105,N,13943.284482202,E,1,16,0.96,23.297,M,36.998,M,,*6E
$GPGGA,065934.80,3542.310917105,N,13943.284434202,E,1,17,0.92,23.306,M,36.998,M,,*65
$GPGGA,065934.90,3542.310875105,N,13943.284386202,E,1,19,0.88,23.280,M,36.998,M,,*65
$GPGGA,065935.00,3542.310833104,N,13943.284326202,E,1,18,0.89,23.271,M,36.998,M,,*6A
$GPGGA,065935.10,3542.310785104,N,13943.284254203,E,1,18,0.89,23.270,M,36.998,M,,*6D
$GPGGA,065935.20,3542.310719104,N,13943.284206203,E,1,20,0.79,23.253,M,36.998,M,,*69
$GPGGA,065935.30,3542.310677104,N,13943.284152203,E,1,20,0.79,23.228,M,36.998,M,,*6F
$GPGGA,065935.40,3542.310641104,N,13943.284086203,E,1,20,0.80,23.230,M,36.998,M,,*6A
$GPGGA,065935.50,3542.310605104,N,13943.284032203,E,1,22,0.74,23.200,M,36.998,M,,*6E
$GPGGA,065935.60,3542.310539103,N,13943.283990203,E,1,22,0.74,23.190,M,36.998,M,,*6A
$GPGGA,065935.70,3542.310497103,N,13943.283942204,E,1,21,0.75,23.176,M,36.998,M,,*6C
$GPGGA,065935.80,3542.310461103,N,13943.283870204,E,1,21,0.85,23.163,M,36.998,M,,*61
$GPGGA,065935.90,3542.310419103,N,13943.283798204,E,1,18,0.90,23.149,M,36.998,M,,*60
$GPGGA,065936.00,3542.310371103,N,13943.283756204,E,1,19,0.89,23.142,M,36.998,M,,*63
$GPGGA,065936.10,3542.310317103,N,13943.283708204,E,1,20,0.87,23.114,M,36.998,M,,*6E
$GPGGA,065936.20,3542.310287102,N,13943.283654204,E,1,21,0.86,23.116,M,36.998,M,,*6E
$GPGGA,065936.30,3542.310239102,N,13943.283594205,E,1,21,0.86,23.101,M,36.998,M,,*62
$GPGGA,065936.40,3542.310185102,N,13943.283522205,E,1,18,0.93,23.065,M,36.998,M,,*61
$GPGGA,065936.50,3542.310125102,N,13943.283468205,E,1,17,0.94,23.103,M,36.998,M,,*6C
$GPGGA,065936.60,3542.310071102,N,13943.283414205,E,1,18,0.93,23.078,M,36.998,M,,*61
$GPGGA,065936.70,3542.310023102,N,13943.283348205,E,1,19,0.91,23.055,M,36.998,M,,*65
$GPGGA,065936.80,3542.309975101,N,13943.283294205,E,1,19,0.95,23.048,M,36.998,M,,*63
$GPGGA,065936.90,3542.309927101,N,13943.283252206,E,1,19,0.91,23.049,M,36.998,M,,*69
$GPGGA,065937.00,3542.309873101,N,13943.283216206,E,1,19,0.88,23.043,M,36.998,M,,*63
$GPGGA,065937.10,3542.309837101,N,13943.283156206,E,1,20,0.87,23.016,M,36.998,M,,*60
$GPGGA,065937.20,3542.309777101,N,13943.283078206,E,1,20,0.87,23.014,M,36.998,M,,*67
$GPGGA,065937.30,3542.309711100,N,13943.283030206,E,1,20,0.87,23.012,M,36.998,M,,*6D
$GPGGA,065937.40,3542.309669100,N,13943.282976207,E,1,20,0.87,23.014,M,36.998,M,,*69
$GPGGA,065937.50,3542.309621100,N,13943.282916207,E,1,20,0.87,23.012,M,36.998,M,,*64
$GPGGA,065937.60,3542.309579100,N,13943.282862207,E,1,18,0.96,22.986,M,36.998,M,,*65
$GPGGA,065937.70,3542.309519100,N,13943.282814207,E,1,18,0.93,22.954,M,36.998,M,,*69
$GPGGA,065937.80,3542.309477100,N,13943.282742207,E,1,14,1.28,22.939,M,36.998,M,,*65
$GPGGA,065937.90,3542.309441099,N,13943.282682207,E,1,14,1.28,22.935,M,36.998,M,,*61
$GPGGA,065938.00,3542.309369099,N,13943.282628208,E,1,15,1.26,22.941,M,36.998,M,,*69
$GPGGA,065938.10,3542.309327099,N,13943.282562208,E,1,15,1.26,22.921,M,36.998,M,,*69
$GPGGA,065938.20,3542.309285099,N,13943.282496208,E,1,16,1.07,22.913,M,36.998,M,,*68
$GPGGA,065938.30,3542.309231099,N,13943.282442208,E,1,16,1.22,22.887,M,36.998,M,,*64
$GPGGA,065938.40,3542.309189099,N,13943.282382208,E,1,16,1.22,22.859,M,36.998,M,,*6B
$GPGGA,065938.50,3542.309141098,N,13943.282310208,E,1,15,1.26,22.857,M,36.998,M,,*6D
