$GPGGA,060813.30,3542.293175091,N,13943.288358245,E,1,09,2.49,21.894,M,36.995,M,,*63
$GPGGA,060813.40,3542.293169091,N,13943.288358245,E,1,09,2.49,21.892,M,36.995,M,,*6F
$GPGGA,060813.50,3542.293169091,N,13943.288364245,E,1,09,2.49,21.898,M,36.995,M,,*6B
$GPGGA,060813.60,3542.293169091,N,13943.288364245,E,1,09,2.49,21.906,M,36.995,M,,*6E
$GPGGA,060813.70,3542.293169091,N,13943.288364245,E,1,09,2.49,21.895,M,36.995,M,,*64
$GPGGA,060813.80,3542.293169091,N,13943.288364245,E,1,09,2.49,21.909,M,36.995,M,,*6F
$GPGGA,060813.90,3542.293169091,N,13943.288370245,E,1,09,2.49,21.905,M,36.995,M,,*67
$GPGGA,060814.00,3542.293175091,N,13943.288364245,E,1,09,2.49,21.916,M,36.995,M,,*63
$GPGGA,060814.10,3542.293169091,N,13943.288370245,E,1,09,2.49,21.908,M,36.995,M,,*65
$GPGGA,060814.20,3542.293169091,N,13943.288370245,E,1,09,2.49,21.909,M,36.995,M,,*67
$GPGGA,060814.30,3542.293175091,N,13943.288370245,E,1,09,2.49,21.918,M,36.995,M,,*6B
$GPGGA,060814.40,3542.293175091,N,13943.288376245,E,1,09,2.49,21.922,M,36.995,M,,*63
$GPGGA,060814.50,3542.293175091,N,13943.288370245,E,1,09,2.49,21.924,M,36.995,M,,*62
$GPGGA,060814.60,3542.293175091,N,13943.288376245,E,1,09,2.49,21.923,M,36.995,M,,*60
$GPGGA,060814.70,3542.293175091,N,13943.288376245,E,1,09,2.49,21.930,M,36.995,M,,*63
$GPGGA,060814.80,3542.293175091,N,13943.288376245,E,1,09,2.49,21.934,M,36.995,M,,*68
$GPGGA,060814.90,3542.293175091,N,13943.288376245,E,1,09,2.49,21.938,M,36.995,M,,*65
$GPGGA,060815.00,3542.293175091,N,13943.288376245,E,1,09,2.49,21.935,M,36.995,M,,*60
$GPGGA,060815.10,3542.293175091,N,13943.288376245,E,1,09,2.49,21.941,M,36.995,M,,*62
$GPGGA,060815.20,3542.293175091,N,13943.288382245,E,1,09,2.49,21.942,M,36.995,M,,*69
$GPGGA,060815.30,3542.293175091,N,13943.288382245,E,1,09,2.49,21.948,M,36.995,M,,*62
$GPGGA,060815.40,3542.293175091,N,13943.288382245,E,1,09,2.49,21.963,M,36.995,M,,*6C
$GPGGA,060815.50,3542.293175091,N,13943.288382245,E,1,09,2.49,21.953,M,36.995,M,,*6E
$GPGGA,060815.60,3542.293181091,N,13943.288382245,E,1,09,2.49,21.960,M,36.995,M,,*66
$GPGGA,060815.70,3542.293175091,N,13943.288388245,E,1,09,2.49,21.955,M,36.995,M,,*60
$GPGGA,060815.80,3542.293175091,N,13943.288388245,E,1,09,2.49,21.947,M,36.995,M,,*6C
$GPGGA,060815.90,3542.293175091,N,13943.288388245,E,1,09,2.49,21.955,M,36.995,M,,*6E
$GPGGA,060816.00,3542.293175091,N,13943.288394245,E,1,09,2.49,21.962,M,36.995,M,,*6D
$GPGGA,060816.10,3542.293175091,N,13943.288394245,E,1,09,2.49,21.959,M,36.995,M,,*64
$GPGGA,060816.20,3542.293175091,N,13943.288394245,E,1,09,2.49,21.960,M,36.995,M,,*6D
$GPGGA,060816.30,3542.293175091,N,13943.288394245,E,1,09,2.49,21.957,M,36.995,M,,*68
$GPGGA,060816.40,3542.293175091,N,13943.288394245,E,1,09,2.49,21.971,M,36.995,M,,*6B
$GPGGA,060816.50,3542.293175091,N,13943.288400245,E,1,09,2.49,21.961,M,36.995,M,,*61
$GPGGA,060816.60,3542.293175091,N,13943.288400245,E,1,09,2.49,21.965,M,36.995,M,,*66
$GPGGA,060816.70,3542.293175091,N,13943.288400245,E,1,09,2.49,21.968,M,36.995,M,,*6A
$GPGGA,060816.80,3542.293181091,N,13943.288394245,E,1,09,2.49,21.965,M,36.995,M,,*69
$GPGGA,060816.90,3542.293181091,N,13943.288400245,E,1,09,2.49,21.967,M,36.995,M,,*60
$GPGGA,060817.00,3542.293175091,N,13943.288400245,E,1,09,2.49,21.971,M,36.995,M,,*64
$GPGGA,060817.10,3542.293181091,N,13943.288406245,E,1,09,2.49,21.966,M,36.995,M,,*6E
$GPGGA,060817.20,3542.293175091,N,13943.288400245,E,1,09,2.49,21.966,M,36.995,M,,*60
$GPGGA,060817.30,3542.293181091,N,13943.288400245,E,1,09,2.49,21.973,M,36.995,M,,*6E
$GPGGA,060817.40,3542.293181091,N,13943.288406245,E,1,09,2.49,21.976,M,36.995,M,,*6A
$GPGGA,060817.50,3542.293181091,N,13943.288406245,E,1,09,2.49,21.975,M,36.995,M,,*68
$GPGGA,060817.60,3542.293175091,N,13943.288412245,E,1,09,2.48,21.976,M,36.995,M,,*67
$GPGGA,060817.70,3542.293175091,N,13943.288412245,E,1,09,2.48,21.979,M,36.995,M,,*69
$GPGGA,060817.80,3542.293175091,N,13943.288406245,E,1,09,2.48,21.987,M,36.995,M,,*62
$GPGGA,060817.90,3542.293175091,N,13943.288412245,E,1,09,2.48,21.985,M,36.995,M,,*64
$GPGGA,060818.00,3542.293175091,N,13943.288412245,E,1,09,2.48,21.984,M,36.995,M,,*63
$GPGGA,060818.10,3542.293175091,N,13943.288412245,E,1,09,2.48,21.996,M,36.995,M,,*61
$GPGGA,060818.20,3542.293175091,N,13943.288412245,E,1,09,2.48,21.993,M,36.995,M,,*67
$GPGGA,060818.30,3542.293175091,N,13943.288412245,E,1,09,2.48,21.993,M,36.995,M,,*66
$GPGGA,060818.40,3542.293169091,N,13943.288418245,E,1,09,2.48,21.998,M,36.995,M,,*6D
$GPGGA,060818.50,3542.293175091,N,13943.288412245,E,1,09,2.48,21.998,M,36.995,M,,*6B
$GPGGA,060818.60,3542.293175091,N,13943.288418245,E,1,09,2.48,22.000,M,36.995,M,,*69
$GPGGA,060818.70,3542.293181091,N,13943.288418245,E,1,09,2.48,21.999,M,36.995,M,,*69
$GPGGA,060818.80,3542.293181091,N,13943.288418245,E,1,09,2.48,22.007,M,36.995,M,,*6B
$GPGGA,060818.90,3542.293181091,N,13943.288418245,E,1,09,2.48,22.013,M,36.995,M,,*6F
$GPGGA,060819.00,3542.293175091,N,13943.288418245,E,1,09,2.48,22.019,M,36.995,M,,*66
$GPGGA,060819.10,3542.293181091,N,13943.288412245,E,1,09,2.48,22.033,M,36.995,M,,*6E
$GPGGA,060819.20,3542.293181091,N,13943.288418245,E,1,10,2.42,22.039,M,36.995,M,,*6F
$GPGGA,060819.30,3542.293181091,N,13943.288418245,E,1,10,2.42,22.036,M,36.995,M,,*61
$GPGGA,060819.40,3542.293181091,N,13943.288418245,E,1,10,2.42,22.048,M,36.995,M,,*6F
$GPGGA,060819.50,3542.293181091,N,13943.288418245,E,1,10,2.42,22.044,M,36.995,M,,*62
$GPGGA,060819.60,3542.293181091,N,13943.288418245,E,1,10,2.42,22.059,M,36.995,M,,*6D
$GPGGA,060819.70,3542.293187091,N,13943.288418245,E,1,11,2.40,22.057,M,36.995,M,,*67
$GPGGA,060819.80,3542.293181091,N,13943.288424245,E,1,11,2.40,22.064,M,36.995,M,,*61
$GPGGA,060819.90,3542.293181091,N,13943.288418245,E,1,11,2.40,22.054,M,36.995,M,,*6C
$GPGGA,060820.00,3542.293181091,N,13943.288424245,E,1,11,2.40,22.051,M,36.995,M,,*65
$GPGGA,060820.10,3542.293181091,N,13943.288424245,E,1,11,2.40,22.053,M,36.995,M,,*66
$GPGGA,060820.20,3542.293181091,N,13943.288424245,E,1,11,2.40,22.054,M,36.995,M,,*62
$GPGGA,060820.30,3542.293181091,N,13943.288424245,E,1,11,2.40,22.040,M,36.995,M,,*66
$GPGGA,060820.40,3542.293181091,N,13943.288430245,E,1,11,2.40,22.047,M,36.995,M,,*63
$GPGGA,060820.50,3542.293181091,N,13943.288430245,E,1,11,2.40,22.045,M,36.995,M,,*60
$GPGGA,060820.60,3542.293181091,N,13943.288430245,E,1,12,1.57,22.049,M,36.995,M,,*69
$GPGGA,060820.70,3542.293175091,N,13943.288430245,E,1,12,1.57,22.049,M,36.995,M,,*63
$GPGGA,060820.80,3542.293175091,N,13943.288436245,E,1,12,1.57,22.035,M,36.995,M,,*61
$GPGGA,060820.90,3542.293181091,N,13943.288430245,E,1,12,1.57,22.045,M,36.995,M,,*6A
$GPGGA,060821.00,3542.293181091,N,13943.288436245,E,1,12,1.57,22.058,M,36.995,M,,*68
$GPGGA,060821.10,3542.293169091,N,13943.288442245,E,1,12,1.57,22.035,M,36.995,M,,*67
$GPGGA,060821.20,3542.293169091,N,13943.288442245,E,1,12,1.57,22.036,M,36.995,M,,*67
$GPGGA,060821.30,3542.293169091,N,13943.288442245,E,1,12,1.57,22.047,M,36.995,M,,*60
$GPGGA,060821.40,3542.293169091,N,13943.288448245,E,1,12,1.57,22.038,M,36.995,M,,*65
$GPGGA,060821.50,3542.293169091,N,13943.288442245,E,1,12,1.57,22.030,M,36.995,M,,*66
$GPGGA,060821.60,3542.293169091,N,13943.288448245,E,1,12,1.57,22.029,M,36.995,M,,*67
$GPGGA,060821.70,3542.293169091,N,13943.288448245,E,1,12,1.57,22.033,M,36.995,M,,*6D
$GPGGA,060821.80,3542.293175091,N,13943.288448245,E,1,12,1.57,22.037,M,36.995,M,,*6B
$GPGGA,060821.90,3542.293169091,N,13943.288454245,E,1,12,1.57,22.021,M,36.995,M,,*6D
$GPGGA,060822.00,3542.293169091,N,13943.288454245,E,1,12,1.57,22.019,M,36.995,M,,*6C
$GPGGA,060822.10,3542.293169091,N,13943.288454245,E,1,12,1.57,22.030,M,36.995,M,,*66
$GPGGA,060822.20,3542.293169091,N,13943.288454245,E,1,11,2.40,22.023,M,36.995,M,,*61
$GPGGA,060822.30,3542.293169091,N,13943.288454245,E,1,11,2.40,22.023,M,36.995,M,,*60
$GPGGA,060822.40,3542.293169091,N,13943.288454245,E,1,11,2.40,22.027,M,36.995,M,,*63
$GPGGA,060822.50,3542.293169091,N,13943.288454245,E,1,11,2.40,22.022,M,36.995,M,,*67
$GPGGA,060822.60,3542.293163091,N,13943.288460245,E,1,11,2.40,22.019,M,36.995,M,,*61
$GPGGA,060822.70,3542.293169091,N,13943.288460245,E,1,11,2.40,22.022,M,36.995,M,,*62
$GPGGA,060822.80,3542.293163091,N,13943.288460245,E,1,11,2.40,22.012,M,36.995,M,,*64
$GPGGA,060822.90,3542.293163091,N,13943.288460245,E,1,11,2.40,22.023,M,36.995,M,,*67
$GPGGA,060823.00,3542.293169091,N,13943.288460245,E,1,11,2.40,22.018,M,36.995,M,,*6D
$GPGGA,060823.10,3542.293169091,N,13943.288466245,E,1,11,2.40,22.019,M,36.995,M,,*6B
$GPGGA,060823.20,3542.293169091,N,13943.288460245,E,1,12,1.57,22.030,M,36.995,M,,*63
$GPGGA,060823.30,3542.293169091,N,13943.288460245,E,1,12,1.57,22.032,M,36.995,M,,*60
$GPGGA,060823.40,3542.293169091,N,13943.288466245,E,1,12,1.57,22.028,M,36.995,M,,*6A
$GPGGA,060823.50,3542.293175091,N,13943.288460245,E,1,12,1.57,22.039,M,36.995,M,,*60
$GPGGA,060823.60,3542.293175091,N,13943.288466245,E,1,12,1.57,22.037,M,36.995,M,,*6B
$GPGGA,060823.70,3542.293175091,N,13943.288466245,E,1,11,2.40,22.039,M,36.995,M,,*62
$GPGGA,060823.80,3542.293175091,N,13943.288466245,E,1,11,2.40,22.027,M,36.995,M,,*62
$GPGGA,060823.90,3542.293175091,N,13943.288466245,E,1,11,2.40,22.040,M,36.995,M,,*62
$GPGGA,060824.00,3542.293175091,N,13943.288466245,E,1,11,2.40,22.041,M,36.995,M,,*6D
$GPGGA,060824.10,3542.293175091,N,13943.288466245,E,1,11,2.40,22.031,M,36.995,M,,*6B
$GPGGA,060824.20,3542.293175091,N,13943.288472245,E,1,11,2.40,22.033,M,36.995,M,,*6F
$GPGGA,060824.30,3542.293175091,N,13943.288466245,E,1,11,2.40,22.034,M,36.995,M,,*6C
$GPGGA,060824.40,3542.293175091,N,13943.288466245,E,1,11,2.40,22.036,M,36.995,M,,*69
$GPGGA,060824.50,3542.293175091,N,13943.288466245,E,1,11,2.40,22.045,M,36.995,M,,*6C
$GPGGA,060824.60,3542.293175091,N,13943.288466245,E,1,10,2.42,22.047,M,36.995,M,,*6E
$GPGGA,060824.70,3542.293181091,N,13943.288466245,E,1,10,2.42,22.050,M,36.995,M,,*62
$GPGGA,060824.80,3542.293175091,N,13943.288466245,E,1,10,2.42,22.044,M,36.995,M,,*63
$GPGGA,060824.90,3542.293175091,N,13943.288466245,E,1,10,2.42,22.047,M,36.995,M,,*61
$GPGGA,060825.00,3542.293175091,N,13943.288466245,E,1,09,2.48,22.048,M,36.995,M,,*64
$GPGGA,060825.10,3542.293175091,N,13943.288466245,E,1,09,2.48,22.044,M,36.995,M,,*69
$GPGGA,060825.20,3542.293181091,N,13943.288472245,E,1,09,2.48,22.048,M,36.995,M,,*68
$GPGGA,060825.30,3542.293175091,N,13943.288466245,E,1,09,2.48,22.050,M,36.995,M,,*6E
$GPGGA,060825.40,3542.293175091,N,13943.288472245,E,1,09,2.48,22.037,M,36.995,M,,*6D
$GPGGA,060825.50,3542.293175091,N,13943.288472245,E,1,09,2.48,22.047,M,36.995,M,,*6B
$GPGGA,060825.60,3542.293175091,N,13943.288472245,E,1,09,2.48,22.053,M,36.995,M,,*6D
$GPGGA,060825.70,3542.293175091,N,13943.288472245,E,1,09,2.48,22.049,M,36.995,M,,*67
$GPGGA,060825.80,3542.293175091,N,13943.288472245,E,1,09,2.48,22.049,M,36.995,M,,*68
$GPGGA,060825.90,3542.293175091,N,13943.288472245,E,1,09,2.48,22.046,M,36.995,M,,*66
$GPGGA,060826.00,3542.293175091,N,13943.288478245,E,1,09,2.48,22.025,M,36.995,M,,*63
$GPGGA,060826.10,3542.293175091,N,13943.288472245,E,1,09,2.48,22.044,M,36.995,M,,*6F
$GPGGA,060826.20,3542.293181091,N,13943.288472245,E,1,09,2.48,22.033,M,36.995,M,,*67
$GPGGA,060826.30,3542.293175091,N,13943.288472245,E,1,09,2.48,22.030,M,36.995,M,,*6E
$GPGGA,060826.40,3542.293175091,N,13943.288478245,E,1,09,2.48,22.034,M,36.995,M,,*67
$GPGGA,060826.50,3542.293175091,N,13943.288478245,E,1,09,2.48,22.028,M,36.995,M,,*6B
$GPGGA,060826.60,3542.293175091,N,13943.288478245,E,1,09,2.48,22.039,M,36.995,M,,*68
$GPGGA,060826.70,3542.293175091,N,13943.288478245,E,1,09,2.48,22.028,M,36.995,M,,*69
$GPGGA,060826.80,3542.293175091,N,13943.288478245,E,1,09,2.48,22.044,M,36.995,M,,*6C
$GPGGA,060826.90,3542.293181091,N,13943.288478245,E,1,09,2.48,22.032,M,36.995,M,,*67
$GPGGA,060827.00,3542.293181091,N,13943.288478245,E,1,09,2.48,22.034,M,36.995,M,,*69
$GPGGA,060827.10,3542.293175091,N,13943.288478245,E,1,09,2.48,22.033,M,36.995,M,,*64
$GPGGA,060827.20,3542.293175091,N,13943.288478245,E,1,09,2.48,22.031,M,36.995,M,,*65
$GPGGA,060827.30,3542.293175091,N,13943.288478245,E,1,09,2.48,22.033,M,36.995,M,,*66
$GPGGA,060827.40,3542.293181091,N,13943.288478245,E,1,09,2.48,22.034,M,36.995,M,,*6D
$GPGGA,060827.50,3542.293181091,N,13943.288478245,E,1,09,2.48,22.033,M,36.995,M,,*6B
$GPGGA,060827.60,3542.293181091,N,13943.288484245,E,1,09,2.48,22.030,M,36.995,M,,*68
$GPGGA,060827.70,3542.293175091,N,13943.288478245,E,1,09,2.48,22.036,M,36.995,M,,*67
$GPGGA,060827.80,3542.293181091,N,13943.288484245,E,1,09,2.48,22.029,M,36.995,M,,*6E
$GPGGA,060827.90,3542.293181091,N,13943.288478245,E,1,09,2.48,22.038,M,36.995,M,,*6C
$GPGGA,060828.00,3542.293175091,N,13943.288484245,E,1,09,2.48,22.028,M,36.995,M,,*63
$GPGGA,060828.10,3542.293175091,N,13943.288484245,E,1,09,2.48,22.035,M,36.995,M,,*6E
$GPGGA,060828.20,3542.293181091,N,13943.288484245,E,1,09,2.48,22.039,M,36.995,M,,*6A
$GPGGA,060828.30,3542.293181091,N,13943.288478245,E,1,09,2.48,22.033,M,36.995,M,,*62
$GPGGA,060828.40,3542.293181091,N,13943.288484245,E,1,09,2.48,22.033,M,36.995,M,,*66
$GPGGA,060828.50,3542.293181091,N,13943.288484245,E,1,09,2.48,22.026,M,36.995,M,,*63
$GPGGA,060828.60,3542.293181091,N,13943.288484245,E,1,09,2.48,22.035,M,36.995,M,,*62
$GPGGA,060828.70,3542.293181091,N,13943.288484245,E,1,09,2.48,22.045,M,36.995,M,,*64
$GPGGA,060828.80,3542.293181091,N,13943.288484245,E,1,09,2.48,22.026,M,36.995,M,,*6E
$GPGGA,060828.90,3542.293181091,N,13943.288484245,E,1,09,2.48,22.032,M,36.995,M,,*6A
$GPGGA,060829.00,3542.293181091,N,13943.288490245,E,1,09,2.48,22.025,M,36.995,M,,*61
$GPGGA,060829.10,3542.293181091,N,13943.288484245,E,1,09,2.48,22.024,M,36.995,M,,*64
$GPGGA,060829.20,3542.293181091,N,13943.288490245,E,1,09,2.48,22.029,M,36.995,M,,*6F
$GPGGA,060829.30,3542.293181091,N,13943.288490245,E,1,10,2.41,22.030,M,36.995,M,,*67
$GPGGA,060829.40,3542.293181091,N,13943.288484245,E,1,10,2.41,22.032,M,36.995,M,,*67
$GPGGA,060829.50,3542.293181091,N,13943.288490245,E,1,09,2.48,22.026,M,36.995,M,,*67
$GPGGA,060829.60,3542.293175091,N,13943.288490245,E,1,10,2.41,22.029,M,36.995,M,,*61
$GPGGA,060829.70,3542.293181091,N,13943.288490245,E,1,10,2.41,22.031,M,36.995,M,,*62
$GPGGA,060829.80,3542.293181091,N,13943.288484245,E,1,10,2.41,22.031,M,36.995,M,,*68
$GPGGA,060829.90,3542.293181091,N,13943.288490245,E,1,10,2.41,22.026,M,36.995,M,,*6A
$GPGGA,060830.00,3542.293181091,N,13943.288490245,E,1,10,2.41,22.033,M,36.995,M,,*6F
$GPGGA,060830.10,3542.293181091,N,13943.288490245,E,1,10,2.47,22.039,M,36.995,M,,*62
$GPGGA,060830.20,3542.293175091,N,13943.288496245,E,1,10,2.47,22.027,M,36.995,M,,*63
$GPGGA,060830.30,3542.293181091,N,13943.288496245,E,1,10,2.47,22.027,M,36.995,M,,*69
$GPGGA,060830.40,3542.293181091,N,13943.288496245,E,1,10,2.47,22.037,M,36.995,M,,*6F
$GPGGA,060830.50,3542.293181091,N,13943.288496245,E,1,10,2.47,22.040,M,36.995,M,,*6E
$GPGGA,060830.60,3542.293181091,N,13943.288496245,E,1,11,2.40,22.017,M,36.995,M,,*69
$GPGGA,060830.70,3542.293181091,N,13943.288496245,E,1,11,2.40,22.016,M,36.995,M,,*69
$GPGGA,060830.80,3542.293175091,N,13943.288502245,E,1,11,2.40,22.011,M,36.995,M,,*66
$GPGGA,060830.90,3542.293181091,N,13943.288502245,E,1,11,2.40,22.005,M,36.995,M,,*69
$GPGGA,060831.00,3542.293181091,N,13943.288502245,E,1,11,2.40,22.016,M,36.995,M,,*63
$GPGGA,060831.10,3542.293187091,N,13943.288496245,E,1,11,2.40,22.020,M,36.995,M,,*6D
$GPGGA,060831.20,3542.293175091,N,13943.288502245,E,1,11,2.40,21.998,M,36.995,M,,*66
$GPGGA,060831.30,3542.293181091,N,13943.288502245,E,1,11,2.40,21.999,M,36.995,M,,*6D
$GPGGA,060831.40,3542.293187091,N,13943.288502245,E,1,10,2.47,22.011,M,36.995,M,,*60
$GPGGA,060831.50,3542.293181091,N,13943.288502245,E,1,10,2.47,22.002,M,36.995,M,,*65
$GPGGA,060831.60,3542.293181091,N,13943.288502245,E,1,10,2.47,21.999,M,36.995,M,,*6E
$GPGGA,060831.70,3542.293187091,N,13943.288502245,E,1,09,2.48,21.996,M,36.995,M,,*61
$GPGGA,060831.80,3542.293181091,N,13943.288502245,E,1,09,2.48,21.992,M,36.995,M,,*6C
$GPGGA,060831.90,3542.293181091,N,13943.288508245,E,1,09,2.48,21.988,M,36.995,M,,*6C
$GPGGA,060832.00,3542.293181091,N,13943.288508245,E,1,09,2.48,21.982,M,36.995,M,,*6C
$GPGGA,060832.10,3542.293181091,N,13943.288502245,E,1,09,2.48,21.989,M,36.995,M,,*6C
$GPGGA,060832.20,3542.293181091,N,13943.288508245,E,1,09,2.48,21.977,M,36.995,M,,*64
$GPGGA,060832.30,3542.293181091,N,13943.288508245,E,1,09,2.48,21.973,M,36.995,M,,*61
$GPGGA,060832.40,3542.293187091,N,13943.288502245,E,1,09,2.48,21.980,M,36.995,M,,*66
$GPGGA,060832.50,3542.293187091,N,13943.288508245,E,1,09,2.48,21.975,M,36.995,M,,*67
$GPGGA,060832.60,3542.293181091,N,13943.288508245,E,1,09,2.48,21.970,M,36.995,M,,*67
$GPGGA,060832.70,3542.293187091,N,13943.288508245,E,1,09,2.48,21.971,M,36.995,M,,*61
$GPGGA,060832.80,3542.293187091,N,13943.288508245,E,1,09,2.48,21.971,M,36.995,M,,*6E
$GPGGA,060832.90,3542.293187091,N,13943.288514245,E,1,09,2.47,21.969,M,36.995,M,,*64
$GPGGA,060833.00,3542.293187091,N,13943.288514245,E,1,09,2.47,21.964,M,36.995,M,,*61
$GPGGA,060833.10,3542.293187091,N,13943.288508245,E,1,09,2.47,21.968,M,36.995,M,,*61
$GPGGA,060833.20,3542.293187091,N,13943.288514245,E,1,09,2.47,21.972,M,36.995,M,,*64
$GPGGA,060833.30,3542.293187091,N,13943.288514245,E,1,09,2.47,21.955,M,36.995,M,,*60
$GPGGA,060833.40,3542.293181091,N,13943.288508245,E,1,09,2.47,21.958,M,36.995,M,,*61
$GPGGA,060833.50,3542.293187091,N,13943.288514245,E,1,09,2.47,21.949,M,36.995,M,,*6B
$GPGGA,060833.60,3542.293187091,N,13943.288514245,E,1,09,2.47,21.951,M,36.995,M,,*61
$GPGGA,060833.70,3542.293187091,N,13943.288514245,E,1,09,2.47,21.950,M,36.995,M,,*61
$GPGGA,060833.80,3542.293187091,N,13943.288514245,E,1,09,2.47,21.952,M,36.995,M,,*6C
$GPGGA,060833.90,3542.293187091,N,13943.288514245,E,1,09,2.47,21.950,M,36.995,M,,*6F
$GPGGA,060834.00,3542.293187091,N,13943.288520245,E,1,09,2.47,21.944,M,36.995,M,,*63
$GPGGA,060834.10,3542.293193091,N,13943.288514245,E,1,09,2.47,21.944,M,36.995,M,,*60
$GPGGA,060834.20,3542.293187091,N,13943.288520245,E,1,09,2.47,21.932,M,36.995,M,,*60
$GPGGA,060834.30,3542.293187091,N,13943.288520245,E,1,09,2.47,21.929,M,36.995,M,,*6B
$GPGGA,060834.40,3542.293193091,N,13943.288520245,E,1,09,2.47,21.944,M,36.995,M,,*62
$GPGGA,060834.50,3542.293193091,N,13943.288520245,E,1,09,2.47,21.938,M,36.995,M,,*68
$GPGGA,060834.60,3542.293193091,N,13943.288520245,E,1,09,2.47,21.944,M,36.995,M,,*60
$GPGGA,060834.70,3542.293193091,N,13943.288520245,E,1,10,1.70,21.942,M,36.995,M,,*68
$GPGGA,060834.80,3542.293193091,N,13943.288520245,E,1,10,1.70,21.930,M,36.995,M,,*62
$GPGGA,060834.90,3542.293193091,N,13943.288520245,E,1,10,1.70,21.930,M,36.995,M,,*63
$GPGGA,060835.00,3542.293193091,N,13943.288526245,E,1,09,1.98,21.924,M,36.995,M,,*66
$GPGGA,060835.10,3542.293193091,N,13943.288526245,E,1,09,1.98,21.917,M,36.995,M,,*67
$GPGGA,060835.20,3542.293193091,N,13943.288526245,E,1,09,1.98,21.916,M,36.995,M,,*65
$GPGGA,060835.30,3542.293193091,N,13943.288532245,E,1,09,1.98,21.921,M,36.995,M,,*65
$GPGGA,060835.40,3542.293193091,N,13943.288532245,E,1,09,1.98,21.926,M,36.995,M,,*65
$GPGGA,060835.50,3542.293187091,N,13943.288532245,E,1,09,1.98,21.908,M,36.995,M,,*6D
$GPGGA,060835.60,3542.293199091,N,13943.288538245,E,1,09,1.98,21.908,M,36.995,M,,*6B
$GPGGA,060835.70,3542.293217091,N,13943.288544245,E,1,09,1.98,21.907,M,36.995,M,,*6B
$GPGGA,060835.80,3542.293229091,N,13943.288556245,E,1,10,1.96,21.909,M,36.995,M,,*62
$GPGGA,060835.90,3542.293229091,N,13943.288556245,E,1,11,1.80,21.912,M,36.995,M,,*6F
$GPGGA,060836.00,3542.293229091,N,13943.288562245,E,1,11,1.80,21.898,M,36.995,M,,*61
$GPGGA,060836.10,3542.293247091,N,13943.288580245,E,1,14,1.12,21.882,M,36.995,M,,*61
$GPGGA,060836.20,3542.293271091,N,13943.288580245,E,1,14,1.12,21.891,M,36.995,M,,*65
$GPGGA,060836.30,3542.293283091,N,13943.288592245,E,1,13,1.19,21.894,M,36.995,M,,*63
$GPGGA,060836.40,3542.293307092,N,13943.288610245,E,1,11,1.66,21.879,M,36.995,M,,*6A
$GPGGA,060836.50,3542.293313092,N,13943.288628245,E,1,13,1.52,21.870,M,36.995,M,,*69
$GPGGA,060836.60,3542.293325092,N,13943.288646245,E,1,13,1.33,21.857,M,36.995,M,,*65
$GPGGA,060836.70,3542.293361092,N,13943.288652245,E,1,12,1.58,21.838,M,36.995,M,,*64
$GPGGA,060836.80,3542.293373092,N,13943.288658245,E,1,12,1.58,21.862,M,36.995,M,,*6D
$GPGGA,060836.90,3542.293397092,N,13943.288688245,E,1,12,1.58,21.830,M,36.995,M,,*6C
$GPGGA,060837.00,3542.293433092,N,13943.288700244,E,1,12,1.58,21.834,M,36.995,M,,*69
$GPGGA,060837.10,3542.293457092,N,13943.288712244,E,1,12,1.58,21.838,M,36.995,M,,*65
$GPGGA,060837.20,3542.293481092,N,13943.288742244,E,1,13,1.53,21.804,M,36.995,M,,*6D
$GPGGA,060837.30,3542.293517092,N,13943.288772244,E,1,14,1.49,21.797,M,36.995,M,,*68
$GPGGA,060837.40,3542.293553092,N,13943.288796244,E,1,13,1.57,21.796,M,36.995,M,,*6C
$GPGGA,060837.50,3542.293577092,N,13943.288814244,E,1,13,1.57,21.779,M,36.995,M,,*6F
$GPGGA,060837.60,3542.293601092,N,13943.288850244,E,1,13,1.57,21.743,M,36.995,M,,*67
$GPGGA,060837.70,3542.293649092,N,13943.288880244,E,1,12,1.61,21.756,M,36.995,M,,*67
$GPGGA,060837.80,3542.293685093,N,13943.288916244,E,1,11,1.71,21.753,M,36.995,M,,*60
$GPGGA,060837.90,3542.293715093,N,13943.288946244,E,1,11,1.71,21.729,M,36.996,M,,*62
$GPGGA,060838.00,3542.293757093,N,13943.288970243,E,1,13,1.57,21.713,M,36.996,M,,*6F
$GPGGA,060838.10,3542.293787093,N,13943.289006243,E,1,11,2.25,21.686,M,36.996,M,,*63
$GPGGA,060838.20,3542.293847093,N,13943.289024243,E,1,11,2.25,21.673,M,36.996,M,,*69
$GPGGA,060838.30,3542.293901093,N,13943.289048243,E,1,11,2.18,21.671,M,36.996,M,,*6D
$GPGGA,060838.40,3542.293931093,N,13943.289084243,E,1,12,1.22,21.640,M,36.996,M,,*62
$GPGGA,060838.50,3542.293979093,N,13943.289108243,E,1,11,1.29,21.620,M,36.996,M,,*64
$GPGGA,060838.60,3542.294021093,N,13943.289138243,E,1,12,1.23,21.636,M,36.996,M,,*69
$GPGGA,060838.70,3542.294081094,N,13943.289156242,E,1,12,1.23,21.611,M,36.996,M,,*69
$GPGGA,060838.80,3542.294117094,N,13943.289192242,E,1,12,1.23,21.618,M,36.996,M,,*69
$GPGGA,060838.90,3542.294159094,N,13943.289222242,E,1,10,1.37,21.596,M,36.996,M,,*68
$GPGGA,060839.00,3542.294213094,N,13943.289246242,E,1,09,2.26,21.595,M,36.996,M,,*67
$GPGGA,060839.10,3542.294255094,N,13943.289270242,E,1,10,2.11,21.597,M,36.996,M,,*6F
$GPGGA,060839.20,3542.294297094,N,13943.289300242,E,1,11,2.07,21.594,M,36.996,M,,*61
$GPGGA,060839.30,3542.294339094,N,13943.289336242,E,1,09,2.41,21.594,M,36.996,M,,*6B
$GPGGA,060839.40,3542.294387094,N,13943.289354241,E,1,09,2.41,21.570,M,36.996,M,,*64
$GPGGA,060839.50,3542.294429094,N,13943.289390241,E,1,09,2.41,21.578,M,36.996,M,,*66
$GPGGA,060839.60,3542.294483095,N,13943.289402241,E,1,09,2.41,21.585,M,36.996,M,,*6A
$GPGGA,060839.70,3542.294537095,N,13943.289426241,E,1,09,2.41,21.584,M,36.996,M,,*62
$GPGGA,060839.80,3542.294573095,N,13943.289462241,E,1,09,2.41,21.566,M,36.996,M,,*61
$GPGGA,060839.90,3542.294615095,N,13943.289474241,E,1,09,2.41,21.572,M,36.996,M,,*61
$GPGGA,060840.00,3542.294663095,N,13943.289510241,E,1,09,2.41,21.568,M,36.996,M,,*6F
$GPGGA,060840.10,3542.294717095,N,13943.289540240,E,1,10,2.22,21.551,M,36.996,M,,*6F
$GPGGA,060840.20,3542.294765095,N,13943.289558240,E,1,11,2.09,21.553,M,36.996,M,,*6A
$GPGGA,060840.30,3542.294807095,N,13943.289588240,E,1,11,2.09,21.547,M,36.996,M,,*68
$GPGGA,060840.40,3542.294867095,N,13943.289624240,E,1,11,2.09,21.549,M,36.996,M,,*62
$GPGGA,060840.50,3542.294921096,N,13943.289642240,E,1,11,2.09,21.541,M,36.996,M,,*6B
$GPGGA,060840.60,3542.294975096,N,13943.289666240,E,1,11,2.09,21.533,M,36.996,M,,*6A
$GPGGA,060840.70,3542.295023096,N,13943.289702240,E,1,11,2.07,21.512,M,36.996,M,,*6E
$GPGGA,060840.80,3542.295071096,N,13943.289726239,E,1,11,2.07,21.516,M,36.996,M,,*6A
$GPGGA,060840.90,3542.295119096,N,13943.289756239,E,1,10,2.20,21.522,M,36.996,M,,*60
$GPGGA,060841.00,3542.295167096,N,13943.289780239,E,1,11,2.15,21.529,M,36.996,M,,*66
$GPGGA,060841.10,3542.295221096,N,13943.289810239,E,1,12,2.04,21.505,M,36.996,M,,*6D
$GPGGA,060841.20,3542.295269096,N,13943.289852239,E,1,12,2.04,21.508,M,36.996,M,,*69
$GPGGA,060841.30,3542.295329096,N,13943.289870239,E,1,10,2.21,21.515,M,36.996,M,,*64
$GPGGA,060841.40,3542.295377097,N,13943.289894238,E,1,10,2.21,21.524,M,36.996,M,,*60
$GPGGA,060841.50,3542.295419097,N,13943.289924238,E,1,10,2.21,21.516,M,36.996,M,,*65
$GPGGA,060841.60,3542.295467097,N,13943.289960238,E,1,10,2.21,21.525,M,36.996,M,,*6F
$GPGGA,060841.70,3542.295515097,N,13943.289978238,E,1,09,2.48,21.542,M,36.996,M,,*65
$GPGGA,060841.80,3542.295569097,N,13943.290014238,E,1,10,2.47,21.522,M,36.996,M,,*6B
$GPGGA,060841.90,3542.295617097,N,13943.290038238,E,1,09,2.61,21.527,M,36.996,M,,*67
$GPGGA,060842.00,3542.295665097,N,13943.290056238,E,1,10,1.74,21.544,M,36.996,M,,*6A
$GPGGA,060842.10,3542.295707097,N,13943.290086237,E,1,09,1.81,21.542,M,36.996,M,,*68
$GPGGA,060842.20,3542.295773097,N,13943.290116237,E,1,10,1.64,21.551,M,36.996,M,,*61
$GPGGA,060842.30,3542.295821098,N,13943.290152237,E,1,11,1.63,21.554,M,36.996,M,,*64
$GPGGA,060842.40,3542.295863098,N,13943.290170237,E,1,10,1.66,21.544,M,36.996,M,,*60
$GPGGA,060842.50,3542.295917098,N,13943.290194237,E,1,11,1.63,21.529,M,36.996,M,,*66
$GPGGA,060842.60,3542.295965098,N,13943.290236237,E,1,11,1.58,21.570,M,36.996,M,,*6F
$GPGGA,060842.70,3542.296019098,N,13943.290260236,E,1,11,1.58,21.575,M,36.996,M,,*68
$GPGGA,060842.80,3542.296067098,N,13943.290272236,E,1,11,1.58,21.564,M,36.996,M,,*6D
$GPGGA,060842.90,3542.296109098,N,13943.290308236,E,1,11,1.58,21.549,M,36.996,M,,*66
$GPGGA,060843.00,3542.296163098,N,13943.290332236,E,1,11,1.58,21.547,M,36.996,M,,*65
$GPGGA,060843.10,3542.296211098,N,13943.290350236,E,1,11,1.58,21.596,M,36.996,M,,*6A
$GPGGA,060843.20,3542.296265099,N,13943.290380236,E,1,11,1.58,21.575,M,36.996,M,,*6B
$GPGGA,060843.30,3542.296313099,N,13943.290410236,E,1,12,1.18,21.549,M,36.996,M,,*6C
$GPGGA,060843.40,3542.296367099,N,13943.290422235,E,1,11,1.29,21.559,M,36.996,M,,*6A
$GPGGA,060843.50,3542.296427099,N,13943.290440235,E,1,09,1.90,21.556,M,36.996,M,,*68
$GPGGA,060843.60,3542.296463099,N,13943.290476235,E,1,10,1.84,21.577,M,36.996,M,,*60
$GPGGA,060843.70,3542.296505099,N,13943.290500235,E,1,10,1.84,21.577,M,36.996,M,,*60
$GPGGA,060843.80,3542.296553099,N,13943.290506235,E,1,11,1.49,21.578,M,36.996,M,,*65
$GPGGA,060843.90,3542.296601099,N,13943.290512235,E,1,12,1.46,21.583,M,36.996,M,,*6D
$GPGGA,060844.00,3542.296661099,N,13943.290524235,E,1,11,1.65,21.587,M,36.996,M,,*66
$GPGGA,060844.10,3542.296709099,N,13943.290536234,E,1,11,1.65,21.583,M,36.996,M,,*6E
$GPGGA,060844.20,3542.296757100,N,13943.290566234,E,1,11,1.65,21.601,M,36.996,M,,*6B
$GPGGA,060844.30,3542.296811100,N,13943.290626234,E,1,12,1.64,21.597,M,36.996,M,,*6E
$GPGGA,060844.40,3542.296859100,N,13943.290662234,E,1,12,1.64,21.586,M,36.996,M,,*65
$GPGGA,060844.50,3542.296925100,N,13943.290674234,E,1,11,1.73,21.598,M,36.996,M,,*63
$GPGGA,060844.60,3542.296985100,N,13943.290686234,E,1,11,1.73,21.626,M,36.996,M,,*61
$GPGGA,060844.70,3542.297027100,N,13943.290716233,E,1,11,1.65,21.603,M,36.996,M,,*6F
$GPGGA,060844.80,3542.297069100,N,13943.290758233,E,1,12,1.22,21.611,M,36.996,M,,*63
$GPGGA,060844.90,3542.297111100,N,13943.290794233,E,1,12,1.22,21.635,M,36.996,M,,*6A
$GPGGA,060845.00,3542.297141101,N,13943.290818233,E,1,11,1.65,21.595,M,36.996,M,,*64
$GPGGA,060845.10,3542.297195101,N,13943.290830233,E,1,11,1.65,21.606,M,36.996,M,,*6F
$GPGGA,060845.20,3542.297261101,N,13943.290842233,E,1,10,1.84,21.540,M,36.996,M,,*6E
$GPGGA,060845.30,3542.297315101,N,13943.290896233,E,1,12,1.22,21.611,M,36.996,M,,*6D
$GPGGA,060845.40,3542.297357101,N,13943.290908232,E,1,10,1.83,21.615,M,36.996,M,,*66
$GPGGA,060845.50,3542.297393101,N,13943.290950232,E,1,10,2.47,21.622,M,36.996,M,,*6D
$GPGGA,060845.60,3542.297435101,N,13943.291034232,E,1,11,1.65,21.618,M,36.996,M,,*64
$GPGGA,060845.70,3542.297513101,N,13943.291052232,E,1,11,1.65,21.637,M,36.996,M,,*6D
$GPGGA,060845.80,3542.297579102,N,13943.291052232,E,1,11,1.65,21.656,M,36.996,M,,*6A
$GPGGA,060845.90,3542.297639102,N,13943.291082232,E,1,11,1.65,21.653,M,36.996,M,,*64
$GPGGA,060846.00,3542.297687102,N,13943.291142231,E,1,11,1.65,21.645,M,36.996,M,,*62
$GPGGA,060846.10,3542.297729102,N,13943.291184231,E,1,11,1.65,21.640,M,36.996,M,,*69
$GPGGA,060846.20,3542.297789102,N,13943.291214231,E,1,10,1.84,21.656,M,36.996,M,,*63
$GPGGA,060846.30,3542.297837102,N,13943.291238231,E,1,10,1.84,21.649,M,36.996,M,,*68
$GPGGA,060846.40,3542.297891102,N,13943.291274231,E,1,10,1.84,21.646,M,36.996,M,,*64
$GPGGA,060846.50,3542.297945102,N,13943.291310231,E,1,11,1.65,21.610,M,36.996,M,,*63
$GPGGA,060846.60,3542.297999103,N,13943.291334230,E,1,11,1.65,21.608,M,36.996,M,,*6E
$GPGGA,060846.70,3542.298047103,N,13943.291364230,E,1,11,1.65,21.624,M,36.996,M,,*61
$GPGGA,060846.80,3542.298107103,N,13943.291400230,E,1,12,1.51,21.612,M,36.996,M,,*6F
$GPGGA,060846.90,3542.298173103,N,13943.291430230,E,1,12,1.51,21.641,M,36.996,M,,*68
$GPGGA,060847.00,3542.298227103,N,13943.291460230,E,1,12,1.51,21.628,M,36.996,M,,*68
$GPGGA,060847.10,3542.298293103,N,13943.291490229,E,1,12,1.51,21.619,M,36.996,M,,*63
$GPGGA,060847.20,3542.298347103,N,13943.291502229,E,1,12,1.51,21.662,M,36.996,M,,*6E
$GPGGA,060847.30,3542.298407103,N,13943.291532229,E,1,12,1.51,21.643,M,36.996,M,,*6C
$GPGGA,060847.40,3542.298473104,N,13943.291586229,E,1,12,1.51,21.638,M,36.996,M,,*6C
$GPGGA,060847.50,3542.298527104,N,13943.291622229,E,1,13,1.31,21.638,M,36.996,M,,*67
$GPGGA,060847.60,3542.298575104,N,13943.291640229,E,1,13,1.31,21.631,M,36.996,M,,*6E
$GPGGA,060847.70,3542.298623104,N,13943.291670228,E,1,13,1.31,21.678,M,36.996,M,,*60
$GPGGA,060847.80,3542.298677104,N,13943.291682228,E,1,12,1.51,21.683,M,36.996,M,,*60
$GPGGA,060847.90,3542.298731104,N,13943.291706228,E,1,12,1.51,21.666,M,36.996,M,,*64
$GPGGA,060848.00,3542.298791104,N,13943.291742228,E,1,12,1.45,21.680,M,36.996,M,,*65
$GPGGA,060848.10,3542.298833105,N,13943.291796228,E,1,11,1.65,21.695,M,36.996,M,,*6E
$GPGGA,060848.20,3542.298887105,N,13943.291826228,E,1,11,1.65,21.690,M,36.996,M,,*63
$GPGGA,060848.30,3542.298935105,N,13943.291862227,E,1,11,1.65,21.713,M,36.996,M,,*6F
$GPGGA,060848.40,3542.298989105,N,13943.291892227,E,1,11,1.65,21.724,M,36.996,M,,*64
$GPGGA,060848.50,3542.299031105,N,13943.291922227,E,1,11,1.65,21.712,M,36.996,M,,*61
$GPGGA,060848.60,3542.299079105,N,13943.291964227,E,1,12,1.51,21.741,M,36.996,M,,*6E
$GPGGA,060848.70,3542.299133105,N,13943.292006227,E,1,12,1.51,21.737,M,36.996,M,,*6F
$GPGGA,060848.80,3542.299187105,N,13943.292030227,E,1,12,1.51,21.750,M,36.996,M,,*6B
$GPGGA,060848.90,3542.299241106,N,13943.292072227,E,1,12,1.51,21.750,M,36.996,M,,*66
$GPGGA,060849.00,3542.299295106,N,13943.292108226,E,1,12,1.51,21.756,M,36.996,M,,*6C
$GPGGA,060849.10,3542.299343106,N,13943.292138226,E,1,12,1.51,21.782,M,36.996,M,,*6D
$GPGGA,060849.20,3542.299391106,N,13943.292186226,E,1,12,1.51,21.776,M,36.996,M,,*6F
$GPGGA,060849.30,3542.299433106,N,13943.292210226,E,1,11,1.65,21.781,M,36.996,M,,*61
$GPGGA,060849.40,3542.299475106,N,13943.292246226,E,1,11,1.65,21.794,M,36.996,M,,*63
$GPGGA,060849.50,3542.299529106,N,13943.292270226,E,1,11,1.65,21.786,M,36.996,M,,*6C
$GPGGA,060849.60,3542.299583106,N,13943.292294225,E,1,11,1.65,21.812,M,36.996,M,,*64
$GPGGA,060849.70,3542.299643107,N,13943.292330225,E,1,11,1.65,21.838,M,36.996,M,,*6C
$GPGGA,060849.80,3542.299721107,N,13943.292330225,E,1,11,1.65,21.904,M,36.996,M,,*68
$GPGGA,060849.90,3542.299781107,N,13943.292336225,E,1,11,1.65,21.920,M,36.996,M,,*63
$GPGGA,060850.00,3542.299823107,N,13943.292372225,E,1,11,1.65,21.945,M,36.996,M,,*66
$GPGGA,060850.10,3542.299871107,N,13943.292414225,E,1,12,1.51,21.955,M,36.996,M,,*62
$GPGGA,060850.20,3542.299925107,N,13943.292444224,E,1,11,1.65,21.984,M,36.996,M,,*6D
$GPGGA,060850.30,3542.299967107,N,13943.292474224,E,1,11,1.65,21.981,M,36.996,M,,*6C
$GPGGA,060850.40,3542.300003107,N,13943.292510224,E,1,12,1.45,21.983,M,36.996,M,,*61
$GPGGA,060850.50,3542.300051108,N,13943.292564224,E,1,12,1.45,21.947,M,36.996,M,,*63
$GPGGA,060850.60,3542.300111108,N,13943.292600224,E,1,13,1.29,21.974,M,36.996,M,,*6F
$GPGGA,060850.70,3542.300153108,N,13943.292618224,E,1,13,1.29,21.974,M,36.996,M,,*61
$GPGGA,060850.80,3542.300183108,N,13943.292654224,E,1,12,1.45,21.924,M,36.996,M,,*65
$GPGGA,060850.90,3542.300219108,N,13943.292690223,E,1,11,1.65,21.893,M,36.996,M,,*67
$GPGGA,060851.00,3542.300273108,N,13943.292738223,E,1,11,1.65,21.860,M,36.996,M,,*6C
$GPGGA,060851.10,3542.300321108,N,13943.292786223,E,1,12,1.51,21.855,M,36.996,M,,*6C
$GPGGA,060851.20,3542.300381108,N,13943.292828223,E,1,12,1.51,21.817,M,36.996,M,,*68
$GPGGA,060851.30,3542.300447109,N,13943.292852223,E,1,10,1.83,21.858,M,36.996,M,,*6E
$GPGGA,060851.40,3542.300519109,N,13943.292882223,E,1,11,1.68,21.856,M,36.996,M,,*64
$GPGGA,060851.50,3542.300549109,N,13943.292894222,E,1,10,1.83,21.905,M,36.996,M,,*65
$GPGGA,060851.60,3542.300609109,N,13943.292924222,E,1,10,1.83,21.875,M,36.996,M,,*6D
$GPGGA,060851.70,3542.300627109,N,13943.292966222,E,1,10,1.83,21.882,M,36.996,M,,*6E
$GPGGA,060851.80,3542.300657109,N,13943.292978222,E,1,12,1.51,21.924,M,36.996,M,,*69
$GPGGA,060851.90,3542.300717109,N,13943.293002222,E,1,13,1.31,21.979,M,36.996,M,,*67
$GPGGA,060852.00,3542.300777109,N,13943.293038222,E,1,12,1.47,22.019,M,36.996,M,,*6E
$GPGGA,060852.10,3542.300825109,N,13943.293068222,E,1,12,1.47,22.024,M,36.996,M,,*6C
$GPGGA,060852.20,3542.300867110,N,13943.293092221,E,1,12,1.47,22.105,M,36.996,M,,*65
$GPGGA,060852.30,3542.300927110,N,13943.293128221,E,1,12,1.47,22.161,M,36.996,M,,*63
$GPGGA,060852.40,3542.300957110,N,13943.293152221,E,1,13,1.31,22.230,M,36.996,M,,*69
$GPGGA,060852.50,3542.301005110,N,13943.293176221,E,1,12,1.51,22.283,M,36.996,M,,*6E
$GPGGA,060852.60,3542.301065110,N,13943.293206221,E,1,12,1.51,22.344,M,36.996,M,,*65
$GPGGA,060852.70,3542.301119110,N,13943.293212221,E,1,11,1.65,22.384,M,36.996,M,,*63
$GPGGA,060852.80,3542.301131110,N,13943.293230221,E,1,12,1.47,22.568,M,36.996,M,,*61
$GPGGA,060852.90,3542.301161110,N,13943.293254221,E,1,11,1.65,22.666,M,36.996,M,,*69
$GPGGA,060853.00,3542.301191110,N,13943.293272220,E,1,11,1.65,22.847,M,36.996,M,,*66
$GPGGA,060853.10,3542.301233110,N,13943.293296220,E,1,10,1.83,22.887,M,36.996,M,,*63
$GPGGA,060853.20,3542.301275110,N,13943.293308220,E,1,10,1.83,22.940,M,36.996,M,,*6E
$GPGGA,060853.30,3542.301323111,N,13943.293344220,E,1,10,1.83,22.961,M,36.996,M,,*67
$GPGGA,060853.40,3542.301377111,N,13943.293386220,E,1,10,1.83,23.000,M,36.996,M,,*60
$GPGGA,060853.50,3542.301425111,N,13943.293410220,E,1,10,1.83,23.070,M,36.996,M,,*6E
$GPGGA,060853.60,3542.301467111,N,13943.293428220,E,1,10,1.83,23.135,M,36.996,M,,*60
$GPGGA,060853.70,3542.301527111,N,13943.293458219,E,1,10,1.70,23.181,M,36.996,M,,*6A
$GPGGA,060853.80,3542.301569111,N,13943.293470219,E,1,11,1.65,23.239,M,36.996,M,,*60
$GPGGA,060853.90,3542.301587111,N,13943.293470219,E,1,12,1.47,23.462,M,36.996,M,,*6A
$GPGGA,060854.00,3542.301599111,N,13943.293470219,E,1,12,1.47,23.748,M,36.996,M,,*60
$GPGGA,060854.10,3542.301623111,N,13943.293464219,E,1,12,1.47,23.961,M,36.996,M,,*63
$GPGGA,060854.20,3542.301659111,N,13943.293470219,E,1,12,1.47,24.149,M,36.996,M,,*6D
$GPGGA,060854.30,3542.301689111,N,13943.293470219,E,1,12,1.47,24.378,M,36.996,M,,*61
$GPGGA,060854.40,3542.301707111,N,13943.293470219,E,1,12,1.47,24.579,M,36.996,M,,*66
$GPGGA,060854.50,3542.301755111,N,13943.293470219,E,1,12,1.47,24.780,M,36.996,M,,*64
$GPGGA,060854.60,3542.301785111,N,13943.293476219,E,1,11,1.65,24.946,M,36.996,M,,*6B
$GPGGA,060854.70,3542.301821111,N,13943.293470219,E,1,11,1.65,25.111,M,36.996,M,,*66
$GPGGA,060854.80,3542.301857112,N,13943.293464219,E,1,11,1.65,25.282,M,36.996,M,,*67
$GPGGA,060854.90,3542.301893112,N,13943.293464218,E,1,11,1.65,25.406,M,36.996,M,,*65
$GPGGA,060855.00,3542.301923112,N,13943.293476218,E,1,12,1.51,25.569,M,36.996,M,,*68
$GPGGA,060855.10,3542.301965112,N,13943.293470218,E,1,12,1.51,25.727,M,36.996,M,,*65
$GPGGA,060855.20,3542.302001112,N,13943.293452218,E,1,10,1.83,25.845,M,36.996,M,,*68
$GPGGA,060855.30,3542.302037112,N,13943.293452218,E,1,10,2.26,26.009,M,36.996,M,,*63
$GPGGA,060855.40,3542.302073112,N,13943.293446218,E,1,10,2.26,26.153,M,36.996,M,,*6F
$GPGGA,060855.50,3542.302103112,N,13943.293428218,E,1,11,1.65,26.332,M,36.996,M,,*60
$GPGGA,060855.60,3542.302145112,N,13943.293434218,E,1,11,1.65,26.490,M,36.996,M,,*63
$GPGGA,060855.70,3542.302187112,N,13943.293422218,E,1,10,1.83,26.699,M,36.996,M,,*69
$GPGGA,060855.80,3542.302199112,N,13943.293434218,E,1,12,1.47,26.842,M,36.996,M,,*6C
$GPGGA,060855.90,3542.302241112,N,13943.293410218,E,1,12,1.47,26.998,M,36.996,M,,*6B
$GPGGA,060856.00,3542.302283112,N,13943.293404217,E,1,11,1.65,27.178,M,36.996,M,,*61
$GPGGA,060856.10,3542.302319112,N,13943.293416217,E,1,11,1.70,27.386,M,36.996,M,,*66
$GPGGA,060856.20,3542.302337112,N,13943.293404217,E,1,11,1.70,27.450,M,36.996,M,,*66
$GPGGA,060856.30,3542.302361112,N,13943.293392217,E,1,12,1.45,27.508,M,36.996,M,,*65
$GPGGA,060856.40,3542.302397112,N,13943.293380217,E,1,12,1.45,27.549,M,36.996,M,,*6D
$GPGGA,060856.50,3542.302439112,N,13943.293386217,E,1,13,1.36,27.776,M,36.996,M,,*62
$GPGGA,060856.60,3542.302523112,N,13943.293356217,E,1,11,1.51,27.820,M,36.996,M,,*69
$GPGGA,060856.70,3542.302577112,N,13943.293320217,E,1,11,1.58,27.896,M,36.996,M,,*6C
$GPGGA,060856.80,3542.302619112,N,13943.293320217,E,1,10,2.26,27.948,M,36.996,M,,*61
$GPGGA,060856.90,3542.302691112,N,13943.293332216,E,1,12,1.97,27.996,M,36.996,M,,*6A
$GPGGA,060857.00,3542.302733112,N,13943.293308216,E,1,13,1.45,28.018,M,36.996,M,,*6C
$GPGGA,060857.10,3542.302793112,N,13943.293284216,E,1,14,1.30,28.083,M,36.996,M,,*65
$GPGGA,060857.20,3542.302853112,N,13943.293242216,E,1,14,1.30,28.121,M,36.996,M,,*66
$GPGGA,060857.30,3542.302889112,N,13943.293218216,E,1,13,1.45,28.178,M,36.996,M,,*66
$GPGGA,060857.40,3542.302931112,N,13943.293188216,E,1,13,1.45,28.145,M,36.996,M,,*67
$GPGGA,060857.50,3542.302997112,N,13943.293176216,E,1,13,1.45,28.128,M,36.996,M,,*60
$GPGGA,060857.60,3542.303057112,N,13943.293152216,E,1,14,1.30,28.137,M,36.996,M,,*6A
$GPGGA,060857.70,3542.303123112,N,13943.293128215,E,1,14,1.30,28.165,M,36.996,M,,*60
$GPGGA,060857.80,3542.303171112,N,13943.293086215,E,1,14,1.30,28.200,M,36.996,M,,*6D
$GPGGA,060857.90,3542.303225112,N,13943.293062215,E,1,13,1.58,28.235,M,36.996,M,,*6B
$GPGGA,060858.00,3542.303297112,N,13943.293062215,E,1,13,1.58,28.148,M,36.996,M,,*6D
$GPGGA,060858.10,3542.303369113,N,13943.293044215,E,1,13,1.45,28.136,M,36.996,M,,*6C
$GPGGA,060858.20,3542.303423113,N,13943.293002215,E,1,12,1.69,28.214,M,36.996,M,,*68
$GPGGA,060858.30,3542.303483113,N,13943.292984215,E,1,12,1.69,28.195,M,36.996,M,,*6F
$GPGGA,060858.40,3542.303543113,N,13943.292966215,E,1,12,1.69,28.227,M,36.996,M,,*63
$GPGGA,060858.50,3542.303615113,N,13943.292936214,E,1,12,1.69,28.200,M,36.996,M,,*63
$GPGGA,060858.60,3542.303669113,N,13943.292900214,E,1,13,1.41,28.199,M,36.996,M,,*66
$GPGGA,060858.70,3542.303735113,N,13943.292876214,E,1,14,1.31,28.203,M,36.996,M,,*6F
$GPGGA,060858.80,3542.303777113,N,13943.292876214,E,1,14,1.31,28.166,M,36.996,M,,*66
$GPGGA,060858.90,3542.303837113,N,13943.292852214,E,1,14,1.40,28.209,M,36.996,M,,*66
$GPGGA,060859.00,3542.303885113,N,13943.292804214,E,1,13,1.41,28.194,M,36.996,M,,*65
$GPGGA,060859.10,3542.303957113,N,13943.292780214,E,1,14,1.31,28.258,M,36.996,M,,*6A
$GPGGA,060859.20,3542.304017113,N,13943.292756213,E,1,14,1.31,28.279,M,36.996,M,,*6C
$GPGGA,060859.30,3542.304077113,N,13943.292738213,E,1,14,1.31,28.288,M,36.996,M,,*6D
$GPGGA,060859.40,3542.304137113,N,13943.292720213,E,1,14,1.31,28.304,M,36.997,M,,*62
$GPGGA,060859.50,3542.304185113,N,13943.292702213,E,1,14,1.31,28.303,M,36.997,M,,*6D
$GPGGA,060859.60,3542.304257113,N,13943.292678213,E,1,14,1.31,28.305,M,36.997,M,,*68
$GPGGA,060859.70,3542.304323113,N,13943.292648213,E,1,14,1.31,28.395,M,36.997,M,,*61
$GPGGA,060859.80,3542.304383113,N,13943.292630213,E,1,14,1.31,28.415,M,36.997,M,,*64
$GPGGA,060859.90,3542.304449113,N,13943.292618212,E,1,14,1.31,28.412,M,36.997,M,,*68
$GPGGA,060900.00,3542.304515113,N,13943.292600212,E,1,14,1.31,28.432,M,36.997,M,,*6F
$GPGGA,060900.10,3542.304575113,N,13943.292570212,E,1,14,1.31,28.440,M,36.997,M,,*69
$GPGGA,060900.20,3542.304647113,N,13943.292558212,E,1,15,1.30,28.421,M,36.997,M,,*65
$GPGGA,060900.30,3542.304707113,N,13943.292546212,E,1,15,1.30,28.441,M,36.997,M,,*68
$GPGGA,060900.40,3542.304767113,N,13943.292516212,E,1,15,1.30,28.436,M,36.997,M,,*6C
$GPGGA,060900.50,3542.304821113,N,13943.292498212,E,1,15,1.30,28.412,M,36.997,M,,*61
$GPGGA,060900.60,3542.304887113,N,13943.292480211,E,1,15,1.30,28.443,M,36.997,M,,*60
$GPGGA,060900.70,3542.304959113,N,13943.292456211,E,1,15,1.30,28.421,M,36.997,M,,*6C
$GPGGA,060900.80,3542.305025113,N,13943.292426211,E,1,16,1.25,28.449,M,36.997,M,,*6E
$GPGGA,060900.90,3542.305079113,N,13943.292414211,E,1,16,1.25,28.487,M,36.997,M,,*65
$GPGGA,060901.00,3542.305145113,N,13943.292396211,E,1,16,1.25,28.467,M,36.997,M,,*60
$GPGGA,060901.10,3542.305211113,N,13943.292372211,E,1,15,1.30,28.473,M,36.997,M,,*6B
$GPGGA,060901.20,3542.305277113,N,13943.292336210,E,1,15,1.30,28.490,M,36.997,M,,*64
$GPGGA,060901.30,3542.305337113,N,13943.292318210,E,1,16,1.17,28.508,M,36.997,M,,*6A
$GPGGA,060901.40,3542.305391114,N,13943.292300210,E,1,16,1.17,28.539,M,36.997,M,,*6D
$GPGGA,060901.50,3542.305457114,N,13943.292282210,E,1,16,1.17,28.519,M,36.997,M,,*68
$GPGGA,060901.60,3542.305523114,N,13943.292258210,E,1,16,1.17,28.516,M,36.997,M,,*61
$GPGGA,060901.70,3542.305583114,N,13943.292234210,E,1,15,1.30,28.531,M,36.997,M,,*63
$GPGGA,060901.80,3542.305649114,N,13943.292222210,E,1,15,1.30,28.500,M,36.997,M,,*6C
$GPGGA,060901.90,3542.305703114,N,13943.292192209,E,1,15,1.31,28.518,M,36.997,M,,*6A
$GPGGA,060902.00,3542.305769114,N,13943.292168209,E,1,15,1.31,28.510,M,36.997,M,,*61
$GPGGA,060902.10,3542.305835114,N,13943.292156209,E,1,15,1.31,28.530,M,36.997,M,,*69
$GPGGA,060902.20,3542.305895114,N,13943.292138209,E,1,15,1.31,28.547,M,36.997,M,,*68
$GPGGA,060902.30,3542.305955114,N,13943.292114209,E,1,14,1.68,28.543,M,36.997,M,,*63
$GPGGA,060902.40,3542.306009114,N,13943.292096209,E,1,14,1.68,28.573,M,36.997,M,,*6F
$GPGGA,060902.50,3542.306063114,N,13943.292078209,E,1,14,1.68,28.573,M,36.997,M,,*62
$GPGGA,060902.60,3542.306123114,N,13943.292060208,E,1,14,1.68,28.578,M,36.997,M,,*67
$GPGGA,060902.70,3542.306177114,N,13943.292036208,E,1,14,1.68,28.588,M,36.997,M,,*6B
$GPGGA,060902.80,3542.306237114,N,13943.292018208,E,1,15,1.31,28.570,M,36.997,M,,*65
$GPGGA,060902.90,3542.306309114,N,13943.292000208,E,1,15,1.31,28.568,M,36.997,M,,*68
$GPGGA,060903.00,3542.306363114,N,13943.291982208,E,1,15,1.31,28.577,M,36.997,M,,*62
$GPGGA,060903.10,3542.306423114,N,13943.291964208,E,1,15,1.31,28.577,M,36.997,M,,*68
$GPGGA,060903.20,3542.306483114,N,13943.291940208,E,1,15,1.31,28.580,M,36.997,M,,*6F
$GPGGA,060903.30,3542.306549114,N,13943.291910207,E,1,14,1.68,28.585,M,36.997,M,,*6B
$GPGGA,060903.40,3542.306615114,N,13943.291892207,E,1,14,1.68,28.573,M,36.997,M,,*64
$GPGGA,060903.50,3542.306669114,N,13943.291874207,E,1,14,1.68,28.600,M,36.997,M,,*61
$GPGGA,060903.60,3542.306735114,N,13943.291856207,E,1,14,1.68,28.562,M,36.997,M,,*6D
$GPGGA,060903.70,3542.306795114,N,13943.291826207,E,1,14,1.68,28.567,M,36.997,M,,*64
$GPGGA,060903.80,3542.306855114,N,13943.291808207,E,1,15,1.31,28.579,M,36.997,M,,*66
$GPGGA,060903.90,3542.306909114,N,13943.291808207,E,1,15,1.31,28.546,M,36.997,M,,*63
$GPGGA,060904.00,3542.306969114,N,13943.291790206,E,1,15,1.31,28.565,M,36.997,M,,*65
$GPGGA,060904.10,3542.307035115,N,13943.291784206,E,1,14,1.68,28.548,M,36.997,M,,*63
$GPGGA,060904.20,3542.307089115,N,13943.291778206,E,1,15,1.60,28.519,M,36.997,M,,*69
$GPGGA,060904.30,3542.307125115,N,13943.291760206,E,1,14,1.68,28.509,M,36.997,M,,*6E
$GPGGA,060904.40,3542.307167115,N,13943.291736206,E,1,16,1.17,28.445,M,36.997,M,,*6F
$GPGGA,060904.50,3542.307221114,N,13943.291658206,E,1,15,1.30,28.547,M,36.997,M,,*62
$GPGGA,060904.60,3542.307281115,N,13943.291652206,E,1,15,1.30,28.504,M,36.997,M,,*67
$GPGGA,060904.70,3542.307335115,N,13943.291622206,E,1,15,1.30,28.526,M,36.997,M,,*6F
$GPGGA,060904.80,3542.307401115,N,13943.291604205,E,1,15,1.30,28.484,M,36.997,M,,*6E
$GPGGA,060904.90,3542.307449115,N,13943.291598205,E,1,15,1.30,28.473,M,36.997,M,,*6D
$GPGGA,060905.00,3542.307515115,N,13943.291580205,E,1,15,1.30,28.431,M,36.997,M,,*62
$GPGGA,060905.10,3542.307557115,N,13943.291562205,E,1,15,1.30,28.415,M,36.997,M,,*6F
$GPGGA,060905.20,3542.307611115,N,13943.291550205,E,1,15,1.30,28.337,M,36.997,M,,*6B
$GPGGA,060905.30,3542.307659115,N,13943.291532205,E,1,15,1.30,28.325,M,36.997,M,,*61
$GPGGA,060905.40,3542.307719115,N,13943.291508205,E,1,15,1.30,28.311,M,36.997,M,,*6D
$GPGGA,060905.50,3542.307779115,N,13943.291490205,E,1,15,1.30,28.300,M,36.997,M,,*6A
$GPGGA,060905.60,3542.307833115,N,13943.291472204,E,1,15,1.30,28.294,M,36.997,M,,*69
$GPGGA,060905.70,3542.307893115,N,13943.291454204,E,1,15,1.30,28.269,M,36.997,M,,*64
$GPGGA,060905.80,3542.307965115,N,13943.291436204,E,1,15,1.30,28.248,M,36.997,M,,*64
$GPGGA,060905.90,3542.308019115,N,13943.291424204,E,1,15,1.30,28.244,M,36.997,M,,*67
$GPGGA,060906.00,3542.308061115,N,13943.291406204,E,1,15,1.30,28.250,M,36.997,M,,*67
$GPGGA,060906.10,3542.308133115,N,13943.291376204,E,1,15,1.30,28.225,M,36.997,M,,*62
$GPGGA,060906.20,3542.308193115,N,13943.291364204,E,1,15,1.30,28.220,M,36.997,M,,*6D
$GPGGA,060906.30,3542.308259115,N,13943.291364203,E,1,15,1.30,28.185,M,36.997,M,,*62
$GPGGA,060906.40,3542.308313115,N,13943.291334203,E,1,15,1.30,28.186,M,36.997,M,,*6C
$GPGGA,060906.50,3542.308367115,N,13943.291304203,E,1,15,1.30,28.199,M,36.997,M,,*63
$GPGGA,060906.60,3542.308433115,N,13943.291292203,E,1,15,1.30,28.176,M,36.997,M,,*69
$GPGGA,060906.70,3542.308499115,N,13943.291286203,E,1,15,1.30,28.143,M,36.997,M,,*6B
$GPGGA,060906.80,3542.308571115,N,13943.291262203,E,1,15,1.30,28.139,M,36.997,M,,*64
$GPGGA,060906.90,3542.308643115,N,13943.291256203,E,1,15,1.30,28.048,M,36.997,M,,*67
$GPGGA,060907.00,3542.308673115,N,13943.291214202,E,1,15,1.30,28.123,M,36.997,M,,*67
$GPGGA,060907.10,3542.308727115,N,13943.291190202,E,1,15,1.30,28.113,M,36.997,M,,*6A
$GPGGA,060907.20,3542.308799115,N,13943.291184202,E,1,15,1.30,28.082,M,36.997,M,,*60
$GPGGA,060907.30,3542.308871116,N,13943.291166202,E,1,15,1.30,28.032,M,36.997,M,,*6C
$GPGGA,060907.40,3542.308919116,N,13943.291172202,E,1,14,1.68,28.000,M,36.997,M,,*6C
$GPGGA,060907.50,3542.308967116,N,13943.291148202,E,1,13,2.02,27.990,M,36.997,M,,*6A
$GPGGA,060907.60,3542.309039116,N,13943.291112202,E,1,14,1.68,27.972,M,36.997,M,,*61
$GPGGA,060907.70,3542.309105116,N,13943.291082201,E,1,15,1.30,27.980,M,36.997,M,,*64
$GPGGA,060907.80,3542.309153116,N,13943.291070201,E,1,15,1.30,27.975,M,36.997,M,,*6F
$GPGGA,060907.90,3542.309213116,N,13943.291052201,E,1,15,1.30,27.965,M,36.997,M,,*68
$GPGGA,060908.00,3542.309279116,N,13943.291028201,E,1,15,1.30,27.952,M,36.997,M,,*6B
$GPGGA,060908.10,3542.309333116,N,13943.291010201,E,1,15,1.30,27.919,M,36.997,M,,*61
$GPGGA,060908.20,3542.309399116,N,13943.290980201,E,1,15,1.30,27.908,M,36.997,M,,*63
$GPGGA,060908.30,3542.309465116,N,13943.290968201,E,1,15,1.30,27.900,M,36.997,M,,*68
$GPGGA,060908.40,3542.309531116,N,13943.290956200,E,1,15,1.30,27.865,M,36.997,M,,*61
$GPGGA,060908.50,3542.309591116,N,13943.290932200,E,1,15,1.30,27.839,M,36.997,M,,*61
$GPGGA,060908.60,3542.309651116,N,13943.290902200,E,1,15,1.30,27.833,M,36.997,M,,*64
$GPGGA,060908.70,3542.309717116,N,13943.290896200,E,1,15,1.30,27.791,M,36.997,M,,*6D
$GPGGA,060908.80,3542.309771116,N,13943.290878200,E,1,15,1.30,27.783,M,36.997,M,,*61
$GPGGA,060908.90,3542.309831116,N,13943.290866200,E,1,15,1.30,27.733,M,36.997,M,,*6F
$GPGGA,060909.00,3542.309885116,N,13943.290854200,E,1,15,1.30,27.716,M,36.997,M,,*6E
$GPGGA,060909.10,3542.309945116,N,13943.290842199,E,1,16,1.25,27.687,M,36.997,M,,*68
$GPGGA,060909.20,3542.310005116,N,13943.290830199,E,1,16,1.25,27.668,M,36.997,M,,*6A
$GPGGA,060909.30,3542.310071116,N,13943.290812199,E,1,15,1.60,27.626,M,36.997,M,,*60
$GPGGA,060909.40,3542.310149116,N,13943.290776199,E,1,15,1.60,27.625,M,36.997,M,,*63
$GPGGA,060909.50,3542.310209116,N,13943.290764199,E,1,15,1.60,27.598,M,36.997,M,,*63
$GPGGA,060909.60,3542.310257116,N,13943.290758199,E,1,15,1.60,27.564,M,36.997,M,,*67
$GPGGA,060909.70,3542.310323116,N,13943.290740199,E,1,16,0.91,27.546,M,36.997,M,,*61
$GPGGA,060909.80,3542.310383117,N,13943.290734198,E,1,15,1.60,27.527,M,36.997,M,,*6C
$GPGGA,060909.90,3542.310455117,N,13943.290710198,E,1,15,1.60,27.491,M,36.997,M,,*6B
$GPGGA,060910.00,3542.310509117,N,13943.290680198,E,1,15,1.60,27.471,M,36.997,M,,*64
$GPGGA,060910.10,3542.310557117,N,13943.290656198,E,1,15,0.94,27.488,M,36.997,M,,*69
$GPGGA,060910.20,3542.310611117,N,13943.290638198,E,1,16,0.91,27.458,M,36.997,M,,*68
$GPGGA,060910.30,3542.310671117,N,13943.290626198,E,1,16,0.91,27.451,M,36.997,M,,*69
$GPGGA,060910.40,3542.310731117,N,13943.290602198,E,1,16,0.91,27.402,M,36.997,M,,*6B
$GPGGA,060910.50,3542.310779117,N,13943.290572197,E,1,16,0.91,27.385,M,36.997,M,,*65
$GPGGA,060910.60,3542.310833117,N,13943.290554197,E,1,16,0.91,27.362,M,36.997,M,,*6A
$GPGGA,060910.70,3542.310899117,N,13943.290518197,E,1,14,1.68,27.357,M,36.997,M,,*60
$GPGGA,060910.80,3542.310947117,N,13943.290506197,E,1,14,1.68,27.337,M,36.997,M,,*64
$GPGGA,060910.90,3542.311007117,N,13943.290476197,E,1,14,1.68,27.325,M,36.997,M,,*6C
$GPGGA,060911.00,3542.311055117,N,13943.290452197,E,1,14,1.68,27.298,M,36.997,M,,*62
$GPGGA,060911.10,3542.311109117,N,13943.290428197,E,1,14,1.68,27.247,M,36.997,M,,*64
$GPGGA,060911.20,3542.311175117,N,13943.290398197,E,1,14,1.68,27.227,M,36.997,M,,*66
$GPGGA,060911.30,3542.311229117,N,13943.290374196,E,1,14,1.68,27.218,M,36.997,M,,*62
$GPGGA,060911.40,3542.311283117,N,13943.290356196,E,1,13,1.71,27.152,M,36.997,M,,*67
$GPGGA,060911.50,3542.311337117,N,13943.290314196,E,1,12,1.96,27.131,M,36.998,M,,*6C
$GPGGA,060911.60,3542.311391117,N,13943.290290196,E,1,13,1.71,27.126,M,36.998,M,,*60
$GPGGA,060911.70,3542.311445117,N,13943.290278196,E,1,14,1.68,27.108,M,36.998,M,,*6A
$GPGGA,060911.80,3542.311499117,N,13943.290254196,E,1,14,1.68,27.062,M,36.998,M,,*67
$GPGGA,060911.90,3542.311547117,N,13943.290218196,E,1,13,1.73,27.045,M,36.998,M,,*64
$GPGGA,060912.00,3542.311601117,N,13943.290182196,E,1,12,2.07,27.050,M,36.998,M,,*6A
$GPGGA,060912.10,3542.311649117,N,13943.290158196,E,1,13,1.73,27.021,M,36.998,M,,*67
$GPGGA,060912.20,3542.311709117,N,13943.290134195,E,1,14,1.35,26.993,M,36.998,M,,*6C
$GPGGA,060912.30,3542.311763117,N,13943.290098195,E,1,12,1.84,26.969,M,36.998,M,,*6F
$GPGGA,060912.40,3542.311817117,N,13943.290074195,E,1,12,1.84,26.936,M,36.998,M,,*6C
$GPGGA,060912.50,3542.311877117,N,13943.290050195,E,1,12,1.84,26.935,M,36.998,M,,*6E
$GPGGA,060912.60,3542.311937117,N,13943.290008195,E,1,11,2.17,26.927,M,36.998,M,,*6C
$GPGGA,060912.70,3542.311979117,N,13943.289954195,E,1,13,1.73,26.915,M,36.998,M,,*6D
$GPGGA,060912.80,3542.312021117,N,13943.289918195,E,1,13,1.73,26.908,M,36.998,M,,*61
$GPGGA,060912.90,3542.312069117,N,13943.289894195,E,1,14,1.68,26.899,M,36.998,M,,*6D
$GPGGA,060913.00,3542.312117117,N,13943.289858195,E,1,14,1.68,26.873,M,36.998,M,,*69
$GPGGA,060913.10,3542.312171117,N,13943.289822194,E,1,13,2.02,26.851,M,36.998,M,,*6C
$GPGGA,060913.20,3542.312201117,N,13943.289780194,E,1,15,1.44,26.829,M,36.998,M,,*64
$GPGGA,060913.30,3542.312249117,N,13943.289756194,E,1,15,1.44,26.817,M,36.998,M,,*6F
$GPGGA,060913.40,3542.312297117,N,13943.289714194,E,1,16,1.26,26.825,M,36.998,M,,*6B
$GPGGA,060913.50,3542.312333117,N,13943.289660194,E,1,15,1.44,26.832,M,36.998,M,,*66
$GPGGA,060913.60,3542.312369117,N,13943.289612194,E,1,15,1.44,26.817,M,36.998,M,,*68
$GPGGA,060913.70,3542.312405117,N,13943.289570194,E,1,15,1.44,26.821,M,36.998,M,,*66
$GPGGA,060913.80,3542.312447117,N,13943.289528194,E,1,15,1.42,26.792,M,36.998,M,,*63
$GPGGA,060913.90,3542.312483117,N,13943.289480194,E,1,15,1.44,26.784,M,36.998,M,,*68
$GPGGA,060914.00,3542.312513117,N,13943.289426194,E,1,17,1.20,26.754,M,36.998,M,,*6F
$GPGGA,060914.10,3542.312543116,N,13943.289378194,E,1,16,1.22,26.755,M,36.998,M,,*64
$GPGGA,060914.20,3542.312579116,N,13943.289324194,E,1,17,1.15,26.733,M,36.998,M,,*62
$GPGGA,060914.30,3542.312603116,N,13943.289258194,E,1,16,1.22,26.728,M,36.998,M,,*68
$GPGGA,060914.40,3542.312627116,N,13943.289210194,E,1,17,1.20,26.732,M,36.998,M,,*6D
$GPGGA,060914.50,3542.312651116,N,13943.289162194,E,1,17,1.21,26.721,M,36.998,M,,*68
$GPGGA,060914.60,3542.312681116,N,13943.289108194,E,1,18,1.13,26.707,M,36.998,M,,*60
$GPGGA,060914.70,3542.312705116,N,13943.289066194,E,1,19,1.07,26.671,M,36.998,M,,*61
$GPGGA,060914.80,3542.312729116,N,13943.289006194,E,1,18,1.14,26.653,M,36.998,M,,*65
$GPGGA,060914.90,3542.312747116,N,13943.288952194,E,1,16,1.18,26.669,M,36.998,M,,*6E
$GPGGA,060915.00,3542.312777116,N,13943.288892194,E,1,17,1.10,26.633,M,36.998,M,,*6E
$GPGGA,060915.10,3542.312795116,N,13943.288826194,E,1,15,1.19,26.620,M,36.998,M,,*65
$GPGGA,060915.20,3542.312807116,N,13943.288778194,E,1,16,1.12,26.574,M,36.998,M,,*6C
$GPGGA,060915.30,3542.312825116,N,13943.288730194,E,1,14,1.21,26.568,M,36.998,M,,*6E
$GPGGA,060915.40,3542.312837115,N,13943.288664194,E,1,15,1.15,26.555,M,36.998,M,,*61
$GPGGA,060915.50,3542.312855115,N,13943.288598194,E,1,14,1.20,26.551,M,36.998,M,,*67
$GPGGA,060915.60,3542.312867115,N,13943.288532194,E,1,15,1.16,26.558,M,36.998,M,,*68
$GPGGA,060915.70,3542.312885115,N,13943.288496194,E,1,14,1.23,26.468,M,36.998,M,,*6F
$GPGGA,060915.80,3542.312891115,N,13943.288424194,E,1,14,1.23,26.452,M,36.998,M,,*65
$GPGGA,060915.90,3542.312891115,N,13943.288370194,E,1,15,1.21,26.461,M,36.998,M,,*61
$GPGGA,060916.00,3542.312903115,N,13943.288292194,E,1,13,1.27,26.457,M,36.998,M,,*69
$GPGGA,060916.10,3542.312915115,N,13943.288220194,E,1,13,1.42,26.444,M,36.998,M,,*67
$GPGGA,060916.20,3542.312915115,N,13943.288178194,E,1,15,1.21,26.385,M,36.998,M,,*63
$GPGGA,060916.30,3542.312921114,N,13943.288118194,E,1,15,0.82,26.360,M,36.998,M,,*61
$GPGGA,060916.40,3542.312939114,N,13943.288046194,E,1,15,1.21,26.340,M,36.998,M,,*6F
$GPGGA,060916.50,3542.312945114,N,13943.287992194,E,1,13,1.24,26.326,M,36.998,M,,*69
$GPGGA,060916.60,3542.312939114,N,13943.287932194,E,1,13,1.24,26.306,M,36.998,M,,*69
$GPGGA,060916.70,3542.312933114,N,13943.287866194,E,1,12,1.31,26.294,M,36.998,M,,*6D
$GPGGA,060916.80,3542.312939114,N,13943.287806194,E,1,14,1.20,26.285,M,36.998,M,,*68
$GPGGA,060916.90,3542.312945114,N,13943.287734194,E,1,13,1.33,26.269,M,36.998,M,,*6B
$GPGGA,060917.00,3542.312939114,N,13943.287662194,E,1,14,1.23,26.241,M,36.998,M,,*66
$GPGGA,060917.10,3542.312933113,N,13943.287614194,E,1,11,1.36,26.239,M,36.998,M,,*65
$GPGGA,060917.20,3542.312933113,N,13943.287554194,E,1,11,1.29,26.232,M,36.998,M,,*64
$GPGGA,060917.30,3542.312933113,N,13943.287488194,E,1,13,1.09,26.193,M,36.998,M,,*6D
$GPGGA,060917.40,3542.312939113,N,13943.287440194,E,1,13,1.09,26.151,M,36.998,M,,*6A
$GPGGA,060917.50,3542.312939113,N,13943.287392194,E,1,13,1.09,26.102,M,36.998,M,,*65
$GPGGA,060917.60,3542.312921113,N,13943.287320194,E,1,13,1.09,26.107,M,36.998,M,,*63
$GPGGA,060917.70,3542.312915113,N,13943.287266195,E,1,12,1.13,26.107,M,36.998,M,,*6D
$GPGGA,060917.80,3542.312909113,N,13943.287224195,E,1,13,1.08,26.074,M,36.998,M,,*67
$GPGGA,060917.90,3542.312873112,N,13943.287158195,E,1,11,1.38,26.088,M,36.998,M,,*61
$GPGGA,060918.00,3542.312861112,N,13943.287080195,E,1,11,1.43,26.054,M,36.998,M,,*6D
$GPGGA,060918.10,3542.312861112,N,13943.287038195,E,1,11,1.43,26.067,M,36.998,M,,*6F
$GPGGA,060918.20,3542.312843112,N,13943.286996195,E,1,09,1.58,26.026,M,36.998,M,,*66
$GPGGA,060918.30,3542.312837112,N,13943.286924195,E,1,07,2.36,25.974,M,36.998,M,,*65
$GPGGA,060918.40,3542.312819112,N,13943.286864195,E,1,09,1.92,25.957,M,36.998,M,,*69
$GPGGA,060918.50,3542.312813112,N,13943.286822195,E,1,08,2.05,25.966,M,36.998,M,,*6E
$GPGGA,060918.60,3542.312801112,N,13943.286762195,E,1,06,2.43,25.944,M,36.998,M,,*69
$GPGGA,060918.70,3542.312765111,N,13943.286702195,E,1,26,0.57,25.938,M,36.998,M,,*6E
$GPGGA,060918.80,3542.312747111,N,13943.286666195,E,1,26,0.57,25.919,M,36.998,M,,*61
$GPGGA,060918.90,3542.312747111,N,13943.286618195,E,1,26,0.57,25.909,M,36.998,M,,*68
$GPGGA,060919.00,3542.312735111,N,13943.286558196,E,1,26,0.57,25.878,M,36.998,M,,*66
$GPGGA,060919.10,3542.312717111,N,13943.286498196,E,1,05,6.67,25.849,M,36.998,M,,*6C
$GPGGA,060919.20,3542.312687111,N,13943.286456196,E,1,26,0.57,25.831,M,36.998,M,,*6E
$GPGGA,060919.30,3542.312657111,N,13943.286426196,E,1,05,6.35,25.843,M,36.998,M,,*63
$GPGGA,060919.40,3542.312639111,N,13943.286360196,E,1,06,3.16,25.806,M,36.998,M,,*6F
$GPGGA,060919.50,3542.312627110,N,13943.286288196,E,1,08,1.48,25.780,M,36.998,M,,*61
$GPGGA,060919.60,3542.312609110,N,13943.286252196,E,1,09,1.42,25.756,M,36.998,M,,*69
$GPGGA,060919.70,3542.312567110,N,13943.286210196,E,1,08,1.52,25.764,M,36.998,M,,*64
$GPGGA,060919.80,3542.312537110,N,13943.286162196,E,1,08,1.52,25.786,M,36.998,M,,*64
$GPGGA,060919.90,3542.312525110,N,13943.286114196,E,1,09,1.50,25.734,M,36.998,M,,*6D
$GPGGA,060920.00,3542.312489110,N,13943.286066197,E,1,07,3.50,25.736,M,36.998,M,,*62
$GPGGA,060920.10,3542.312459110,N,13943.286012197,E,1,08,1.90,25.732,M,36.998,M,,*68
$GPGGA,060920.20,3542.312429110,N,13943.285970197,E,1,08,1.90,25.707,M,36.998,M,,*64
$GPGGA,060920.30,3542.312387109,N,13943.285934197,E,1,11,1.31,25.716,M,36.998,M,,*6D
$GPGGA,060920.40,3542.312357109,N,13943.285886197,E,1,12,1.22,25.715,M,36.998,M,,*6D
$GPGGA,060920.50,3542.312333109,N,13943.285832197,E,1,09,1.87,25.688,M,36.998,M,,*61
$GPGGA,060920.60,3542.312291109,N,13943.285784197,E,1,07,4.77,25.674,M,36.998,M,,*6E
$GPGGA,060920.70,3542.312261109,N,13943.285742197,E,1,09,1.76,25.673,M,36.998,M,,*67
$GPGGA,060920.80,3542.312237109,N,13943.285700198,E,1,09,1.76,25.620,M,36.998,M,,*64
$GPGGA,060920.90,3542.312189109,N,13943.285658198,E,1,10,1.22,25.627,M,36.998,M,,*61
$GPGGA,060921.00,3542.312159109,N,13943.285616198,E,1,09,1.78,25.618,M,36.998,M,,*65
$GPGGA,060921.10,3542.312141108,N,13943.285562198,E,1,11,1.74,25.594,M,36.998,M,,*6E
$GPGGA,060921.20,3542.312105108,N,13943.285514198,E,1,11,2.06,25.575,M,36.998,M,,*65
$GPGGA,060921.30,3542.312057108,N,13943.285478198,E,1,12,1.33,25.582,M,36.998,M,,*67
$GPGGA,060921.40,3542.312015108,N,13943.285442198,E,1,12,1.33,25.555,M,36.998,M,,*65
$GPGGA,060921.50,3542.311979108,N,13943.285406198,E,1,11,1.44,25.536,M,36.998,M,,*62
$GPGGA,060921.60,3542.311943108,N,13943.285358199,E,1,11,1.38,25.540,M,36.998,M,,*6F
$GPGGA,060921.70,3542.311913108,N,13943.285292199,E,1,11,1.38,25.473,M,36.998,M,,*6D
$GPGGA,060921.80,3542.311871107,N,13943.285244199,E,1,11,1.38,25.499,M,36.998,M,,*67
$GPGGA,060921.90,3542.311847107,N,13943.285208199,E,1,13,1.29,25.456,M,36.998,M,,*6A
$GPGGA,060922.00,3542.311817107,N,13943.285184199,E,1,12,1.30,25.429,M,36.998,M,,*63
$GPGGA,060922.10,3542.311769107,N,13943.285130199,E,1,12,1.30,25.428,M,36.998,M,,*6A
$GPGGA,060922.20,3542.311733107,N,13943.285088199,E,1,11,1.34,25.429,M,36.998,M,,*62
$GPGGA,060922.30,3542.311709107,N,13943.285058199,E,1,11,1.34,25.403,M,36.998,M,,*6F
$GPGGA,060922.40,3542.311673107,N,13943.285016200,E,1,10,1.40,25.394,M,36.998,M,,*66
$GPGGA,060922.50,3542.311625107,N,13943.284974200,E,1,10,1.40,25.394,M,36.998,M,,*68
$GPGGA,060922.60,3542.311601107,N,13943.284932200,E,1,10,1.40,25.363,M,36.998,M,,*67
$GPGGA,060922.70,3542.311565106,N,13943.284902200,E,1,10,1.40,25.374,M,36.998,M,,*63
$GPGGA,060922.80,3542.311517106,N,13943.284866200,E,1,10,1.40,25.349,M,36.998,M,,*64
$GPGGA,060922.90,3542.311487106,N,13943.284836200,E,1,09,2.03,25.361,M,36.998,M,,*6E
$GPGGA,060923.00,3542.311457106,N,13943.284782200,E,1,10,1.40,25.313,M,36.998,M,,*62
$GPGGA,060923.10,3542.311421106,N,13943.284740200,E,1,09,2.03,25.312,M,36.998,M,,*61
$GPGGA,060923.20,3542.311391106,N,13943.284710201,E,1,10,1.40,25.327,M,36.998,M,,*60
$GPGGA,060923.30,3542.311349106,N,13943.284674201,E,1,12,1.28,25.283,M,36.998,M,,*64
$GPGGA,060923.40,3542.311313106,N,13943.284638201,E,1,11,1.31,25.269,M,36.998,M,,*6B
$GPGGA,060923.50,3542.311283106,N,13943.284602201,E,1,12,1.29,25.259,M,36.998,M,,*62
$GPGGA,060923.60,3542.311241105,N,13943.284554201,E,1,11,2.03,25.269,M,36.998,M,,*67
$GPGGA,060923.70,3542.311199105,N,13943.284518201,E,1,12,1.23,25.219,M,36.998,M,,*6D
