$GPGGA,065828.10,3542.292971090,N,13943.288262246,E,1,08,4.16,21.934,M,36.995,M,,*6D,35.7048828515,139.72147103743333
$GPGGA,065828.20,3542.292965090,N,13943.288274246,E,1,08,4.16,21.923,M,36.995,M,,*6A,35.7048827515,139.72147123743332
$GPGGA,065828.30,3542.292959090,N,13943.288274246,E,1,08,4.16,21.914,M,36.995,M,,*60,35.7048826515,139.72147123743332
$GPGGA,065828.40,3542.292959090,N,13943.288274246,E,1,08,4.16,21.933,M,36.995,M,,*62,35.7048826515,139.72147123743332
$GPGGA,065828.50,3542.292959090,N,13943.288268246,E,1,08,4.16,21.944,M,36.995,M,,*6E,35.7048826515,139.72147113743333
$GPGGA,065828.60,3542.292959090,N,13943.288256246,E,1,08,4.16,21.969,M,36.995,M,,*6F,35.7048826515,139.72147093743334
$GPGGA,065828.70,3542.292959090,N,13943.288250246,E,1,08,4.16,21.987,M,36.995,M,,*68,35.7048826515,139.72147083743334
$GPGGA,065828.80,3542.292959090,N,13943.288250246,E,1,08,4.16,21.995,M,36.995,M,,*64,35.7048826515,139.72147083743334
$GPGGA,065828.90,3542.292959090,N,13943.288232246,E,1,08,4.16,22.037,M,36.995,M,,*63,35.7048826515,139.72147053743333
$GPGGA,065829.00,3542.292959090,N,13943.288226246,E,1,08,4.16,22.062,M,36.995,M,,*6E,35.7048826515,139.72147043743334
$GPGGA,065829.10,3542.292959090,N,13943.288226246,E,1,08,4.16,22.069,M,36.995,M,,*64,35.7048826515,139.72147043743334
$GPGGA,065829.20,3542.292959090,N,13943.288214246,E,1,08,4.16,22.088,M,36.995,M,,*69,35.7048826515,139.72147023743332
$GPGGA,065829.30,3542.292953090,N,13943.288220246,E,1,08,4.16,22.082,M,36.995,M,,*6F,35.7048825515,139.72147033743335
$GPGGA,065829.40,3542.292953090,N,13943.288220246,E,1,08,4.16,22.097,M,36.995,M,,*6C,35.7048825515,139.72147033743335
$GPGGA,065829.50,3542.292947090,N,13943.288220246,E,1,08,4.16,22.096,M,36.995,M,,*69,35.7048824515,139.72147033743335
$GPGGA,065829.60,3542.292941090,N,13943.288226246,E,1,08,4.16,22.094,M,36.995,M,,*68,35.7048823515,139.72147043743334
$GPGGA,065829.70,3542.292947090,N,13943.288220246,E,1,08,4.16,22.105,M,36.995,M,,*60,35.7048824515,139.72147033743335
$GPGGA,065829.80,3542.292941090,N,13943.288226246,E,1,08,4.16,22.097,M,36.995,M,,*65,35.7048823515,139.72147043743334
$GPGGA,065829.90,3542.292935090,N,13943.288226246,E,1,08,4.16,22.095,M,36.995,M,,*65,35.7048822515,139.72147043743334
$GPGGA,065830.00,3542.292941090,N,13943.288214246,E,1,08,4.16,22.131,M,36.995,M,,*69,35.7048823515,139.72147023743332
$GPGGA,065830.10,3542.292935090,N,13943.288208246,E,1,08,4.16,22.147,M,36.995,M,,*67,35.7048822515,139.72147013743333
$GPGGA,065830.20,3542.292935090,N,13943.288208246,E,1,08,4.16,22.138,M,36.995,M,,*6C,35.7048822515,139.72147013743333
$GPGGA,065830.30,3542.292929090,N,13943.288214246,E,1,08,4.16,22.134,M,36.995,M,,*61,35.7048821515,139.72147023743332
$GPGGA,065830.40,3542.292929090,N,13943.288220246,E,1,08,4.16,22.132,M,36.995,M,,*67,35.7048821515,139.72147033743335
$GPGGA,065830.50,3542.292929090,N,13943.288214246,E,1,08,4.16,22.139,M,36.995,M,,*6A,35.7048821515,139.72147023743332
$GPGGA,065830.60,3542.292923090,N,13943.288214246,E,1,08,4.16,22.137,M,36.995,M,,*6D,35.7048820515,139.72147023743332
$GPGGA,065830.70,3542.292929090,N,13943.288202246,E,1,08,4.16,22.162,M,36.995,M,,*61,35.7048821515,139.72147003743333
$GPGGA,065830.80,3542.292923090,N,13943.288196246,E,1,08,4.16,22.181,M,36.995,M,,*67,35.7048820515,139.72146993743334
$GPGGA,065830.90,3542.292923090,N,13943.288196246,E,1,08,4.16,22.189,M,36.995,M,,*6E,35.7048820515,139.72146993743334
$GPGGA,065831.00,3542.292923090,N,13943.288196246,E,1,08,4.16,22.188,M,36.995,M,,*67,35.7048820515,139.72146993743334
$GPGGA,065831.10,3542.292917090,N,13943.288190246,E,1,08,4.16,22.202,M,36.995,M,,*66,35.7048819515,139.72146983743335
$GPGGA,065831.20,3542.292917090,N,13943.288184246,E,1,08,4.16,22.212,M,36.995,M,,*61,35.7048819515,139.72146973743332
$GPGGA,065831.30,3542.292917090,N,13943.288184246,E,1,08,4.16,22.219,M,36.995,M,,*6B,35.7048819515,139.72146973743332
$GPGGA,065831.40,3542.292917090,N,13943.288178246,E,1,08,4.16,22.242,M,36.995,M,,*61,35.7048819515,139.72146963743333
$GPGGA,065831.50,3542.292917090,N,13943.288178246,E,1,08,4.16,22.243,M,36.995,M,,*61,35.7048819515,139.72146963743333
$GPGGA,065831.60,3542.292911090,N,13943.288178246,E,1,08,4.16,22.258,M,36.995,M,,*6E,35.7048818515,139.72146963743333
$GPGGA,065831.70,3542.292917090,N,13943.288172246,E,1,08,4.16,22.274,M,36.995,M,,*6D,35.7048819515,139.72146953743334
$GPGGA,065831.80,3542.292911090,N,13943.288184246,E,1,08,4.16,22.255,M,36.995,M,,*6E,35.7048818515,139.72146973743332
$GPGGA,065831.90,3542.292911090,N,13943.288166246,E,1,08,4.16,22.290,M,36.995,M,,*6A,35.7048818515,139.72146943743334
$GPGGA,065832.00,3542.292911090,N,13943.288166246,E,1,08,4.16,22.306,M,36.995,M,,*6E,35.7048818515,139.72146943743334
$GPGGA,065832.10,3542.292911090,N,13943.288160246,E,1,08,4.16,22.305,M,36.995,M,,*6A,35.7048818515,139.72146933743332
$GPGGA,065832.20,3542.292905090,N,13943.288160246,E,1,08,4.16,22.326,M,36.995,M,,*6D,35.7048817515,139.72146933743332
$GPGGA,065832.30,3542.292905090,N,13943.288154246,E,1,08,4.16,22.351,M,36.995,M,,*6B,35.7048817515,139.72146923743333
$GPGGA,065832.40,3542.292905090,N,13943.288148246,E,1,08,4.16,22.351,M,36.995,M,,*61,35.7048817515,139.72146913743333
$GPGGA,065832.50,3542.292905090,N,13943.288148246,E,1,08,4.16,22.366,M,36.995,M,,*64,35.7048817515,139.72146913743333
$GPGGA,065832.60,3542.292899090,N,13943.288148246,E,1,08,4.16,22.359,M,36.995,M,,*6F,35.7048816515,139.72146913743333
$GPGGA,065832.70,3542.292899090,N,13943.288148246,E,1,08,4.16,22.377,M,36.995,M,,*62,35.7048816515,139.72146913743333
$GPGGA,065832.80,3542.292899090,N,13943.288136246,E,1,08,4.16,22.404,M,36.995,M,,*67,35.7048816515,139.72146893743334
$GPGGA,065832.90,3542.292899090,N,13943.288136246,E,1,08,4.16,22.423,M,36.995,M,,*63,35.7048816515,139.72146893743334
$GPGGA,065833.00,3542.292899090,N,13943.288130246,E,1,08,4.16,22.434,M,36.995,M,,*6B,35.7048816515,139.72146883743332
$GPGGA,065833.10,3542.292893090,N,13943.288136246,E,1,08,4.16,22.437,M,36.995,M,,*65,35.7048815515,139.72146893743334
$GPGGA,065833.20,3542.292893090,N,13943.288136246,E,1,08,4.16,22.447,M,36.995,M,,*61,35.7048815515,139.72146893743334
$GPGGA,065833.30,3542.292893090,N,13943.288124246,E,1,08,4.16,22.475,M,36.995,M,,*62,35.7048815515,139.72146873743333
$GPGGA,065833.40,3542.292887090,N,13943.288118246,E,1,08,4.16,22.497,M,36.995,M,,*63,35.7048814515,139.72146863743333
$GPGGA,065833.50,3542.292893090,N,13943.288112246,E,1,08,4.16,22.506,M,36.995,M,,*64,35.7048815515,139.72146853743334
$GPGGA,065833.60,3542.292887090,N,13943.288106246,E,1,08,4.16,22.528,M,36.995,M,,*6B,35.7048814515,139.72146843743334
$GPGGA,065833.70,3542.292887090,N,13943.288100246,E,1,08,4.16,22.542,M,36.995,M,,*60,35.7048814515,139.72146833743332
$GPGGA,065833.80,3542.292887090,N,13943.288100246,E,1,08,4.16,22.555,M,36.995,M,,*69,35.7048814515,139.72146833743332
$GPGGA,065833.90,3542.292893090,N,13943.288094246,E,1,08,4.16,22.581,M,36.995,M,,*68,35.7048815515,139.72146823743333
$GPGGA,065834.00,3542.292893090,N,13943.288094246,E,1,08,4.16,22.588,M,36.995,M,,*6F,35.7048815515,139.72146823743333
$GPGGA,065834.10,3542.292887090,N,13943.288088246,E,1,08,4.16,22.617,M,36.995,M,,*63,35.7048814515,139.72146813743333
$GPGGA,065834.20,3542.292887090,N,13943.288082246,E,1,08,4.16,22.631,M,36.995,M,,*6E,35.7048814515,139.72146803743334
$GPGGA,065834.30,3542.292887090,N,13943.288082246,E,1,08,4.16,22.630,M,36.995,M,,*6E,35.7048814515,139.72146803743334
$GPGGA,065834.40,3542.292887090,N,13943.288088246,E,1,08,4.16,22.640,M,36.995,M,,*64,35.7048814515,139.72146813743333
$GPGGA,065834.50,3542.292881090,N,13943.288076246,E,1,08,4.16,22.657,M,36.995,M,,*64,35.7048813515,139.72146793743335
$GPGGA,065834.60,3542.292881090,N,13943.288070246,E,1,08,4.16,22.670,M,36.995,M,,*64,35.7048813515,139.72146783743332
$GPGGA,065834.70,3542.292881090,N,13943.288082246,E,1,08,4.16,22.665,M,36.995,M,,*6C,35.7048813515,139.72146803743334
$GPGGA,065834.80,3542.292881090,N,13943.288064246,E,1,08,4.16,22.702,M,36.995,M,,*6B,35.7048813515,139.72146773743333
$GPGGA,065834.90,3542.292875090,N,13943.288052246,E,1,08,4.16,22.733,M,36.995,M,,*66,35.7048812515,139.72146753743334
$GPGGA,065835.00,3542.292881090,N,13943.288052246,E,1,08,4.16,22.722,M,36.995,M,,*65,35.7048813515,139.72146753743334
$GPGGA,065835.10,3542.292881090,N,13943.288046246,E,1,08,4.16,22.745,M,36.995,M,,*60,35.7048813515,139.72146743743335
$GPGGA,065835.20,3542.292881090,N,13943.288040246,E,1,08,4.16,22.764,M,36.995,M,,*66,35.7048813515,139.72146733743332
$GPGGA,065835.30,3542.292875090,N,13943.288040246,E,1,08,4.16,22.764,M,36.995,M,,*6C,35.7048812515,139.72146733743332
$GPGGA,065835.40,3542.292881090,N,13943.288028246,E,1,08,4.16,22.786,M,36.995,M,,*62,35.7048813515,139.72146713743334
$GPGGA,065835.50,3542.292881090,N,13943.288022246,E,1,08,4.16,22.805,M,36.995,M,,*6D,35.7048813515,139.72146703743334
$GPGGA,065835.60,3542.292875090,N,13943.288022247,E,1,08,4.16,22.808,M,36.995,M,,*69,35.7048812515,139.72146703745
$GPGGA,065835.70,3542.292881090,N,13943.288016246,E,1,08,4.16,22.812,M,36.995,M,,*6E,35.7048813515,139.72146693743332
$GPGGA,065835.80,3542.292881090,N,13943.288010247,E,1,08,4.16,22.826,M,36.995,M,,*61,35.7048813515,139.72146683745
$GPGGA,065835.90,3542.292875090,N,13943.288004247,E,1,08,4.16,22.848,M,36.995,M,,*66,35.7048812515,139.72146673745
$GPGGA,065836.00,3542.292875090,N,13943.287998247,E,1,08,4.16,22.855,M,36.995,M,,*63,35.7048812515,139.72146663745
$GPGGA,065836.10,3542.292881090,N,13943.287998247,E,1,08,4.16,22.859,M,36.995,M,,*65,35.7048813515,139.72146663745
$GPGGA,065836.20,3542.292875090,N,13943.287998247,E,1,08,4.16,22.860,M,36.995,M,,*67,35.7048812515,139.72146663745
$GPGGA,065836.30,3542.292875090,N,13943.287980247,E,1,08,4.16,22.890,M,36.995,M,,*60,35.7048812515,139.72146633745
$GPGGA,065836.40,3542.292875090,N,13943.287980247,E,1,08,4.16,22.903,M,36.995,M,,*6C,35.7048812515,139.72146633745
$GPGGA,065836.50,3542.292875090,N,13943.287980247,E,1,08,4.16,22.905,M,36.995,M,,*6B,35.7048812515,139.72146633745
$GPGGA,065836.60,3542.292869090,N,13943.287980247,E,1,08,4.16,22.893,M,36.995,M,,*6B,35.7048811515,139.72146633745
$GPGGA,065836.70,3542.292869090,N,13943.287974247,E,1,08,4.16,22.906,M,36.995,M,,*6C,35.7048811515,139.72146623745
$GPGGA,065836.80,3542.292869090,N,13943.287974247,E,1,08,4.16,22.920,M,36.995,M,,*67,35.7048811515,139.72146623745
$GPGGA,065836.90,3542.292869090,N,13943.287956247,E,1,08,4.16,22.940,M,36.995,M,,*60,35.7048811515,139.72146593745
$GPGGA,065837.00,3542.292869090,N,13943.287962247,E,1,08,4.16,22.937,M,36.995,M,,*6F,35.7048811515,139.72146603745
$GPGGA,065837.10,3542.292869090,N,13943.287962247,E,1,08,4.16,22.940,M,36.995,M,,*6E,35.7048811515,139.72146603745
$GPGGA,065837.20,3542.292863090,N,13943.287956247,E,1,08,4.16,22.942,M,36.995,M,,*62,35.7048810515,139.72146593745
$GPGGA,065837.30,3542.292869090,N,13943.287950247,E,1,08,4.16,22.948,M,36.995,M,,*65,35.7048811515,139.72146583745
$GPGGA,065837.40,3542.292863090,N,13943.287944247,E,1,08,4.16,22.965,M,36.995,M,,*62,35.7048810515,139.72146573745
$GPGGA,065837.50,3542.292863090,N,13943.287938247,E,1,08,4.16,22.976,M,36.995,M,,*6A,35.7048810515,139.72146563745
$GPGGA,065837.60,3542.292863090,N,13943.287938247,E,1,08,4.16,22.975,M,36.995,M,,*6A,35.7048810515,139.72146563745
$GPGGA,065837.70,3542.292863090,N,13943.287932247,E,1,08,4.16,22.986,M,36.995,M,,*6D,35.7048810515,139.72146553745
$GPGGA,065837.80,3542.292863090,N,13943.287926247,E,1,08,4.16,22.996,M,36.995,M,,*66,35.7048810515,139.72146543745
$GPGGA,065837.90,3542.292863090,N,13943.287920247,E,1,08,4.16,23.007,M,36.995,M,,*61,35.7048810515,139.72146533745
$GPGGA,065838.00,3542.292863090,N,13943.287920247,E,1,08,4.16,23.022,M,36.995,M,,*60,35.7048810515,139.72146533745
$GPGGA,065838.10,3542.292863090,N,13943.287914247,E,1,08,4.16,23.021,M,36.995,M,,*65,35.7048810515,139.72146523745
$GPGGA,065838.20,3542.292857090,N,13943.287914247,E,1,08,4.16,23.015,M,36.995,M,,*66,35.7048809515,139.72146523745
$GPGGA,065838.30,3542.292857090,N,13943.287914247,E,1,08,4.16,23.023,M,36.995,M,,*62,35.7048809515,139.72146523745
$GPGGA,065838.40,3542.292863090,N,13943.287896247,E,1,08,4.15,23.050,M,36.995,M,,*6E,35.7048810515,139.72146493745
$GPGGA,065838.50,3542.292863090,N,13943.287890247,E,1,08,4.15,23.055,M,36.995,M,,*6C,35.7048810515,139.72146483745
$GPGGA,065838.60,3542.292857090,N,13943.287890247,E,1,08,4.15,23.066,M,36.995,M,,*68,35.7048809515,139.72146483745
$GPGGA,065838.70,3542.292863090,N,13943.287884247,E,1,08,4.15,23.074,M,36.995,M,,*68,35.7048810515,139.72146473745
$GPGGA,065838.80,3542.292863090,N,13943.287878247,E,1,08,4.15,23.074,M,36.995,M,,*64,35.7048810515,139.72146463745
$GPGGA,065838.90,3542.292857090,N,13943.287878247,E,1,08,4.15,23.081,M,36.995,M,,*68,35.7048809515,139.72146463745
$GPGGA,065839.00,3542.292863090,N,13943.287872247,E,1,08,4.15,23.087,M,36.995,M,,*6B,35.7048810515,139.72146453745
$GPGGA,065839.10,3542.292863090,N,13943.287866247,E,1,08,4.15,23.106,M,36.995,M,,*67,35.7048810515,139.72146443745
$GPGGA,065839.20,3542.292857089,N,13943.287866247,E,1,08,4.15,23.096,M,36.995,M,,*63,35.70488095148333,139.72146443745
$GPGGA,065839.30,3542.292857089,N,13943.287860247,E,1,08,4.15,23.116,M,36.995,M,,*6D,35.70488095148333,139.72146433745
$GPGGA,065839.40,3542.292857089,N,13943.287854247,E,1,08,4.15,23.131,M,36.995,M,,*68,35.70488095148333,139.72146423745
$GPGGA,065839.50,3542.292857089,N,13943.287848247,E,1,09,4.00,23.136,M,36.995,M,,*66,35.70488095148333,139.72146413745
$GPGGA,065839.60,3542.292857089,N,13943.287848247,E,1,09,4.00,23.129,M,36.995,M,,*6B,35.70488095148333,139.72146413745
$GPGGA,065839.70,3542.292857089,N,13943.287848247,E,1,09,4.00,23.125,M,36.995,M,,*66,35.70488095148333,139.72146413745
$GPGGA,065839.80,3542.292857089,N,13943.287842247,E,1,09,4.00,23.146,M,36.995,M,,*66,35.70488095148333,139.72146403745
$GPGGA,065839.90,3542.292857089,N,13943.287842247,E,1,09,4.00,23.143,M,36.995,M,,*62,35.70488095148333,139.72146403745
$GPGGA,065840.00,3542.292851089,N,13943.287836247,E,1,08,4.15,23.152,M,36.995,M,,*65,35.70488085148333,139.72146393745
$GPGGA,065840.10,3542.292851089,N,13943.287830247,E,1,08,4.15,23.168,M,36.995,M,,*6B,35.70488085148333,139.72146383745
$GPGGA,065840.20,3542.292851089,N,13943.287824247,E,1,09,4.00,23.173,M,36.995,M,,*62,35.70488085148333,139.72146373745
$GPGGA,065840.30,3542.292851089,N,13943.287824247,E,1,09,4.00,23.182,M,36.995,M,,*6D,35.70488085148333,139.72146373745
$GPGGA,065840.40,3542.292857089,N,13943.287818247,E,1,09,4.00,23.191,M,36.995,M,,*61,35.70488095148333,139.72146363745
$GPGGA,065840.50,3542.292851089,N,13943.287818247,E,1,10,3.97,23.197,M,36.995,M,,*61,35.70488085148333,139.72146363745
$GPGGA,065840.60,3542.292845089,N,13943.287812247,E,1,10,3.97,23.213,M,36.995,M,,*62,35.70488075148333,139.72146353745
$GPGGA,065840.70,3542.292851089,N,13943.287806247,E,1,09,4.07,23.221,M,36.995,M,,*64,35.70488085148333,139.72146343745
$GPGGA,065840.80,3542.292851089,N,13943.287800247,E,1,08,4.15,23.240,M,36.995,M,,*68,35.70488085148333,139.72146333745
$GPGGA,065840.90,3542.292851089,N,13943.287800247,E,1,08,4.15,23.240,M,36.995,M,,*69,35.70488085148333,139.72146333745
$GPGGA,065841.00,3542.292851089,N,13943.287794247,E,1,08,4.15,23.239,M,36.995,M,,*6D,35.70488085148333,139.72146323745
$GPGGA,065841.10,3542.292851089,N,13943.287782247,E,1,08,4.15,23.266,M,36.995,M,,*61,35.70488085148333,139.72146303745
$GPGGA,065841.20,3542.292845089,N,13943.287782247,E,1,08,4.15,23.277,M,36.995,M,,*67,35.70488075148333,139.72146303745
$GPGGA,065841.30,3542.292845089,N,13943.287782247,E,1,08,4.15,23.282,M,36.995,M,,*6C,35.70488075148333,139.72146303745
$GPGGA,065841.40,3542.292845089,N,13943.287782247,E,1,08,4.15,23.282,M,36.995,M,,*6B,35.70488075148333,139.72146303745
$GPGGA,065841.50,3542.292845089,N,13943.287782247,E,1,08,4.15,23.284,M,36.995,M,,*6C,35.70488075148333,139.72146303745
$GPGGA,065841.60,3542.292851089,N,13943.287770247,E,1,08,4.15,23.307,M,36.995,M,,*6D,35.70488085148333,139.72146283745
$GPGGA,065841.70,3542.292845089,N,13943.287764247,E,1,08,4.15,23.319,M,36.995,M,,*63,35.70488075148333,139.72146273745
$GPGGA,065841.80,3542.292845089,N,13943.287764247,E,1,08,4.15,23.331,M,36.995,M,,*66,35.70488075148333,139.72146273745
$GPGGA,065841.90,3542.292845089,N,13943.287758247,E,1,08,4.15,23.342,M,36.995,M,,*6C,35.70488075148333,139.72146263745
$GPGGA,065842.00,3542.292845089,N,13943.287758247,E,1,08,4.15,23.337,M,36.995,M,,*64,35.70488075148333,139.72146263745
$GPGGA,065842.10,3542.292845089,N,13943.287746247,E,1,08,4.15,23.352,M,36.995,M,,*69,35.70488075148333,139.72146243745
$GPGGA,065842.20,3542.292845089,N,13943.287740247,E,1,08,4.15,23.370,M,36.995,M,,*6C,35.70488075148333,139.72146233745
$GPGGA,065842.30,3542.292845089,N,13943.287740247,E,1,08,4.15,23.366,M,36.995,M,,*6A,35.70488075148333,139.72146233745
$GPGGA,065842.40,3542.292845089,N,13943.287740247,E,1,08,4.15,23.368,M,36.995,M,,*63,35.70488075148333,139.72146233745
$GPGGA,065842.50,3542.292845089,N,13943.287734247,E,1,08,4.15,23.375,M,36.995,M,,*6D,35.70488075148333,139.72146223745
$GPGGA,065842.60,3542.292845089,N,13943.287728247,E,1,08,4.15,23.386,M,36.995,M,,*6F,35.70488075148333,139.72146213745
$GPGGA,065842.70,3542.292839089,N,13943.287728247,E,1,08,4.15,23.395,M,36.995,M,,*67,35.704880651483336,139.72146213745
$GPGGA,065842.80,3542.292839089,N,13943.287716247,E,1,08,4.15,23.403,M,36.995,M,,*6D,35.704880651483336,139.72146193745
$GPGGA,065842.90,3542.292839089,N,13943.287722247,E,1,08,4.15,23.406,M,36.995,M,,*6E,35.704880651483336,139.72146203745
$GPGGA,065843.00,3542.292845089,N,13943.287710247,E,1,08,4.15,23.427,M,36.995,M,,*6F,35.70488075148333,139.72146183745
$GPGGA,065843.10,3542.292839089,N,13943.287710247,E,1,08,4.15,23.420,M,36.995,M,,*62,35.704880651483336,139.72146183745
$GPGGA,065843.20,3542.292839089,N,13943.287704247,E,1,08,4.15,23.440,M,36.995,M,,*62,35.704880651483336,139.72146173745
$GPGGA,065843.30,3542.292839089,N,13943.287698247,E,1,08,4.15,23.447,M,36.995,M,,*60,35.704880651483336,139.72146163745
$GPGGA,065843.40,3542.292839089,N,13943.287692247,E,1,08,4.15,23.451,M,36.995,M,,*6A,35.704880651483336,139.72146153745
$GPGGA,065843.50,3542.292845089,N,13943.287686247,E,1,08,4.15,23.462,M,36.995,M,,*65,35.70488075148333,139.72146143745
$GPGGA,065843.60,3542.292839089,N,13943.287686247,E,1,08,4.15,23.459,M,36.995,M,,*65,35.704880651483336,139.72146143745
$GPGGA,065843.70,3542.292833089,N,13943.287692247,E,1,08,4.15,23.449,M,36.995,M,,*6A,35.704880551483335,139.72146153745
$GPGGA,065843.80,3542.292839089,N,13943.287680247,E,1,08,4.15,23.483,M,36.995,M,,*6A,35.704880651483336,139.72146133745
$GPGGA,065843.90,3542.292839089,N,13943.287668247,E,1,08,4.15,23.504,M,36.995,M,,*63,35.704880651483336,139.72146113745
$GPGGA,065844.00,3542.292839089,N,13943.287668247,E,1,08,4.15,23.513,M,36.995,M,,*6B,35.704880651483336,139.72146113745
$GPGGA,065844.10,3542.292839089,N,13943.287662247,E,1,08,4.15,23.523,M,36.995,M,,*63,35.704880651483336,139.72146103745
$GPGGA,065844.20,3542.292839089,N,13943.287656247,E,1,08,4.15,23.540,M,36.995,M,,*62,35.704880651483336,139.72146093745
$GPGGA,065844.30,3542.292833089,N,13943.287656247,E,1,08,4.15,23.543,M,36.995,M,,*6A,35.704880551483335,139.72146093745
$GPGGA,065844.40,3542.292839089,N,13943.287644247,E,1,08,4.15,23.556,M,36.995,M,,*60,35.704880651483336,139.72146073745
$GPGGA,065844.50,3542.292833089,N,13943.287644247,E,1,08,4.15,23.553,M,36.995,M,,*6E,35.704880551483335,139.72146073745
$GPGGA,065844.60,3542.292833089,N,13943.287638247,E,1,08,4.15,23.568,M,36.995,M,,*6E,35.704880551483335,139.72146063745
$GPGGA,065844.70,3542.292833089,N,13943.287638247,E,1,08,4.15,23.571,M,36.995,M,,*67,35.704880551483335,139.72146063745
$GPGGA,065844.80,3542.292833089,N,13943.287632247,E,1,08,4.15,23.584,M,36.995,M,,*68,35.704880551483335,139.72146053745
$GPGGA,065844.90,3542.292833089,N,13943.287626247,E,1,08,4.15,23.600,M,36.995,M,,*63,35.704880551483335,139.72146043745
$GPGGA,065845.00,3542.292833089,N,13943.287626247,E,1,08,4.15,23.593,M,36.995,M,,*62,35.704880551483335,139.72146043745
$GPGGA,065845.10,3542.292833089,N,13943.287620247,E,1,08,4.15,23.605,M,36.995,M,,*69,35.704880551483335,139.72146033745
$GPGGA,065845.20,3542.292833089,N,13943.287614247,E,1,08,4.15,23.619,M,36.995,M,,*60,35.704880551483335,139.72146023745
$GPGGA,065845.30,3542.292839089,N,13943.287614247,E,1,08,4.15,23.622,M,36.995,M,,*63,35.704880651483336,139.72146023745
$GPGGA,065845.40,3542.292839089,N,13943.287608247,E,1,08,4.15,23.629,M,36.995,M,,*62,35.704880651483336,139.72146013745
$GPGGA,065845.50,3542.292839089,N,13943.287596247,E,1,08,4.15,23.667,M,36.995,M,,*6D,35.704880651483336,139.72145993745
$GPGGA,065845.60,3542.292839089,N,13943.287596247,E,1,08,4.15,23.667,M,36.995,M,,*6E,35.704880651483336,139.72145993745
$GPGGA,065845.70,3542.292839089,N,13943.287596247,E,1,08,4.15,23.666,M,36.995,M,,*6E,35.704880651483336,139.72145993745
$GPGGA,065845.80,3542.292833089,N,13943.287584247,E,1,08,4.15,23.688,M,36.995,M,,*68,35.704880551483335,139.72145973745
$GPGGA,065845.90,3542.292833089,N,13943.287590247,E,1,08,4.15,23.677,M,36.995,M,,*6C,35.704880551483335,139.72145983745
$GPGGA,065846.00,3542.292833089,N,13943.287590247,E,1,08,4.15,23.686,M,36.995,M,,*68,35.704880551483335,139.72145983745
$GPGGA,065846.10,3542.292833089,N,13943.287584247,E,1,08,4.15,23.693,M,36.995,M,,*68,35.704880551483335,139.72145973745
$GPGGA,065846.20,3542.292833089,N,13943.287584247,E,1,08,4.15,23.702,M,36.995,M,,*62,35.704880551483335,139.72145973745
$GPGGA,065846.30,3542.292839089,N,13943.287572247,E,1,08,4.15,23.713,M,36.995,M,,*60,35.704880651483336,139.72145953745
$GPGGA,065846.40,3542.292833089,N,13943.287566247,E,1,08,4.15,23.729,M,36.995,M,,*61,35.704880551483335,139.72145943745
$GPGGA,065846.50,3542.292833089,N,13943.287560247,E,1,08,4.15,23.733,M,36.995,M,,*6D,35.704880551483335,139.72145933745
$GPGGA,065846.60,3542.292833089,N,13943.287560247,E,1,08,4.15,23.743,M,36.995,M,,*69,35.704880551483335,139.72145933745
$GPGGA,065846.70,3542.292833089,N,13943.287554247,E,1,08,4.15,23.758,M,36.995,M,,*65,35.704880551483335,139.72145923745
$GPGGA,065846.80,3542.292833089,N,13943.287542247,E,1,08,4.15,23.782,M,36.995,M,,*6A,35.704880551483335,139.72145903745
$GPGGA,065846.90,3542.292839089,N,13943.287536247,E,1,08,4.15,23.786,M,36.995,M,,*66,35.704880651483336,139.72145893745
$GPGGA,065847.00,3542.292833089,N,13943.287524247,E,1,08,4.15,23.818,M,36.995,M,,*6F,35.704880551483335,139.72145873745
$GPGGA,065847.10,3542.292839089,N,13943.287518247,E,1,08,4.15,23.838,M,36.995,M,,*69,35.704880651483336,139.72145863745
$GPGGA,065847.20,3542.292839089,N,13943.287518247,E,1,08,4.15,23.847,M,36.995,M,,*62,35.704880651483336,139.72145863745
$GPGGA,065847.30,3542.292839089,N,13943.287506247,E,1,08,4.15,23.865,M,36.995,M,,*6C,35.704880651483336,139.72145843745
$GPGGA,065847.40,3542.292839089,N,13943.287500247,E,1,08,4.15,23.880,M,36.995,M,,*66,35.704880651483336,139.72145833745
$GPGGA,065847.50,3542.292839089,N,13943.287494247,E,1,08,4.15,23.892,M,36.995,M,,*68,35.704880651483336,139.72145823745
$GPGGA,065847.60,3542.292839089,N,13943.287494247,E,1,08,4.15,23.893,M,36.995,M,,*6A,35.704880651483336,139.72145823745
$GPGGA,065847.70,3542.292839089,N,13943.287482247,E,1,08,4.15,23.917,M,36.995,M,,*61,35.704880651483336,139.72145803745
$GPGGA,065847.80,3542.292845089,N,13943.287476247,E,1,08,4.15,23.940,M,36.995,M,,*6C,35.70488075148333,139.72145793745
$GPGGA,065847.90,3542.292845089,N,13943.287464247,E,1,08,4.15,23.955,M,36.995,M,,*6A,35.70488075148333,139.72145773745
$GPGGA,065848.00,3542.292845089,N,13943.287452247,E,1,08,4.15,23.990,M,36.995,M,,*60,35.70488075148333,139.72145753745
$GPGGA,065848.10,3542.292845089,N,13943.287458247,E,1,08,4.15,23.984,M,36.995,M,,*6E,35.70488075148333,139.72145763745
$GPGGA,065848.20,3542.292845089,N,13943.287458247,E,1,08,4.15,23.986,M,36.995,M,,*6F,35.70488075148333,139.72145763745
$GPGGA,065848.30,3542.292845089,N,13943.287440247,E,1,08,4.15,24.013,M,36.995,M,,*65,35.70488075148333,139.72145733745
$GPGGA,065848.40,3542.292851089,N,13943.287434247,E,1,07,7.18,24.022,M,36.995,M,,*67,35.70488085148333,139.72145723745
$GPGGA,065848.50,3542.292851089,N,13943.287434247,E,1,07,7.18,24.034,M,36.995,M,,*61,35.70488085148333,139.72145723745
$GPGGA,065848.60,3542.292845089,N,13943.287428247,E,1,07,7.18,24.055,M,36.995,M,,*6D,35.70488075148333,139.72145713745
$GPGGA,065848.70,3542.292845089,N,13943.287422247,E,1,07,7.18,24.061,M,36.995,M,,*61,35.70488075148333,139.72145703745
$GPGGA,065848.80,3542.292845089,N,13943.287422247,E,1,07,7.18,24.068,M,36.995,M,,*67,35.70488075148333,139.72145703745
$GPGGA,065848.90,3542.292851089,N,13943.287416247,E,1,07,7.18,24.086,M,36.995,M,,*64,35.70488085148333,139.72145693745
$GPGGA,065849.00,3542.292851089,N,13943.287410247,E,1,07,7.18,24.102,M,36.995,M,,*67,35.70488085148333,139.72145683745
$GPGGA,065849.10,3542.292851089,N,13943.287404247,E,1,07,7.18,24.119,M,36.995,M,,*69,35.70488085148333,139.72145673745
$GPGGA,065849.20,3542.292851089,N,13943.287392247,E,1,07,7.18,24.136,M,36.995,M,,*6F,35.70488085148333,139.72145653745
$GPGGA,065849.30,3542.292851089,N,13943.287386247,E,1,07,7.18,24.158,M,36.995,M,,*63,35.70488085148333,139.72145643745
$GPGGA,065849.40,3542.292857089,N,13943.287380247,E,1,07,7.18,24.159,M,36.995,M,,*65,35.70488095148333,139.72145633745
$GPGGA,065849.50,3542.292851089,N,13943.287380247,E,1,07,7.18,24.179,M,36.995,M,,*60,35.70488085148333,139.72145633745
$GPGGA,065849.60,3542.292851089,N,13943.287380247,E,1,07,7.18,24.177,M,36.995,M,,*6D,35.70488085148333,139.72145633745
$GPGGA,065849.70,3542.292851089,N,13943.287380247,E,1,07,7.18,24.188,M,36.995,M,,*6C,35.70488085148333,139.72145633745
$GPGGA,065849.80,3542.292851089,N,13943.287380247,E,1,07,7.18,24.181,M,36.995,M,,*6A,35.70488085148333,139.72145633745
$GPGGA,065849.90,3542.292851089,N,13943.287368247,E,1,07,7.18,24.202,M,36.995,M,,*65,35.70488085148333,139.72145613745
$GPGGA,065850.00,3542.292851089,N,13943.287368247,E,1,07,7.18,24.209,M,36.995,M,,*6F,35.70488085148333,139.72145613745
$GPGGA,065850.10,3542.292851089,N,13943.287368247,E,1,08,4.15,24.225,M,36.995,M,,*61,35.70488085148333,139.72145613745
$GPGGA,065850.20,3542.292851088,N,13943.287362247,E,1,08,4.15,24.230,M,36.995,M,,*6D,35.70488085146667,139.72145603745
$GPGGA,065850.30,3542.292857088,N,13943.287350247,E,1,07,7.18,24.247,M,36.995,M,,*6A,35.70488095146667,139.72145583745
$GPGGA,065850.40,3542.292851088,N,13943.287356247,E,1,08,4.15,24.246,M,36.995,M,,*6D,35.70488085146667,139.72145593745
$GPGGA,065850.50,3542.292851088,N,13943.287350247,E,1,08,4.15,24.266,M,36.995,M,,*68,35.70488085146667,139.72145583745
$GPGGA,065850.60,3542.292851088,N,13943.287344247,E,1,08,4.15,24.266,M,36.995,M,,*6E,35.70488085146667,139.72145573745
$GPGGA,065850.70,3542.292851088,N,13943.287350247,E,1,08,4.15,24.259,M,36.995,M,,*66,35.70488085146667,139.72145583745
$GPGGA,065850.80,3542.292851088,N,13943.287350247,E,1,08,4.15,24.269,M,36.995,M,,*6A,35.70488085146667,139.72145583745
$GPGGA,065850.90,3542.292851088,N,13943.287344247,E,1,08,4.15,24.270,M,36.995,M,,*66,35.70488085146667,139.72145573745
$GPGGA,065851.00,3542.292851088,N,13943.287332247,E,1,08,4.15,24.308,M,36.995,M,,*61,35.70488085146667,139.72145553745
$GPGGA,065851.10,3542.292851088,N,13943.287332247,E,1,08,4.15,24.322,M,36.995,M,,*68,35.70488085146667,139.72145553745
$GPGGA,065851.20,3542.292851088,N,13943.287326247,E,1,08,4.15,24.313,M,36.995,M,,*6C,35.70488085146667,139.72145543745
$GPGGA,065851.30,3542.292851088,N,13943.287332247,E,1,08,4.15,24.314,M,36.995,M,,*6F,35.70488085146667,139.72145553745
$GPGGA,065851.40,3542.292851088,N,13943.287326247,E,1,08,4.15,24.324,M,36.995,M,,*6E,35.70488085146667,139.72145543745
$GPGGA,065851.50,3542.292845088,N,13943.287320247,E,1,08,4.15,24.339,M,36.995,M,,*60,35.70488075146667,139.72145533745
$GPGGA,065851.60,3542.292851088,N,13943.287314247,E,1,08,4.15,24.341,M,36.995,M,,*6E,35.70488085146667,139.72145523745
$GPGGA,065851.70,3542.292845088,N,13943.287308247,E,1,08,4.15,24.367,M,36.995,M,,*63,35.70488075146667,139.72145513745
$GPGGA,065851.80,3542.292845088,N,13943.287302247,E,1,08,4.15,24.375,M,36.995,M,,*65,35.70488075146667,139.72145503745
$GPGGA,065851.90,3542.292845088,N,13943.287302247,E,1,08,4.15,24.372,M,36.995,M,,*63,35.70488075146667,139.72145503745
$GPGGA,065852.00,3542.292851088,N,13943.287296247,E,1,08,4.15,24.376,M,36.995,M,,*64,35.70488085146667,139.72145493745
$GPGGA,065852.10,3542.292851088,N,13943.287290247,E,1,08,4.15,24.398,M,36.995,M,,*63,35.70488085146667,139.72145483745
$GPGGA,065852.20,3542.292851088,N,13943.287290247,E,1,08,4.15,24.416,M,36.995,M,,*61,35.70488085146667,139.72145483745
$GPGGA,065852.30,3542.292845088,N,13943.287290247,E,1,08,4.15,24.401,M,36.995,M,,*63,35.70488075146667,139.72145483745
$GPGGA,065852.40,3542.292845088,N,13943.287290247,E,1,08,4.15,24.401,M,36.995,M,,*64,35.70488075146667,139.72145483745
$GPGGA,065852.50,3542.292851088,N,13943.287290247,E,1,08,4.15,24.411,M,36.995,M,,*61,35.70488085146667,139.72145483745
$GPGGA,065852.60,3542.292851088,N,13943.287284247,E,1,08,4.15,24.417,M,36.996,M,,*62,35.70488085146667,139.72145473745
$GPGGA,065852.70,3542.292845088,N,13943.287278247,E,1,08,4.15,24.421,M,36.996,M,,*60,35.70488075146667,139.72145463745
$GPGGA,065852.80,3542.292851088,N,13943.287278247,E,1,08,4.15,24.419,M,36.996,M,,*61,35.70488085146667,139.72145463745
$GPGGA,065852.90,3542.292845088,N,13943.287278247,E,1,08,4.15,24.430,M,36.996,M,,*6E,35.70488075146667,139.72145463745
$GPGGA,065853.00,3542.292839088,N,13943.287272247,E,1,08,4.15,24.436,M,36.995,M,,*62,35.70488065146667,139.72145453745
$GPGGA,065853.10,3542.292851088,N,13943.287272247,E,1,08,4.15,24.447,M,36.996,M,,*68,35.70488085146667,139.72145453745
$GPGGA,065853.20,3542.292851088,N,13943.287266247,E,1,08,4.15,24.453,M,36.996,M,,*6B,35.70488085146667,139.72145443745
$GPGGA,065853.30,3542.292845088,N,13943.287266247,E,1,08,4.15,24.460,M,36.996,M,,*6F,35.70488075146667,139.72145443745
$GPGGA,065853.40,3542.292857088,N,13943.287260247,E,1,08,4.15,24.471,M,36.996,M,,*6D,35.70488095146667,139.72145433745
$GPGGA,065853.50,3542.292857088,N,13943.287254247,E,1,08,4.15,24.474,M,36.996,M,,*6E,35.70488095146667,139.72145423745
$GPGGA,065853.60,3542.292851088,N,13943.287254247,E,1,08,4.15,24.489,M,36.996,M,,*69,35.70488085146667,139.72145423745
$GPGGA,065853.70,3542.292851088,N,13943.287260247,E,1,08,4.15,24.478,M,36.996,M,,*61,35.70488085146667,139.72145433745
$GPGGA,065853.80,3542.292851088,N,13943.287260247,E,1,08,4.15,24.457,M,36.996,M,,*63,35.70488085146667,139.72145433745
$GPGGA,065853.90,3542.292857088,N,13943.287260247,E,1,08,4.15,24.458,M,36.996,M,,*6B,35.70488095146667,139.72145433745
$GPGGA,065854.00,3542.292863088,N,13943.287260247,E,1,08,4.15,24.451,M,36.996,M,,*6B,35.704881051466664,139.72145433745
$GPGGA,065854.10,3542.292863088,N,13943.287254247,E,1,08,4.15,24.484,M,36.996,M,,*65,35.704881051466664,139.72145423745
$GPGGA,065854.20,3542.292881088,N,13943.287260247,E,1,07,7.19,24.468,M,36.996,M,,*6F,35.70488135146667,139.72145433745
$GPGGA,065854.30,3542.292887088,N,13943.287266247,E,1,08,6.06,24.475,M,36.996,M,,*62,35.70488145146667,139.72145443745
$GPGGA,065854.40,3542.292905088,N,13943.287260247,E,1,07,6.83,24.484,M,36.996,M,,*64,35.704881751466665,139.72145433745
$GPGGA,065854.50,3542.292929088,N,13943.287260247,E,1,08,4.20,24.490,M,36.996,M,,*6A,35.70488215146667,139.72145433745
$GPGGA,065854.60,3542.292947088,N,13943.287260247,E,1,09,2.36,24.481,M,36.996,M,,*61,35.704882451466666,139.72145433745
$GPGGA,065854.70,3542.292971088,N,13943.287278247,E,1,09,2.36,24.482,M,36.996,M,,*6F,35.704882851466664,139.72145463745
$GPGGA,065854.80,3542.293001089,N,13943.287278247,E,1,08,4.20,24.526,M,36.996,M,,*61,35.70488335148333,139.72145463745
$GPGGA,065854.90,3542.293037089,N,13943.287290247,E,1,07,4.75,24.475,M,36.996,M,,*6B,35.70488395148333,139.72145483745
$GPGGA,065855.00,3542.293055089,N,13943.287338247,E,1,07,4.75,24.441,M,36.996,M,,*63,35.704884251483335,139.72145563745
$GPGGA,065855.10,3542.293091089,N,13943.287326247,E,1,06,6.69,24.487,M,36.996,M,,*61,35.704884851483335,139.72145543745
$GPGGA,065855.20,3542.293127089,N,13943.287338246,E,1,06,6.69,24.483,M,36.996,M,,*64,35.704885451483335,139.72145563743334
$GPGGA,065855.30,3542.293151089,N,13943.287350246,E,1,07,4.75,24.476,M,36.996,M,,*6E,35.70488585148333,139.72145583743333
$GPGGA,065855.40,3542.293199089,N,13943.287356246,E,1,06,9.36,24.498,M,36.996,M,,*60,35.704886651483335,139.72145593743335
$GPGGA,065855.50,3542.293229089,N,13943.287356246,E,1,07,2.92,24.493,M,36.996,M,,*66,35.704887151483334,139.72145593743335
$GPGGA,065855.60,3542.293271089,N,13943.287332246,E,1,08,2.89,24.534,M,36.996,M,,*63,35.704887851483335,139.72145553743334
$GPGGA,065855.70,3542.293325089,N,13943.287356246,E,1,10,2.33,24.531,M,36.996,M,,*6D,35.70488875148333,139.72145593743335
$GPGGA,065855.80,3542.293361089,N,13943.287398246,E,1,08,4.20,24.508,M,36.996,M,,*67,35.70488935148333,139.72145663743333
$GPGGA,065855.90,3542.293415089,N,13943.287422246,E,1,08,4.20,24.519,M,36.996,M,,*64,35.704890251483334,139.72145703743334
$GPGGA,065856.00,3542.293433089,N,13943.287476245,E,1,06,9.36,24.516,M,36.996,M,,*63,35.70489055148333,139.72145793741666
$GPGGA,065856.10,3542.293469089,N,13943.287488245,E,1,07,9.27,24.468,M,36.996,M,,*65,35.70489115148333,139.72145813741668
$GPGGA,065856.20,3542.293517090,N,13943.287464245,E,1,08,7.68,24.537,M,36.996,M,,*65,35.7048919515,139.72145773741667
$GPGGA,065856.30,3542.293571090,N,13943.287458245,E,1,09,5.98,24.584,M,36.996,M,,*6F,35.7048928515,139.72145763741668
$GPGGA,065856.40,3542.293565090,N,13943.287440245,E,1,11,2.32,24.669,M,36.996,M,,*6A,35.7048927515,139.72145733741667
$GPGGA,065856.50,3542.293583090,N,13943.287482245,E,1,09,4.50,24.677,M,36.996,M,,*69,35.7048930515,139.72145803741665
$GPGGA,065856.60,3542.293667090,N,13943.287470245,E,1,11,2.32,24.637,M,36.996,M,,*61,35.7048944515,139.72145783741666
$GPGGA,065856.70,3542.293733090,N,13943.287446245,E,1,10,2.72,24.684,M,36.996,M,,*68,35.7048955515,139.72145743741666
$GPGGA,065856.80,3542.293793090,N,13943.287440245,E,1,10,1.78,24.681,M,36.996,M,,*67,35.7048965515,139.72145733741667
$GPGGA,065856.90,3542.293835090,N,13943.287458244,E,1,12,2.29,24.662,M,36.996,M,,*65,35.7048972515,139.7214576374
$GPGGA,065857.00,3542.293919090,N,13943.287452244,E,1,12,2.29,24.665,M,36.996,M,,*6F,35.7048986515,139.7214575374
$GPGGA,065857.10,3542.293955090,N,13943.287428244,E,1,10,2.72,24.695,M,36.996,M,,*68,35.7048992515,139.7214571374
$GPGGA,065857.20,3542.294003090,N,13943.287458244,E,1,10,2.72,24.664,M,36.996,M,,*6F,35.7049000515,139.7214576374
$GPGGA,065857.30,3542.294039090,N,13943.287488244,E,1,10,2.72,24.662,M,36.996,M,,*6C,35.7049006515,139.7214581374
$GPGGA,065857.40,3542.294105090,N,13943.287476244,E,1,10,2.72,24.745,M,36.996,M,,*60,35.7049017515,139.7214579374
$GPGGA,065857.50,3542.294177090,N,13943.287470244,E,1,12,1.66,24.739,M,36.996,M,,*6D,35.7049029515,139.7214578374
$GPGGA,065857.60,3542.294219090,N,13943.287500243,E,1,10,2.45,24.696,M,36.996,M,,*60,35.7049036515,139.72145833738332
$GPGGA,065857.70,3542.294279091,N,13943.287500243,E,1,11,1.78,24.749,M,36.996,M,,*69,35.704904651516664,139.72145833738332
$GPGGA,065857.80,3542.294321091,N,13943.287524243,E,1,11,1.78,24.736,M,36.996,M,,*64,35.704905351516665,139.72145873738333
$GPGGA,065857.90,3542.294375091,N,13943.287560243,E,1,12,1.76,24.634,M,36.996,M,,*6A,35.70490625151667,139.72145933738332
$GPGGA,065858.00,3542.294423091,N,13943.287554243,E,1,12,1.70,24.696,M,36.996,M,,*61,35.70490705151666,139.72145923738333
$GPGGA,065858.10,3542.294459091,N,13943.287560243,E,1,12,1.59,24.683,M,36.996,M,,*65,35.70490765151666,139.72145933738332
$GPGGA,065858.20,3542.294525091,N,13943.287560243,E,1,09,1.76,24.712,M,36.996,M,,*62,35.70490875151667,139.72145933738332
$GPGGA,065858.30,3542.294579091,N,13943.287614242,E,1,10,1.72,24.636,M,36.996,M,,*60,35.704909651516665,139.72146023736667
$GPGGA,065858.40,3542.294627091,N,13943.287608242,E,1,10,1.72,24.709,M,36.996,M,,*6F,35.70491045151667,139.72146013736668
$GPGGA,065858.50,3542.294687091,N,13943.287632242,E,1,11,1.65,24.656,M,36.996,M,,*61,35.704911451516665,139.72146053736665
$GPGGA,065858.60,3542.294753091,N,13943.287656242,E,1,11,1.65,24.658,M,36.996,M,,*66,35.704912551516664,139.72146093736666
$GPGGA,065858.70,3542.294801091,N,13943.287674242,E,1,12,1.61,24.679,M,36.996,M,,*6B,35.704913351516666,139.72146123736667
$GPGGA,065858.80,3542.294861092,N,13943.287698242,E,1,13,1.29,24.671,M,36.996,M,,*66,35.70491435153333,139.72146163736667
$GPGGA,065858.90,3542.294927092,N,13943.287716241,E,1,14,1.23,24.647,M,36.996,M,,*68,35.70491545153333,139.72146193735
$GPGGA,065859.00,3542.294975092,N,13943.287728241,E,1,14,1.31,24.681,M,36.996,M,,*63,35.704916251533334,139.72146213735
$GPGGA,065859.10,3542.295029092,N,13943.287758241,E,1,15,1.27,24.654,M,36.996,M,,*6A,35.70491715153333,139.72146263735
$GPGGA,065859.20,3542.295089092,N,13943.287758241,E,1,15,1.27,24.698,M,36.996,M,,*63,35.704918151533334,139.72146263735
$GPGGA,065859.30,3542.295149092,N,13943.287782241,E,1,16,1.18,24.661,M,36.996,M,,*61,35.70491915153333,139.72146303735
$GPGGA,065859.40,3542.295197092,N,13943.287824241,E,1,15,1.17,24.631,M,36.996,M,,*6F,35.704919951533334,139.72146373735
$GPGGA,065859.50,3542.295245092,N,13943.287854240,E,1,15,1.18,24.613,M,36.996,M,,*6B,35.704920751533336,139.72146423733332
$GPGGA,065859.60,3542.295311092,N,13943.287872240,E,1,17,1.13,24.619,M,36.996,M,,*6F,35.704921851533335,139.72146453733333
$GPGGA,065859.70,3542.295359093,N,13943.287896240,E,1,17,1.13,24.599,M,36.996,M,,*62,35.70492265155,139.72146493733334
$GPGGA,065859.80,3542.295425093,N,13943.287908240,E,1,16,1.41,24.603,M,36.996,M,,*61,35.70492375155,139.72146513733333
$GPGGA,065859.90,3542.295479093,N,13943.287956240,E,1,15,1.42,24.572,M,36.996,M,,*67,35.70492465155,139.72146593733333
$GPGGA,065900.00,3542.295527093,N,13943.287980240,E,1,16,1.15,24.566,M,36.996,M,,*66,35.70492545155,139.72146633733334
$GPGGA,065900.10,3542.295593093,N,13943.288016239,E,1,15,1.24,24.544,M,36.996,M,,*6E,35.70492655155,139.72146693731668
$GPGGA,065900.20,3542.295647093,N,13943.288052239,E,1,15,1.24,24.521,M,36.996,M,,*64,35.70492745155,139.72146753731667
$GPGGA,065900.30,3542.295701093,N,13943.288076239,E,1,17,1.21,24.518,M,36.996,M,,*6D,35.70492835155,139.72146793731667
$GPGGA,065900.40,3542.295761094,N,13943.288118239,E,1,17,1.21,24.484,M,36.996,M,,*66,35.70492935156667,139.72146863731666
$GPGGA,065900.50,3542.295815094,N,13943.288160239,E,1,17,1.13,24.448,M,36.996,M,,*65,35.704930251566665,139.72146933731668
$GPGGA,065900.60,3542.295869094,N,13943.288196239,E,1,17,1.13,24.473,M,36.996,M,,*6C,35.70493115156667,139.72146993731667
$GPGGA,065900.70,3542.295923094,N,13943.288226238,E,1,16,1.17,24.429,M,36.996,M,,*61,35.704932051566665,139.7214704373
$GPGGA,065900.80,3542.295977094,N,13943.288256238,E,1,16,1.17,24.425,M,36.996,M,,*64,35.70493295156667,139.7214709373
$GPGGA,065900.90,3542.296031094,N,13943.288298238,E,1,17,1.16,24.409,M,36.996,M,,*61,35.704933851566665,139.7214716373
$GPGGA,065901.00,3542.296091094,N,13943.288352238,E,1,16,1.24,24.357,M,36.996,M,,*68,35.70493485156667,139.7214725373
$GPGGA,065901.10,3542.296151095,N,13943.288382238,E,1,15,1.25,24.344,M,36.996,M,,*68,35.704935851583336,139.7214730373
$GPGGA,065901.20,3542.296205095,N,13943.288412237,E,1,15,1.25,24.309,M,36.996,M,,*61,35.70493675158333,139.72147353728334
$GPGGA,065901.30,3542.296265095,N,13943.288448237,E,1,14,1.62,24.304,M,36.996,M,,*66,35.70493775158333,139.72147413728334
$GPGGA,065901.40,3542.296319095,N,13943.288502237,E,1,13,1.64,24.274,M,36.996,M,,*63,35.70493865158333,139.72147503728334
$GPGGA,065901.50,3542.296373095,N,13943.288532237,E,1,16,1.41,24.233,M,36.996,M,,*6C,35.70493955158334,139.72147553728334
$GPGGA,065901.60,3542.296445095,N,13943.288556237,E,1,17,1.13,24.207,M,36.996,M,,*6E,35.70494075158334,139.72147593728334
$GPGGA,065901.70,3542.296493095,N,13943.288598237,E,1,17,1.13,24.181,M,36.996,M,,*6B,35.70494155158333,139.72147663728333
$GPGGA,065901.80,3542.296553096,N,13943.288640236,E,1,17,1.13,24.160,M,36.996,M,,*62,35.7049425516,139.72147733726666
$GPGGA,065901.90,3542.296625096,N,13943.288682236,E,1,18,1.11,24.144,M,36.996,M,,*64,35.7049437516,139.72147803726668
$GPGGA,065902.00,3542.296691096,N,13943.288706236,E,1,20,0.93,24.126,M,36.996,M,,*68,35.7049448516,139.72147843726665
$GPGGA,065902.10,3542.296769096,N,13943.288742236,E,1,19,0.94,24.106,M,36.996,M,,*60,35.7049461516,139.72147903726668
$GPGGA,065902.20,3542.296811096,N,13943.288784236,E,1,18,0.96,24.062,M,36.996,M,,*69,35.7049468516,139.72147973726666
$GPGGA,065902.30,3542.296853096,N,13943.288826235,E,1,17,0.97,24.050,M,36.996,M,,*65,35.7049475516,139.72148043725
$GPGGA,065902.40,3542.296913096,N,13943.288850235,E,1,15,1.10,24.030,M,36.996,M,,*6C,35.7049485516,139.72148083725
$GPGGA,065902.50,3542.296973097,N,13943.288874235,E,1,15,1.10,23.976,M,36.996,M,,*60,35.704949551616664,139.72148123725
$GPGGA,065902.60,3542.297033097,N,13943.288898235,E,1,15,1.10,23.978,M,36.996,M,,*63,35.70495055161667,139.72148163725
$GPGGA,065902.70,3542.297111097,N,13943.288916235,E,1,16,1.02,23.983,M,36.996,M,,*60,35.70495185161667,139.72148193725
$GPGGA,065902.80,3542.297159097,N,13943.288964234,E,1,15,1.07,23.927,M,36.996,M,,*6F,35.704952651616665,139.72148273723334
$GPGGA,065902.90,3542.297213097,N,13943.288994234,E,1,15,1.09,23.956,M,36.996,M,,*64,35.70495355161667,139.72148323723334
$GPGGA,065903.00,3542.297285097,N,13943.289036234,E,1,16,1.03,23.942,M,36.996,M,,*6F,35.70495475161667,139.72148393723333
$GPGGA,065903.10,3542.297345097,N,13943.289090234,E,1,15,1.09,23.887,M,36.996,M,,*6E,35.704955751616666,139.72148483723333
$GPGGA,065903.20,3542.297411098,N,13943.289120234,E,1,17,1.00,23.903,M,36.996,M,,*68,35.704956851633334,139.72148533723333
$GPGGA,065903.30,3542.297495098,N,13943.289150233,E,1,17,1.00,23.890,M,36.996,M,,*6E,35.704958251633336,139.72148583721668
$GPGGA,065903.40,3542.297555098,N,13943.289192233,E,1,17,1.00,23.852,M,36.996,M,,*64,35.70495925163333,139.72148653721666
$GPGGA,065903.50,3542.297621098,N,13943.289234233,E,1,15,1.07,23.810,M,36.996,M,,*69,35.70496035163333,139.72148723721668
$GPGGA,065903.60,3542.297681098,N,13943.289270233,E,1,16,1.04,23.785,M,36.996,M,,*63,35.70496135163334,139.72148783721667
$GPGGA,065903.70,3542.297747098,N,13943.289330233,E,1,15,1.07,23.740,M,36.996,M,,*65,35.704962451633335,139.72148883721667
$GPGGA,065903.80,3542.297807099,N,13943.289372232,E,1,15,1.05,23.743,M,36.996,M,,*66,35.70496345165,139.7214895372
$GPGGA,065903.90,3542.297879099,N,13943.289408232,E,1,14,1.16,23.757,M,36.996,M,,*62,35.70496465165,139.7214901372
$GPGGA,065904.00,3542.297945099,N,13943.289456232,E,1,14,1.16,23.716,M,36.996,M,,*6C,35.70496575165,139.7214909372
$GPGGA,065904.10,3542.298011099,N,13943.289498232,E,1,14,1.16,23.706,M,36.996,M,,*69,35.70496685165,139.7214916372
$GPGGA,065904.20,3542.298077099,N,13943.289540232,E,1,15,1.07,23.666,M,36.996,M,,*68,35.70496795165,139.7214923372
$GPGGA,065904.30,3542.298161099,N,13943.289576231,E,1,17,1.00,23.623,M,36.996,M,,*6D,35.70496935165,139.72149293718334
$GPGGA,065904.40,3542.298221099,N,13943.289612231,E,1,16,1.06,23.596,M,36.996,M,,*66,35.70497035165,139.72149353718333
$GPGGA,065904.50,3542.298299100,N,13943.289672231,E,1,16,1.06,23.589,M,36.996,M,,*6D,35.70497165166667,139.72149453718333
$GPGGA,065904.60,3542.298371100,N,13943.289732231,E,1,16,1.06,23.554,M,36.996,M,,*6C,35.70497285166667,139.72149553718333
$GPGGA,065904.70,3542.298425100,N,13943.289774231,E,1,14,1.48,23.559,M,36.996,M,,*6C,35.704973751666664,139.72149623718335
$GPGGA,065904.80,3542.298485100,N,13943.289804230,E,1,14,1.48,23.532,M,36.996,M,,*6D,35.70497475166667,139.72149673716666
$GPGGA,065904.90,3542.298551100,N,13943.289840230,E,1,14,1.48,23.528,M,36.996,M,,*6F,35.70497585166667,139.72149733716665
$GPGGA,065905.00,3542.298611100,N,13943.289876230,E,1,15,1.29,23.513,M,36.996,M,,*6B,35.704976851666665,139.72149793716667
$GPGGA,065905.10,3542.298683101,N,13943.289942230,E,1,15,1.29,23.486,M,36.996,M,,*6B,35.704978051683334,139.72149903716667
$GPGGA,065905.20,3542.298731101,N,13943.289996230,E,1,15,1.29,23.463,M,36.996,M,,*62,35.704978851683336,139.72149993716667
$GPGGA,065905.30,3542.298797101,N,13943.290032229,E,1,15,1.29,23.452,M,36.996,M,,*6A,35.704979951683335,139.72150053715
$GPGGA,065905.40,3542.298875101,N,13943.290074229,E,1,16,1.27,23.407,M,36.996,M,,*61,35.704981251683336,139.72150123715
$GPGGA,065905.50,3542.298911101,N,13943.290128229,E,1,16,1.27,23.420,M,36.996,M,,*6E,35.704981851683335,139.72150213715
$GPGGA,065905.60,3542.298989102,N,13943.290176229,E,1,16,1.27,23.407,M,36.996,M,,*61,35.7049831517,139.72150293715
$GPGGA,065905.70,3542.299049102,N,13943.290218229,E,1,16,1.27,23.385,M,36.996,M,,*62,35.7049841517,139.72150363715
$GPGGA,065905.80,3542.299103102,N,13943.290266228,E,1,16,1.27,23.379,M,36.996,M,,*69,35.7049850517,139.72150443713332
$GPGGA,065905.90,3542.299169102,N,13943.290302228,E,1,16,1.27,23.323,M,36.996,M,,*68,35.7049861517,139.72150503713334
$GPGGA,065906.00,3542.299235102,N,13943.290344228,E,1,16,1.27,23.292,M,36.996,M,,*61,35.7049872517,139.72150573713333
$GPGGA,065906.10,3542.299301102,N,13943.290410228,E,1,16,1.27,23.294,M,36.996,M,,*66,35.7049883517,139.72150683713335
$GPGGA,065906.20,3542.299361102,N,13943.290434228,E,1,17,1.15,23.295,M,36.996,M,,*64,35.7049893517,139.72150723713332
$GPGGA,065906.30,3542.299421103,N,13943.290458227,E,1,16,1.33,23.240,M,36.996,M,,*6F,35.70499035171667,139.72150763711667
$GPGGA,065906.40,3542.299493103,N,13943.290494227,E,1,15,1.43,23.216,M,36.996,M,,*66,35.70499155171667,139.72150823711667
$GPGGA,065906.50,3542.299553103,N,13943.290542227,E,1,16,1.33,23.209,M,36.996,M,,*6A,35.704992551716664,139.72150903711668
$GPGGA,065906.60,3542.299631103,N,13943.290578227,E,1,17,1.15,23.206,M,36.996,M,,*6D,35.704993851716665,139.72150963711667
$GPGGA,065906.70,3542.299697103,N,13943.290614227,E,1,18,0.93,23.188,M,36.996,M,,*6C,35.704994951716664,139.72151023711666
$GPGGA,065906.80,3542.299751103,N,13943.290656226,E,1,18,0.93,23.201,M,36.996,M,,*6D,35.70499585171667,139.7215109371
$GPGGA,065906.90,3542.299829104,N,13943.290704226,E,1,17,1.15,23.154,M,36.996,M,,*6E,35.70499715173333,139.7215117371
$GPGGA,065907.00,3542.299895104,N,13943.290752226,E,1,17,1.15,23.123,M,36.996,M,,*62,35.704998251733336,139.7215125371
$GPGGA,065907.10,3542.299949104,N,13943.290788226,E,1,17,1.15,23.158,M,36.996,M,,*68,35.70499915173333,139.7215131371
$GPGGA,065907.20,3542.300015104,N,13943.290818226,E,1,17,1.15,23.151,M,36.996,M,,*65,35.70500025173333,139.7215136371
$GPGGA,065907.30,3542.300087104,N,13943.290818225,E,1,16,1.33,23.174,M,36.996,M,,*6E,35.70500145173333,139.72151363708332
$GPGGA,065907.40,3542.300171104,N,13943.290812225,E,1,15,1.43,23.133,M,36.996,M,,*6C,35.70500285173333,139.72151353708333
$GPGGA,065907.50,3542.300255104,N,13943.290854225,E,1,15,1.43,23.118,M,36.996,M,,*63,35.705004251733335,139.72151423708334
$GPGGA,065907.60,3542.300315105,N,13943.290890225,E,1,15,1.06,23.093,M,36.996,M,,*6F,35.70500525175,139.72151483708333
$GPGGA,065907.70,3542.300381105,N,13943.290932224,E,1,17,0.94,23.129,M,36.996,M,,*63,35.70500635175,139.72151553706667
$GPGGA,065907.80,3542.300453105,N,13943.290968224,E,1,15,1.21,23.118,M,36.996,M,,*64,35.70500755175,139.72151613706666
$GPGGA,065907.90,3542.300513105,N,13943.291022224,E,1,16,1.20,23.111,M,36.996,M,,*6D,35.70500855175,139.72151703706666
$GPGGA,065908.00,3542.300567105,N,13943.291088224,E,1,16,1.20,23.097,M,36.996,M,,*67,35.70500945175,139.72151813706665
$GPGGA,065908.10,3542.300609105,N,13943.291136224,E,1,16,1.20,23.088,M,36.996,M,,*67,35.70501015175,139.72151893706666
$GPGGA,065908.20,3542.300675106,N,13943.291166223,E,1,16,1.20,23.039,M,36.996,M,,*64,35.70501125176666,139.72151943705
$GPGGA,065908.30,3542.300723106,N,13943.291172223,E,1,16,1.20,22.959,M,36.996,M,,*6C,35.705012051766666,139.72151953705
$GPGGA,065908.40,3542.300783106,N,13943.291196223,E,1,16,1.20,22.992,M,36.996,M,,*6C,35.70501305176667,139.72151993705
$GPGGA,065908.50,3542.300849106,N,13943.291220223,E,1,15,1.43,23.060,M,36.996,M,,*69,35.70501415176667,139.72152033705
$GPGGA,065908.60,3542.300915106,N,13943.291262223,E,1,15,1.43,23.005,M,36.996,M,,*67,35.70501525176667,139.72152103705
$GPGGA,065908.70,3542.300987106,N,13943.291298223,E,1,15,1.43,23.025,M,36.996,M,,*6A,35.70501645176667,139.72152163705
$GPGGA,065908.80,3542.301083106,N,13943.291328222,E,1,17,0.94,23.116,M,36.996,M,,*6A,35.705018051766665,139.72152213703333
$GPGGA,065908.90,3542.301143107,N,13943.291370222,E,1,17,0.94,23.174,M,36.996,M,,*6E,35.70501905178333,139.72152283703332
$GPGGA,065909.00,3542.301149107,N,13943.291400222,E,1,16,0.98,23.112,M,36.996,M,,*61,35.70501915178333,139.72152333703335
$GPGGA,065909.10,3542.301209107,N,13943.291448222,E,1,16,0.98,23.148,M,36.996,M,,*64,35.70502015178333,139.72152413703333
$GPGGA,065909.20,3542.301275107,N,13943.291484222,E,1,15,1.43,23.234,M,36.996,M,,*60,35.705021251783336,139.72152473703332
$GPGGA,065909.30,3542.301329107,N,13943.291520221,E,1,15,1.11,23.220,M,36.996,M,,*67,35.70502215178333,139.72152533701666
$GPGGA,065909.40,3542.301377107,N,13943.291562221,E,1,14,1.53,23.208,M,36.996,M,,*60,35.705022951783334,139.72152603701667
$GPGGA,065909.50,3542.301461107,N,13943.291586221,E,1,16,0.98,23.211,M,36.996,M,,*67,35.70502435178334,139.72152643701668
$GPGGA,065909.60,3542.301539107,N,13943.291622221,E,1,16,0.98,23.257,M,36.996,M,,*67,35.70502565178333,139.72152703701667
$GPGGA,065909.70,3542.301605108,N,13943.291670221,E,1,16,0.98,23.287,M,36.996,M,,*6F,35.7050267518,139.72152783701668
$GPGGA,065909.80,3542.301665108,N,13943.291706220,E,1,15,1.43,23.282,M,36.996,M,,*66,35.7050277518,139.721528437
$GPGGA,065909.90,3542.301749108,N,13943.291724220,E,1,14,1.48,23.271,M,36.996,M,,*6E,35.7050291518,139.721528737
$GPGGA,065910.00,3542.301821108,N,13943.291754220,E,1,14,1.48,23.281,M,36.996,M,,*66,35.7050303518,139.721529237
$GPGGA,065910.10,3542.301881108,N,13943.291784220,E,1,15,1.43,23.291,M,36.996,M,,*6B,35.7050313518,139.721529737
$GPGGA,065910.20,3542.301935108,N,13943.291808220,E,1,15,1.01,23.240,M,36.996,M,,*67,35.7050322518,139.721530137
$GPGGA,065910.30,3542.301989108,N,13943.291826220,E,1,14,1.48,23.296,M,36.996,M,,*6A,35.7050331518,139.721530437
$GPGGA,065910.40,3542.302061109,N,13943.291868219,E,1,14,1.48,23.289,M,36.996,M,,*6E,35.705034351816664,139.72153113698334
$GPGGA,065910.50,3542.302133109,N,13943.291880219,E,1,14,1.48,23.341,M,36.996,M,,*6A,35.705035551816664,139.72153133698333
$GPGGA,065910.60,3542.302193109,N,13943.291922219,E,1,14,1.07,23.348,M,36.996,M,,*68,35.70503655181667,139.72153203698332
$GPGGA,065910.70,3542.302265109,N,13943.291970219,E,1,14,1.07,23.336,M,36.996,M,,*6D,35.70503775181667,139.72153283698333
$GPGGA,065910.80,3542.302325109,N,13943.292000218,E,1,13,1.56,23.340,M,36.996,M,,*69,35.705038751816666,139.72153333696667
$GPGGA,065910.90,3542.302397109,N,13943.292018218,E,1,14,1.07,23.346,M,36.996,M,,*6D,35.705039951816666,139.72153363696665
$GPGGA,065911.00,3542.302445109,N,13943.292078218,E,1,15,1.01,23.379,M,36.996,M,,*60,35.70504075181667,139.72153463696668
$GPGGA,065911.10,3542.302505110,N,13943.292102218,E,1,16,0.96,23.369,M,36.996,M,,*6D,35.705041751833335,139.72153503696666
$GPGGA,065911.20,3542.302571110,N,13943.292138218,E,1,14,1.10,23.387,M,36.996,M,,*69,35.70504285183333,139.72153563696668
$GPGGA,065911.30,3542.302637110,N,13943.292186218,E,1,12,1.64,23.457,M,36.996,M,,*63,35.70504395183333,139.72153643696666
$GPGGA,065911.40,3542.302715110,N,13943.292222217,E,1,14,1.07,23.433,M,36.996,M,,*66,35.70504525183333,139.72153703695
$GPGGA,065911.50,3542.302763110,N,13943.292264217,E,1,14,1.07,23.487,M,36.996,M,,*6B,35.705046051833335,139.72153773695
$GPGGA,065911.60,3542.302823110,N,13943.292288217,E,1,14,1.07,23.453,M,36.996,M,,*68,35.70504705183333,139.72153813695
$GPGGA,065911.70,3542.302877110,N,13943.292300217,E,1,14,1.07,23.433,M,36.996,M,,*6F,35.705047951833336,139.72153833695
$GPGGA,065911.80,3542.302949111,N,13943.292336217,E,1,14,1.07,23.512,M,36.996,M,,*6A,35.70504915185,139.72153893695
$GPGGA,065911.90,3542.303021111,N,13943.292360216,E,1,13,1.56,23.444,M,36.996,M,,*6E,35.70505035185,139.72153933693335
$GPGGA,065912.00,3542.303081111,N,13943.292396216,E,1,12,1.58,23.477,M,36.996,M,,*68,35.70505135185,139.72153993693334
$GPGGA,065912.10,3542.303135111,N,13943.292444216,E,1,13,1.09,23.554,M,36.996,M,,*6A,35.70505225185,139.72154073693332
$GPGGA,065912.20,3542.303195111,N,13943.292486216,E,1,13,1.09,23.604,M,36.996,M,,*6B,35.70505325185,139.72154143693334
$GPGGA,065912.30,3542.303243111,N,13943.292522216,E,1,12,1.58,23.708,M,36.996,M,,*65,35.70505405185,139.72154203693333
$GPGGA,065912.40,3542.303303111,N,13943.292528215,E,1,12,1.58,23.738,M,36.996,M,,*6D,35.70505505185,139.72154213691667
$GPGGA,065912.50,3542.303375112,N,13943.292564215,E,1,12,1.58,23.791,M,36.996,M,,*65,35.705056251866665,139.72154273691666
$GPGGA,065912.60,3542.303465112,N,13943.292534215,E,1,12,1.58,23.834,M,36.996,M,,*65,35.70505775186667,139.72154223691666
$GPGGA,065912.70,3542.303531112,N,13943.292492215,E,1,12,1.64,23.889,M,36.996,M,,*60,35.70505885186667,139.72154153691667
$GPGGA,065912.80,3542.303585112,N,13943.292504215,E,1,14,1.28,23.977,M,36.996,M,,*60,35.70505975186666,139.72154173691666
$GPGGA,065912.90,3542.303639112,N,13943.292558215,E,1,13,1.56,23.921,M,36.996,M,,*61,35.70506065186667,139.72154263691667
$GPGGA,065913.00,3542.303717112,N,13943.292576214,E,1,12,1.65,23.982,M,36.996,M,,*61,35.70506195186667,139.7215429369
$GPGGA,065913.10,3542.303789112,N,13943.292570214,E,1,12,1.65,24.057,M,36.996,M,,*67,35.70506315186667,139.7215428369
$GPGGA,065913.20,3542.303837112,N,13943.292582214,E,1,15,1.05,24.108,M,36.996,M,,*69,35.70506395186667,139.7215430369
$GPGGA,065913.30,3542.303915112,N,13943.292588214,E,1,13,1.37,24.185,M,36.996,M,,*61,35.705065251866664,139.7215431369
$GPGGA,065913.40,3542.303987112,N,13943.292600214,E,1,12,1.41,24.271,M,36.996,M,,*66,35.705066451866664,139.7215433369
$GPGGA,065913.50,3542.304065112,N,13943.292582213,E,1,11,1.42,24.302,M,36.997,M,,*6F,35.705067751866665,139.72154303688333
$GPGGA,065913.60,3542.304125113,N,13943.292570213,E,1,13,1.37,24.341,M,36.997,M,,*62,35.70506875188333,139.72154283688334
$GPGGA,065913.70,3542.304191113,N,13943.292576213,E,1,13,1.37,24.361,M,36.997,M,,*68,35.70506985188333,139.72154293688334
$GPGGA,065913.80,3542.304263113,N,13943.292558213,E,1,13,1.37,24.369,M,36.997,M,,*6D,35.70507105188333,139.72154263688333
$GPGGA,065913.90,3542.304341113,N,13943.292540213,E,1,14,1.12,24.325,M,36.997,M,,*6C,35.70507235188333,139.72154233688335
$GPGGA,065914.00,3542.304401113,N,13943.292522213,E,1,15,1.11,24.382,M,36.997,M,,*6A,35.705073351883335,139.72154203688333
$GPGGA,065914.10,3542.304455113,N,13943.292510212,E,1,15,1.11,24.343,M,36.997,M,,*67,35.70507425188333,139.72154183686666
$GPGGA,065914.20,3542.304521113,N,13943.292504212,E,1,13,1.29,24.347,M,36.997,M,,*6A,35.70507535188333,139.72154173686667
$GPGGA,065914.30,3542.304593113,N,13943.292504212,E,1,12,1.34,24.313,M,36.997,M,,*6E,35.70507655188333,139.72154173686667
$GPGGA,065914.40,3542.304671113,N,13943.292486212,E,1,14,1.15,24.436,M,36.997,M,,*68,35.70507785188333,139.72154143686666
$GPGGA,065914.50,3542.304743113,N,13943.292462212,E,1,13,1.20,24.503,M,36.997,M,,*65,35.70507905188333,139.72154103686665
$GPGGA,065914.60,3542.304821113,N,13943.292450212,E,1,14,1.15,24.593,M,36.997,M,,*64,35.70508035188333,139.72154083686667
$GPGGA,065914.70,3542.304899113,N,13943.292438211,E,1,15,1.11,24.609,M,36.997,M,,*6E,35.70508165188333,139.72154063685
$GPGGA,065914.80,3542.304971113,N,13943.292402211,E,1,14,1.15,24.625,M,36.997,M,,*64,35.70508285188333,139.72154003685
$GPGGA,065914.90,3542.305043113,N,13943.292348211,E,1,15,1.11,24.618,M,36.997,M,,*6E,35.70508405188333,139.72153913685
$GPGGA,065915.00,3542.305127113,N,13943.292342211,E,1,14,1.15,24.596,M,36.997,M,,*6F,35.705085451883335,139.72153903685
$GPGGA,065915.10,3542.305187113,N,13943.292300211,E,1,13,1.16,24.621,M,36.997,M,,*69,35.70508645188333,139.72153833685
$GPGGA,065915.20,3542.305265113,N,13943.292264211,E,1,13,1.16,24.612,M,36.997,M,,*66,35.70508775188333,139.72153773685
$GPGGA,065915.30,3542.305313113,N,13943.292228210,E,1,13,1.16,24.613,M,36.997,M,,*6F,35.705088551883335,139.72153713683332
$GPGGA,065915.40,3542.305391113,N,13943.292210210,E,1,15,1.11,24.632,M,36.997,M,,*6B,35.705089851883336,139.72153683683334
$GPGGA,065915.50,3542.305463113,N,13943.292186210,E,1,15,1.11,24.617,M,36.997,M,,*6B,35.705091051883336,139.72153643683333
$GPGGA,065915.60,3542.305529113,N,13943.292156210,E,1,15,1.11,24.665,M,36.997,M,,*6F,35.705092151883335,139.72153593683333
$GPGGA,065915.70,3542.305589113,N,13943.292120210,E,1,15,1.05,24.685,M,36.997,M,,*6E,35.70509315188333,139.72153533683334
$GPGGA,065915.80,3542.305655113,N,13943.292090210,E,1,15,1.05,24.667,M,36.997,M,,*65,35.70509425188333,139.72153483683334
$GPGGA,065915.90,3542.305727113,N,13943.292066209,E,1,15,1.05,24.664,M,36.997,M,,*62,35.70509545188333,139.72153443681665
$GPGGA,065916.00,3542.305793113,N,13943.292030209,E,1,15,1.12,24.661,M,36.997,M,,*67,35.70509655188334,139.72153383681666
$GPGGA,065916.10,3542.305859113,N,13943.292000209,E,1,15,1.12,24.686,M,36.997,M,,*65,35.705097651883335,139.72153333681666
$GPGGA,065916.20,3542.305925114,N,13943.291964209,E,1,14,1.15,24.692,M,36.997,M,,*60,35.7050987519,139.72153273681667
$GPGGA,065916.30,3542.305973114,N,13943.291940209,E,1,13,1.29,24.688,M,36.997,M,,*67,35.7050995519,139.72153233681667
$GPGGA,065916.40,3542.306033114,N,13943.291898209,E,1,14,1.20,24.702,M,36.997,M,,*67,35.7051005519,139.72153163681668
$GPGGA,065916.50,3542.306093114,N,13943.291868209,E,1,14,1.20,24.723,M,36.997,M,,*60,35.7051015519,139.72153113681668
$GPGGA,065916.60,3542.306159114,N,13943.291832209,E,1,14,1.13,24.714,M,36.997,M,,*6F,35.7051026519,139.72153053681666
$GPGGA,065916.70,3542.306219114,N,13943.291790208,E,1,14,1.13,24.751,M,36.997,M,,*6E,35.705103651900004,139.7215298368
$GPGGA,065916.80,3542.306273114,N,13943.291766208,E,1,13,1.16,24.749,M,36.997,M,,*6F,35.7051045519,139.7215294368
$GPGGA,065916.90,3542.306333114,N,13943.291718208,E,1,15,1.10,24.777,M,36.997,M,,*6F,35.7051055519,139.7215286368
$GPGGA,065917.00,3542.306399114,N,13943.291670208,E,1,15,1.04,24.770,M,36.997,M,,*6A,35.7051066519,139.7215278368
$GPGGA,065917.10,3542.306459114,N,13943.291634208,E,1,13,1.15,24.764,M,36.997,M,,*63,35.7051076519,139.7215272368
$GPGGA,065917.20,3542.306525114,N,13943.291598208,E,1,13,1.23,24.811,M,36.997,M,,*67,35.7051087519,139.7215266368
$GPGGA,065917.30,3542.306597114,N,13943.291562208,E,1,13,1.23,24.789,M,36.997,M,,*64,35.7051099519,139.7215260368
$GPGGA,065917.40,3542.306639113,N,13943.291508208,E,1,14,1.17,24.811,M,36.997,M,,*61,35.70511065188333,139.7215251368
$GPGGA,065917.50,3542.306687113,N,13943.291454207,E,1,15,1.10,24.833,M,36.997,M,,*64,35.70511145188333,139.72152423678332
$GPGGA,065917.60,3542.306753113,N,13943.291436207,E,1,14,1.18,24.812,M,36.997,M,,*61,35.70511255188333,139.72152393678334
$GPGGA,065917.70,3542.306825114,N,13943.291418207,E,1,15,1.10,24.824,M,36.997,M,,*69,35.7051137519,139.72152363678333
$GPGGA,065917.80,3542.306885113,N,13943.291352207,E,1,16,1.05,24.842,M,36.997,M,,*65,35.705114751883336,139.72152253678334
$GPGGA,065917.90,3542.306933113,N,13943.291304207,E,1,16,1.05,24.842,M,36.997,M,,*6B,35.70511555188333,139.72152173678333
$GPGGA,065918.00,3542.306993113,N,13943.291250207,E,1,15,1.10,24.834,M,36.997,M,,*61,35.705116551883336,139.72152083678333
$GPGGA,065918.10,3542.307053113,N,13943.291196207,E,1,15,1.10,24.867,M,36.997,M,,*6B,35.70511755188333,139.72151993678332
$GPGGA,065918.20,3542.307113113,N,13943.291160207,E,1,15,1.10,24.860,M,36.997,M,,*63,35.70511855188333,139.72151933678333
$GPGGA,065918.30,3542.307173113,N,13943.291106206,E,1,14,1.17,24.851,M,36.997,M,,*61,35.705119551883335,139.72151843676667
