$GPGGA,090934.90,3542.311630444,N,13943.291406296,E,5,11,1.28,24.208,M,36.997,M,2.9,2107*49
$PMSBATV,090934.90,2,2,1.64797,0.41041,138.34169,-0.000,0.000,0.000,125.95383,0.000*65
$GPGGA,090935.00,3542.311630434,N,13943.291406296,E,5,11,1.28,24.208,M,36.997,M,3.0,2107*4E
$PMSBATV,090935.00,2,2,1.65147,0.40941,138.34421,-0.000,0.000,0.000,125.95383,0.000*66
$GPGGA,090935.10,3542.311630424,N,13943.291406295,E,5,11,1.28,24.208,M,36.997,M,3.1,2107*4C
$PMSBATV,090935.10,2,2,1.64923,0.40788,138.34293,-0.000,0.000,0.000,125.95383,0.000*68
$GPGGA,090935.20,3542.311630416,N,13943.291406295,E,5,11,1.28,24.208,M,36.997,M,3.2,2107*4D
$PMSBATV,090935.20,2,2,1.64528,0.40947,138.34470,-0.000,-0.000,0.000,125.95383,0.000*47
$GPGGA,090935.30,3542.311630407,N,13943.291406300,E,5,11,1.28,24.208,M,36.997,M,3.3,2107*40
$PMSBATV,090935.30,2,2,1.62971,0.41104,138.34661,0.000,-0.000,0.000,125.95383,0.000*61
$GPGGA,090935.40,3542.311630399,N,13943.291406299,E,5,11,1.28,24.208,M,36.997,M,3.4,2107*41
$PMSBATV,090935.40,2,2,1.62469,0.40976,138.34780,-0.000,0.000,0.000,125.95383,0.000*60
$GPGGA,090935.50,3542.311630391,N,13943.291406301,E,5,11,1.28,24.208,M,36.997,M,3.5,2107*49
$PMSBATV,090935.50,2,2,1.63374,0.41041,138.34740,-0.000,-0.000,0.000,125.95383,0.000*46
$GPGGA,090935.60,3542.311630382,N,13943.291406304,E,5,11,1.28,24.208,M,36.997,M,3.6,2107*4E
$PMSBATV,090935.60,2,2,1.63896,0.41099,138.34595,0.000,0.000,-0.000,125.95383,0.000*60
$GPGGA,090935.70,3542.311630373,N,13943.291406307,E,5,11,1.28,24.208,M,36.997,M,3.7,2107*43
$PMSBATV,090935.70,2,2,1.63841,0.41018,138.34553,0.000,-0.000,0.000,125.95383,0.000*68
$GPGGA,090935.80,3542.311630365,N,13943.291406307,E,5,11,1.28,24.208,M,36.997,M,3.8,2107*44
$PMSBATV,090935.80,2,2,1.63720,0.40942,138.34549,-0.000,-0.000,0.000,125.95383,0.000*4E
$GPGGA,090935.90,3542.311630355,N,13943.291406307,E,5,11,1.28,24.208,M,36.997,M,3.9,2107*47
$PMSBATV,090935.90,2,2,1.63672,0.40909,138.34706,0.000,-0.000,-0.000,125.95383,0.000*4F
$GPGGA,090936.00,3542.311630348,N,13943.291406308,E,5,11,1.28,24.208,M,36.997,M,4.0,2107*40
$PMSBATV,090936.00,2,2,1.63154,0.40949,138.34434,-0.000,0.000,0.000,125.95383,0.000*6D
$GPGGA,090936.10,3542.311630342,N,13943.291406313,E,5,11,1.28,24.208,M,36.997,M,4.1,2107*40
$PMSBATV,090936.10,2,2,1.64074,0.41029,138.34497,-0.000,-0.000,0.000,125.95383,0.000*42
$GPGGA,090936.20,3542.311630337,N,13943.291406316,E,5,11,1.28,24.208,M,36.997,M,4.2,2107*47
$PMSBATV,090936.20,2,2,1.64481,0.41019,138.34571,-0.000,-0.000,0.000,125.95383,0.000*45
$GPGGA,090936.30,3542.311630332,N,13943.291406317,E,5,11,1.28,24.208,M,36.997,M,4.3,2107*43
$PMSBATV,090936.30,2,2,1.64945,0.41095,138.34508,-0.000,-0.000,0.000,125.95383,0.000*4B
$GPGGA,090936.40,3542.311630328,N,13943.291406321,E,5,11,1.28,24.208,M,36.997,M,4.4,2107*4D
$PMSBATV,090936.40,2,2,1.64828,0.41411,138.34586,0.000,0.000,0.000,125.95383,0.000*48
$GPGGA,090936.50,3542.311630322,N,13943.291406321,E,5,11,1.28,24.208,M,36.997,M,4.5,2107*47
$PMSBATV,090936.50,2,2,1.63839,0.41414,138.34552,-0.000,0.000,0.000,125.95383,0.000*6F
$GPGGA,090936.60,3542.311630316,N,13943.291406321,E,5,11,1.28,24.208,M,36.997,M,4.6,2107*40
$PMSBATV,090936.60,2,2,1.64279,0.41331,138.34748,-0.000,-0.000,0.000,125.95383,0.000*41
$GPGGA,090936.70,3542.311630309,N,13943.291406319,E,5,11,1.28,24.208,M,36.997,M,4.7,2107*45
$PMSBATV,090936.70,2,2,1.64546,0.41448,138.34510,-0.000,-0.000,0.000,125.95383,0.000*4D
$GPGGA,090936.80,3542.311630301,N,13943.291406316,E,5,11,1.28,24.208,M,36.997,M,4.8,2107*42
$PMSBATV,090936.80,2,2,1.64794,0.41537,138.34479,0.000,0.000,0.000,125.95383,0.000*48
$GPGGA,090936.90,3542.311630294,N,13943.291406315,E,5,11,1.28,24.208,M,36.997,M,4.9,2107*4C
$PMSBATV,090936.90,2,2,1.64674,0.41357,138.34640,-0.000,-0.000,0.000,125.95383,0.000*4E
$GPGGA,090937.00,3542.311630289,N,13943.291406314,E,5,11,1.28,24.208,M,36.997,M,5.0,2107*41
$PMSBATV,090937.00,2,2,1.64464,0.41309,138.34587,-0.000,-0.000,0.000,125.95383,0.000*46
$GPGGA,090937.10,3542.311630279,N,13943.291406312,E,5,11,1.28,24.208,M,36.997,M,5.1,2107*48
$PMSBATV,090937.10,2,2,1.65741,0.41659,138.34500,0.000,0.000,-0.000,125.95383,0.000*60
$GPGGA,090937.20,3542.311630271,N,13943.291406309,E,5,11,1.28,24.208,M,36.997,M,5.2,2107*4A
$PMSBATV,090937.20,2,2,1.66680,0.41756,138.34341,-0.000,0.000,0.000,125.95383,0.000*61
$GPGGA,090937.30,3542.311630263,N,13943.291406305,E,5,11,1.28,24.208,M,36.997,M,5.3,2107*45
$PMSBATV,090937.30,2,2,1.66392,0.41558,138.34063,-0.000,0.000,0.000,125.95383,0.000*69
$GPGGA,090937.40,3542.311630255,N,13943.291406302,E,5,11,1.28,24.208,M,36.997,M,5.4,2107*47
$PMSBATV,090937.40,2,2,1.65806,0.41932,138.34335,-0.000,-0.000,-0.000,125.95383,0.000*6B
$GPGGA,090937.50,3542.311630248,N,13943.291406298,E,5,11,1.28,24.208,M,36.997,M,5.5,2107*49
$PMSBATV,090937.50,2,2,1.65284,0.42086,138.34356,-0.000,0.000,0.000,125.95383,0.000*6A
$GPGGA,090937.60,3542.311630240,N,13943.291406295,E,5,11,1.28,24.208,M,36.997,M,5.6,2107*4C
$PMSBATV,090937.60,2,2,1.65652,0.42278,138.34399,0.000,0.000,-0.000,125.95383,0.000*66
$GPGGA,090937.70,3542.311630233,N,13943.291406290,E,5,11,1.28,24.208,M,36.997,M,5.7,2107*4D
$PMSBATV,090937.70,2,2,1.65198,0.42270,138.34337,-0.000,0.000,0.000,125.95383,0.000*6A
$GPGGA,090937.80,3542.311630227,N,13943.291406288,E,5,11,1.28,24.208,M,36.997,M,5.8,2107*41
$PMSBATV,090937.80,2,2,1.65575,0.42020,138.34494,-0.000,0.000,0.000,125.95383,0.000*6B
$GPGGA,090937.90,3542.311630221,N,13943.291406286,E,5,11,1.28,24.208,M,36.997,M,5.9,2107*49
$PMSBATV,090937.90,2,2,1.65730,0.41971,138.34292,0.000,0.000,0.000,125.95383,0.000*4A
$GPGGA,090938.00,3542.311630214,N,13943.291406282,E,5,11,1.28,24.208,M,36.997,M,6.0,2107*47
$PMSBATV,090938.00,2,2,1.66352,0.42069,138.34378,-0.000,-0.000,-0.000,125.95383,0.000*64
$GPGGA,090938.10,3542.311630206,N,13943.291406280,E,5,11,1.28,24.208,M,36.997,M,1.1,2107*41
$PMSBATV,090938.10,2,2,1.66724,0.42099,138.34206,-0.000,0.000,-0.000,125.95383,0.000*4A
$GPGGA,090938.20,3542.311630197,N,13943.291406275,E,5,11,1.28,24.208,M,36.997,M,1.2,2107*40
$PMSBATV,090938.20,2,2,1.65869,0.41937,138.34242,-0.000,0.000,0.000,125.95383,0.000*6F
$GPGGA,090938.30,3542.311630188,N,13943.291406271,E,5,11,1.28,24.208,M,36.997,M,1.3,2107*4A
$PMSBATV,090938.30,2,2,1.65785,0.41945,138.34039,-0.000,0.000,-0.000,125.95383,0.000*45
$GPGGA,090938.40,3542.311630178,N,13943.291406268,E,5,11,1.28,24.208,M,36.997,M,1.4,2107*4D
$PMSBATV,090938.40,2,2,1.66850,0.41835,138.34254,0.000,-0.000,-0.000,125.95383,0.000*49
$GPGGA,090938.50,3542.311630170,N,13943.291406266,E,5,11,1.28,24.208,M,36.997,M,1.5,2107*4B
$PMSBATV,090938.50,2,2,1.66419,0.41566,138.34087,-0.000,-0.000,-0.000,125.95383,0.000*63
$GPGGA,090938.60,3542.311630163,N,13943.291406261,E,5,11,1.28,24.208,M,36.997,M,1.6,2107*4E
$PMSBATV,090938.60,2,2,1.65620,0.41780,138.34256,-0.000,0.000,0.000,125.95383,0.000*6F
$GPGGA,090938.70,3542.311630153,N,13943.291406256,E,5,11,1.28,24.208,M,36.997,M,1.7,2107*49
$PMSBATV,090938.70,2,2,1.66234,0.42012,138.34134,-0.000,0.000,0.000,125.95383,0.000*64
$GPGGA,090938.80,3542.311630149,N,13943.291406280,E,5,11,1.28,24.208,M,36.997,M,1.8,2107*49
$PMSBATV,090938.80,2,2,1.66557,0.41978,138.34244,-0.000,0.000,0.000,125.95383,0.000*6B
$GPGGA,090938.90,3542.311630150,N,13943.291406307,E,5,11,1.28,24.208,M,36.997,M,1.9,2107*4F
$PMSBATV,090938.90,2,2,1.65646,0.41731,138.34220,-0.000,0.000,0.000,125.95383,0.000*6B
$GPGGA,090939.00,3542.311630151,N,13943.291406333,E,5,11,1.28,24.209,M,36.997,M,2.0,2107*4A
$PMSBATV,090939.00,2,2,1.65902,0.41763,138.34476,-0.000,0.000,0.000,125.95383,0.000*6E
$GPGGA,090939.10,3542.311630143,N,13943.291406332,E,5,11,1.28,24.209,M,36.997,M,2.1,2107*48
$PMSBATV,090939.10,2,2,1.66645,0.41657,138.34255,-0.000,-0.000,0.000,125.95383,0.000*4C
$GPGGA,090939.20,3542.311630136,N,13943.291406330,E,5,11,1.28,24.209,M,36.997,M,2.2,2107*48
$PMSBATV,090939.20,2,2,1.66370,0.41581,138.34186,-0.000,0.000,-0.000,125.95383,0.000*49
$GPGGA,090939.30,3542.311630136,N,13943.291406357,E,5,11,1.28,24.209,M,36.997,M,2.3,2107*49
$PMSBATV,090939.30,2,2,1.66046,0.41253,138.34275,-0.000,0.000,0.000,125.95383,0.000*64
$GPGGA,090939.40,3542.311630128,N,13943.291406353,E,5,11,1.28,24.209,M,36.997,M,2.4,2107*42
$PMSBATV,090939.40,2,2,1.67098,0.41055,138.34357,-0.000,0.000,0.000,125.95383,0.000*64
$GPGGA,090939.50,3542.311630120,N,13943.291406353,E,5,11,1.28,24.209,M,36.997,M,2.5,2107*4A
$PMSBATV,090939.50,2,2,1.67308,0.41074,138.34498,-0.000,-0.000,-0.000,125.95383,0.000*68
$GPGGA,090939.60,3542.311630110,N,13943.291406352,E,5,11,1.28,24.209,M,36.997,M,2.6,2107*48
$PMSBATV,090939.60,2,2,1.65761,0.41008,138.34384,-0.000,0.000,0.000,125.95383,0.000*63
$GPGGA,090939.70,3542.311630102,N,13943.291406351,E,5,11,1.28,24.209,M,36.997,M,2.7,2107*48
$PMSBATV,090939.70,2,2,1.65605,0.41172,138.34471,-0.000,0.000,-0.000,125.95383,0.000*4D
$GPGGA,090939.80,3542.311630098,N,13943.291406354,E,5,11,1.28,24.209,M,36.997,M,2.8,2107*4F
$PMSBATV,090939.80,2,2,1.66570,0.41302,138.34440,-0.000,-0.000,0.000,125.95383,0.000*47
$GPGGA,090939.90,3542.311630093,N,13943.291406359,E,5,11,1.28,24.209,M,36.997,M,2.9,2107*49
$PMSBATV,090939.90,2,2,1.66241,0.41473,138.34592,0.000,0.000,-0.000,125.95383,0.000*61
$GPGGA,090940.00,3542.311630087,N,13943.291406359,E,5,11,1.28,24.209,M,36.997,M,3.0,2107*43
$PMSBATV,090940.00,2,2,1.65378,0.41384,138.34489,-0.000,0.000,0.000,125.95383,0.000*6A
$GPGGA,090940.10,3542.311630086,N,13943.291406385,E,5,11,1.28,24.209,M,36.997,M,3.1,2107*43
$PMSBATV,090940.10,2,2,1.65620,0.41413,138.34472,-0.000,0.000,-0.000,125.95383,0.000*43
$GPGGA,090940.20,3542.311630083,N,13943.291406388,E,5,11,1.28,24.209,M,36.997,M,3.2,2107*4B
$PMSBATV,090940.20,2,2,1.65663,0.41267,138.34370,-0.000,-0.000,0.000,125.95383,0.000*47
$GPGGA,090940.30,3542.311630078,N,13943.291406388,E,5,11,1.28,24.209,M,36.997,M,3.3,2107*4F
$PMSBATV,090940.30,2,2,1.65052,0.41221,138.34424,-0.000,0.000,0.000,125.95383,0.000*6B
$GPGGA,090940.40,3542.311630073,N,13943.291406389,E,5,11,1.28,24.209,M,36.997,M,3.4,2107*45
$PMSBATV,090940.40,2,2,1.64897,0.41219,138.34298,-0.000,0.000,0.000,125.95383,0.000*66
$GPGGA,090940.50,3542.311630068,N,13943.291406391,E,5,11,1.28,24.209,M,36.997,M,3.5,2107*46
$PMSBATV,090940.50,2,2,1.65766,0.41420,138.34126,-0.000,0.000,-0.000,125.95383,0.000*40
$GPGGA,090940.60,3542.311630062,N,13943.291406391,E,5,11,1.28,24.209,M,36.997,M,3.6,2107*4C
$PMSBATV,090940.60,2,2,1.64074,0.41378,138.34229,-0.000,0.000,0.000,125.95383,0.000*6D
$GPGGA,090940.70,3542.311630057,N,13943.291406394,E,5,11,1.28,24.209,M,36.997,M,3.7,2107*4F
$PMSBATV,090940.70,2,2,1.64380,0.41302,138.34096,-0.000,0.000,-0.000,125.95383,0.000*42
$GPGGA,090940.80,3542.311630052,N,13943.291406395,E,5,11,1.28,24.209,M,36.997,M,3.8,2107*4B
$PMSBATV,090940.80,2,2,1.65559,0.41086,138.33871,-0.000,0.000,0.000,125.95383,0.000*6A
$GPGGA,090940.90,3542.311630049,N,13943.291406399,E,5,11,1.28,24.209,M,36.997,M,3.9,2107*4D
$PMSBATV,090940.90,2,2,1.65859,0.41158,138.34073,0.000,0.000,0.000,125.95383,0.000*44
$GPGGA,090941.00,3542.311630045,N,13943.291406402,E,5,11,1.28,24.209,M,36.997,M,4.0,2107*42
$PMSBATV,090941.00,2,2,1.65560,0.40996,138.33895,-0.000,-0.000,0.000,125.95383,0.000*47
$GPGGA,090941.10,3542.311630039,N,13943.291406403,E,5,11,1.28,24.209,M,36.997,M,4.1,2107*48
$PMSBATV,090941.10,2,2,1.65667,0.41004,138.33877,-0.000,-0.000,0.000,125.95383,0.000*4D
$GPGGA,090941.20,3542.311630033,N,13943.291406404,E,5,11,1.28,24.209,M,36.997,M,4.2,2107*45
$PMSBATV,090941.20,2,2,1.65449,0.41127,138.33989,0.000,0.000,0.000,125.95383,0.000*40
$GPGGA,090941.30,3542.311630027,N,13943.291406404,E,5,11,1.28,24.209,M,36.997,M,4.3,2107*40
$PMSBATV,090941.30,2,2,1.64936,0.40969,138.33908,-0.000,0.000,0.000,125.95383,0.000*62
$GPGGA,090941.40,3542.311630019,N,13943.291406423,E,5,11,1.28,24.209,M,36.997,M,4.4,2107*48
$PMSBATV,090941.40,2,2,1.65444,0.40713,138.33929,-0.000,0.000,0.000,125.95383,0.000*6C
$GPGGA,090941.50,3542.311630017,N,13943.291406447,E,5,11,1.28,24.209,M,36.997,M,4.5,2107*44
$PMSBATV,090941.50,2,2,1.65828,0.40813,138.33666,-0.000,0.000,-0.000,125.95383,0.000*4D
$GPGGA,090941.60,3542.311630012,N,13943.291406468,E,5,11,1.28,24.209,M,36.997,M,4.6,2107*4C
$PMSBATV,090941.60,2,2,1.65608,0.40800,138.33641,-0.000,0.000,0.000,125.95383,0.000*68
$GPGGA,090941.70,3542.311630006,N,13943.291406491,E,5,11,1.28,24.209,M,36.997,M,4.7,2107*4F
$PMSBATV,090941.70,2,2,1.65335,0.40927,138.33566,0.000,0.000,0.000,125.95383,0.000*4D
$GPGGA,090941.80,3542.311630002,N,13943.291406513,E,5,11,1.28,24.209,M,36.997,M,4.8,2107*40
$PMSBATV,090941.80,2,2,1.65783,0.41147,138.33730,-0.000,0.000,0.000,125.95383,0.000*68
$GPGGA,090941.90,3542.311630014,N,13943.291406542,E,5,11,1.28,24.209,M,36.997,M,4.9,2107*43
$PMSBATV,090941.90,2,2,1.65534,0.41085,138.33788,-0.000,0.000,-0.000,125.95383,0.000*46
$GPGGA,090942.00,3542.311630010,N,13943.291406566,E,5,11,1.28,24.209,M,36.997,M,5.0,2107*43
$PMSBATV,090942.00,2,2,1.64782,0.41284,138.33664,-0.000,0.000,0.000,125.95383,0.000*6F
$GPGGA,090942.10,3542.311630003,N,13943.291406567,E,5,11,1.28,24.209,M,36.997,M,5.1,2107*40
$PMSBATV,090942.10,2,2,1.64797,0.41257,138.33661,0.000,0.000,0.000,125.95383,0.000*4C
$GPGGA,090942.20,3542.311630000,N,13943.291406569,E,5,11,1.28,24.209,M,36.997,M,5.2,2107*4D
$PMSBATV,090942.20,2,2,1.65932,0.41211,138.33736,-0.000,-0.000,0.000,125.95383,0.000*4E
$GPGGA,090942.30,3542.311630011,N,13943.291406602,E,5,11,1.28,24.209,M,36.997,M,5.3,2107*43
$PMSBATV,090942.30,2,2,1.65242,0.41186,138.34019,0.000,0.000,0.000,125.95383,0.000*43
$GPGGA,090942.40,3542.311630023,N,13943.291406635,E,5,11,1.28,24.210,M,36.997,M,5.4,2107*4E
$PMSBATV,090942.40,2,2,1.64998,0.40853,138.34062,0.000,-0.000,0.000,125.95383,0.000*68
$GPGGA,090942.50,3542.311630036,N,13943.291406669,E,5,11,1.28,24.210,M,36.997,M,5.5,2107*43
$PMSBATV,090942.50,2,2,1.66164,0.40727,138.34388,0.000,-0.000,0.000,125.95383,0.000*6B
$GPGGA,090942.60,3542.311630034,N,13943.291406694,E,5,11,1.28,24.210,M,36.997,M,5.6,2107*43
$PMSBATV,090942.60,2,2,1.65968,0.40814,138.34268,-0.000,0.000,0.000,125.95383,0.000*6F
$GPGGA,090942.70,3542.311630027,N,13943.291406700,E,5,11,1.28,24.210,M,36.997,M,5.7,2107*4D
$PMSBATV,090942.70,2,2,1.65254,0.40778,138.34416,0.000,-0.000,-0.000,125.95383,0.000*4D
$GPGGA,090942.80,3542.311630021,N,13943.291406706,E,5,11,1.28,24.210,M,36.997,M,5.8,2107*4D
$PMSBATV,090942.80,2,2,1.65063,0.40796,138.34135,-0.000,0.000,0.000,125.95383,0.000*6D
$GPGGA,090942.90,3542.311630033,N,13943.291406740,E,5,11,1.28,24.210,M,36.997,M,5.9,2107*4C
$PMSBATV,090942.90,2,2,1.64661,0.40831,138.34105,0.000,0.000,-0.000,125.95383,0.000*68
$GPGGA,090943.00,3542.311630028,N,13943.291406742,E,5,11,1.28,24.210,M,36.997,M,6.0,2107*46
$PMSBATV,090943.00,2,2,1.64479,0.40876,138.34040,-0.000,0.000,0.000,125.95383,0.000*68
$GPGGA,090943.10,3542.311630022,N,13943.291406748,E,5,11,1.28,24.210,M,36.997,M,6.1,2107*46
$PMSBATV,090943.10,2,2,1.64440,0.40639,138.34366,0.000,-0.000,0.000,125.95383,0.000*61
$GPGGA,090943.20,3542.311630018,N,13943.291406755,E,5,11,1.28,24.210,M,36.997,M,6.2,2107*43
$PMSBATV,090943.20,2,2,1.64708,0.40351,138.33808,-0.000,-0.000,-0.000,125.95383,0.000*62
$GPGGA,090943.30,3542.311630014,N,13943.291406756,E,5,11,1.28,24.210,M,36.997,M,6.3,2107*4C
$PMSBATV,090943.30,2,2,1.64727,0.40275,138.34040,0.000,-0.000,-0.000,125.95383,0.000*47
$GPGGA,090943.40,3542.311630007,N,13943.291406761,E,5,11,1.28,24.210,M,36.997,M,6.4,2107*4A
$PMSBATV,090943.40,2,2,1.64492,0.40450,138.33797,0.000,-0.000,0.000,125.95383,0.000*6B
$GPGGA,090943.50,3542.311630001,N,13943.291406767,E,5,11,1.28,24.210,M,36.997,M,6.5,2107*4A
$PMSBATV,090943.50,2,2,1.64616,0.40247,138.33709,-0.000,0.000,0.000,125.95383,0.000*63
$GPGGA,090943.60,3542.311629996,N,13943.291406771,E,5,11,1.28,24.210,M,36.997,M,6.6,2107*42
$PMSBATV,090943.60,2,2,1.64830,0.40119,138.33611,0.000,-0.000,0.000,125.95383,0.000*6A
$GPGGA,090943.70,3542.311629994,N,13943.291406776,E,5,11,1.28,24.210,M,36.997,M,6.7,2107*47
$PMSBATV,090943.70,2,2,1.64807,0.40129,138.33758,-0.000,-0.000,0.000,125.95383,0.000*4D
$GPGGA,090943.80,3542.311629991,N,13943.291406802,E,5,11,1.28,24.210,M,36.997,M,6.8,2107*4E
$PMSBATV,090943.80,2,2,1.65083,0.40417,138.33535,-0.000,0.000,0.000,125.95383,0.000*6B
$GPGGA,090943.90,3542.311629985,N,13943.291406805,E,5,11,1.28,24.210,M,36.997,M,6.9,2107*4C
$PMSBATV,090943.90,2,2,1.64674,0.40587,138.33540,0.000,0.000,0.000,125.95383,0.000*42
$GPGGA,090944.00,3542.311629998,N,13943.291406836,E,5,11,1.28,24.210,M,36.997,M,7.0,2107*46
$PMSBATV,090944.00,2,2,1.64385,0.40679,138.33546,-0.000,-0.000,0.000,125.95383,0.000*43
$GPGGA,090944.10,3542.311630007,N,13943.291406856,E,5,11,1.28,24.210,M,36.997,M,2.1,2107*42
$PMSBATV,090944.10,2,2,1.64459,0.40641,138.33575,-0.000,0.000,-0.000,125.95383,0.000*4F
$GPGGA,090944.20,3542.311630020,N,13943.291406889,E,5,11,1.28,24.210,M,36.997,M,2.2,2107*45
$PMSBATV,090944.20,2,2,1.64901,0.40488,138.33541,0.000,0.000,-0.000,125.95383,0.000*61
$GPGGA,090944.30,3542.311630032,N,13943.291406916,E,5,11,1.28,24.210,M,36.997,M,2.3,2107*41
$PMSBATV,090944.30,2,2,1.64855,0.40492,138.33366,-0.000,0.000,0.000,125.95383,0.000*68
$GPGGA,090944.40,3542.311630045,N,13943.291406946,E,5,11,1.28,24.210,M,36.997,M,2.4,2107*44
$PMSBATV,090944.40,2,2,1.64772,0.40267,138.33219,-0.000,-0.000,-0.000,125.95383,0.000*60
$GPGGA,090944.50,3542.311630055,N,13943.291406970,E,5,11,1.28,24.210,M,36.997,M,2.5,2107*40
$PMSBATV,090944.50,2,2,1.64755,0.40420,138.33441,0.000,0.000,0.000,125.95383,0.000*47
$GPGGA,090944.60,3542.311630063,N,13943.291406991,E,5,11,1.28,24.210,M,36.997,M,2.6,2107*4A
$PMSBATV,090944.60,2,2,1.64959,0.40457,138.33472,0.000,0.000,0.000,125.95383,0.000*46
$GPGGA,090944.70,3542.311630074,N,13943.291407013,E,5,11,1.28,24.210,M,36.997,M,2.7,2107*4E
$PMSBATV,090944.70,2,2,1.65387,0.40453,138.33506,-0.000,-0.000,0.000,125.95383,0.000*49
$GPGGA,090944.80,3542.311630080,N,13943.291407036,E,5,11,1.28,24.210,M,36.997,M,2.8,2107*42
$PMSBATV,090944.80,2,2,1.65415,0.40559,138.33483,0.000,0.000,-0.000,125.95383,0.000*60
$GPGGA,090944.90,3542.311630089,N,13943.291407057,E,5,11,1.28,24.210,M,36.997,M,2.9,2107*4C
$PMSBATV,090944.90,2,2,1.65074,0.40672,138.33402,0.000,-0.000,0.000,125.95383,0.000*61
$GPGGA,090945.00,3542.311630099,N,13943.291407077,E,5,11,1.28,24.210,M,36.997,M,3.0,2107*4F
$PMSBATV,090945.00,2,2,1.65092,0.40293,138.33416,-0.000,-0.000,0.000,125.95383,0.000*42
$GPGGA,090945.10,3542.311630108,N,13943.291407100,E,5,11,1.28,24.211,M,36.997,M,3.1,2107*46
$PMSBATV,090945.10,2,2,1.65397,0.40263,138.33560,-0.000,-0.000,0.000,125.95383,0.000*4A
$GPGGA,090945.20,3542.311630115,N,13943.291407122,E,5,11,1.28,24.211,M,36.997,M,3.2,2107*4A
$PMSBATV,090945.20,2,2,1.65058,0.40261,138.33344,0.000,-0.000,-0.000,125.95383,0.000*4B
$GPGGA,090945.30,3542.311630123,N,13943.291407143,E,5,11,1.28,24.211,M,36.997,M,3.3,2107*48
$PMSBATV,090945.30,2,2,1.64910,0.39936,138.33380,0.000,0.000,-0.000,125.95383,0.000*6C
$GPGGA,090945.40,3542.311630129,N,13943.291407165,E,5,11,1.28,24.211,M,36.997,M,3.4,2107*46
$PMSBATV,090945.40,2,2,1.64881,0.39996,138.33292,-0.000,0.000,0.000,125.95383,0.000*6A
$GPGGA,090945.50,3542.311630137,N,13943.291407187,E,5,11,1.28,24.211,M,36.997,M,3.5,2107*45
$PMSBATV,090945.50,2,2,1.64621,0.40111,138.33465,0.000,0.000,-0.000,125.95383,0.000*68
$GPGGA,090945.60,3542.311630144,N,13943.291407207,E,5,11,1.28,24.211,M,36.997,M,3.6,2107*4A
$PMSBATV,090945.60,2,2,1.64249,0.40052,138.33458,0.000,-0.000,0.000,125.95383,0.000*69
$GPGGA,090945.70,3542.311630154,N,13943.291407229,E,5,11,1.28,24.211,M,36.997,M,3.7,2107*47
$PMSBATV,090945.70,2,2,1.64491,0.39844,138.33586,-0.000,-0.000,0.000,125.95383,0.000*45
$GPGGA,090945.80,3542.311630163,N,13943.291407251,E,5,11,1.28,24.211,M,36.997,M,3.8,2107*4C
$PMSBATV,090945.80,2,2,1.64979,0.39937,138.33571,0.000,0.000,-0.000,125.95383,0.000*61
$GPGGA,090945.90,3542.311630170,N,13943.291407270,E,5,11,1.28,24.211,M,36.997,M,3.9,2107*4D
$PMSBATV,090945.90,2,2,1.64956,0.40156,138.33864,0.000,0.000,0.000,125.95383,0.000*48
$GPGGA,090946.00,3542.311630179,N,13943.291407292,E,5,11,1.28,24.211,M,36.997,M,4.0,2107*4C
$PMSBATV,090946.00,2,2,1.64314,0.40146,138.33805,0.000,0.000,0.000,125.95383,0.000*48
$GPGGA,090946.10,3542.311630185,N,13943.291407310,E,5,11,1.28,24.211,M,36.997,M,4.1,2107*44
$PMSBATV,090946.10,2,2,1.64489,0.40233,138.33908,0.000,-0.000,-0.000,125.95383,0.000*47
$GPGGA,090946.20,3542.311630191,N,13943.291407329,E,5,11,1.28,24.211,M,36.997,M,4.2,2107*4B
$PMSBATV,090946.20,2,2,1.64890,0.39950,138.34069,0.000,0.000,-0.000,125.95383,0.000*64
$GPGGA,090946.30,3542.311630194,N,13943.291407345,E,5,11,1.28,24.211,M,36.997,M,4.3,2107*44
$PMSBATV,090946.30,2,2,1.65273,0.39652,138.34161,0.000,0.000,-0.000,125.95383,0.000*67
$GPGGA,090946.40,3542.311630200,N,13943.291407363,E,5,11,1.28,24.211,M,36.997,M,4.4,2107*4E
$PMSBATV,090946.40,2,2,1.66796,0.39854,138.33925,0.000,0.000,-0.000,125.95383,0.000*6A
$GPGGA,090946.50,3542.311630209,N,13943.291407382,E,5,11,1.28,24.211,M,36.997,M,4.5,2107*48
$PMSBATV,090946.50,2,2,1.67234,0.39728,138.33990,0.000,0.000,-0.000,125.95383,0.000*6D
$GPGGA,090946.60,3542.311630218,N,13943.291407401,E,5,11,1.28,24.211,M,36.997,M,4.6,2107*44
$PMSBATV,090946.60,2,2,1.66473,0.39646,138.34056,0.000,0.000,0.000,125.95383,0.000*4A
$GPGGA,090946.70,3542.311630224,N,13943.291407418,E,5,11,1.28,24.211,M,36.997,M,4.7,2107*43
$PMSBATV,090946.70,2,2,1.66958,0.40027,138.34066,0.000,0.000,-0.000,125.95383,0.000*6E
$GPGGA,090946.80,3542.311630232,N,13943.291407435,E,5,11,1.28,24.211,M,36.997,M,4.8,2107*4B
$PMSBATV,090946.80,2,2,1.67999,0.40225,138.33903,-0.000,0.000,-0.000,125.95383,0.000*4D
$GPGGA,090946.90,3542.311630241,N,13943.291407454,E,5,11,1.28,24.211,M,36.997,M,4.9,2107*48
$PMSBATV,090946.90,2,2,1.67171,0.40378,138.33966,-0.000,0.000,-0.000,125.95383,0.000*48
$GPGGA,090947.00,3542.311630248,N,13943.291407472,E,5,11,1.28,24.211,M,36.997,M,5.0,2107*45
$PMSBATV,090947.00,2,2,1.66214,0.40457,138.33905,0.000,0.000,0.000,125.95383,0.000*4E
$GPGGA,090947.10,3542.311630258,N,13943.291407490,E,5,11,1.28,24.211,M,36.997,M,5.1,2107*48
$PMSBATV,090947.10,2,2,1.66821,0.40516,138.33841,-0.000,0.000,0.000,125.95383,0.000*6B
$GPGGA,090947.20,3542.311630267,N,13943.291407509,E,5,11,1.28,24.211,M,36.997,M,5.2,2107*45
$PMSBATV,090947.20,2,2,1.67202,0.40133,138.33814,0.000,0.000,0.000,125.95383,0.000*4C
$GPGGA,090947.30,3542.311630275,N,13943.291407528,E,5,11,1.28,24.211,M,36.997,M,5.3,2107*45
$PMSBATV,090947.30,2,2,1.66487,0.40040,138.33909,-0.000,0.000,0.000,125.95383,0.000*62
$GPGGA,090947.40,3542.311630282,N,13943.291407546,E,5,11,1.28,24.211,M,36.997,M,5.4,2107*45
$PMSBATV,090947.40,2,2,1.66715,0.40103,138.33813,0.000,0.000,0.000,125.95383,0.000*4C
$GPGGA,090947.50,3542.311630291,N,13943.291407566,E,5,11,1.28,24.212,M,36.997,M,5.5,2107*46
$PMSBATV,090947.50,2,2,1.67525,0.40267,138.33756,0.000,-0.000,0.000,125.95383,0.000*6F
$GPGGA,090947.60,3542.311630286,N,13943.291407579,E,5,11,1.28,24.212,M,36.997,M,5.6,2107*4E
$PMSBATV,090947.60,2,2,1.67050,0.40393,138.33795,0.000,0.000,0.000,125.95383,0.000*43
$GPGGA,090947.70,3542.311630281,N,13943.291407589,E,5,11,1.28,24.212,M,36.997,M,5.7,2107*46
$PMSBATV,090947.70,2,2,1.66341,0.40275,138.33957,-0.000,0.000,0.000,125.95383,0.000*64
$GPGGA,090947.80,3542.311630276,N,13943.291407599,E,5,11,1.28,24.212,M,36.997,M,5.8,2107*4F
$PMSBATV,090947.80,2,2,1.66878,0.40506,138.33921,-0.000,-0.000,0.000,125.95383,0.000*45
$GPGGA,090947.90,3542.311630272,N,13943.291407612,E,5,11,1.28,24.212,M,36.997,M,5.9,2107*4B
$PMSBATV,090947.90,2,2,1.67138,0.40933,138.33854,0.000,-0.000,-0.000,125.95383,0.000*41
$GPGGA,090948.00,3542.311630265,N,13943.291407621,E,5,11,1.28,24.212,M,36.997,M,6.0,2107*41
$PMSBATV,090948.00,2,2,1.66174,0.41117,138.33987,-0.000,-0.000,0.000,125.95383,0.000*4E
$GPGGA,090948.10,3542.311630272,N,13943.291407636,E,5,11,1.28,24.212,M,36.997,M,1.1,2107*46
$PMSBATV,090948.10,2,2,1.66386,0.41148,138.33867,-0.000,0.000,0.000,125.95383,0.000*68
$GPGGA,090948.20,3542.311630280,N,13943.291407653,E,5,11,1.28,24.212,M,36.997,M,1.2,2107*48
$PMSBATV,090948.20,2,2,1.66671,0.40992,138.33877,0.000,0.000,-0.000,125.95383,0.000*69
$GPGGA,090948.30,3542.311630289,N,13943.291407668,E,5,11,1.28,24.212,M,36.997,M,1.3,2107*49
$PMSBATV,090948.30,2,2,1.66009,0.41073,138.33748,-0.000,0.000,-0.000,125.95383,0.000*48
$GPGGA,090948.40,3542.311630295,N,13943.291407682,E,5,11,1.28,24.212,M,36.997,M,1.4,2107*40
$PMSBATV,090948.40,2,2,1.65830,0.41156,138.33852,-0.000,0.000,0.000,125.95383,0.000*61
$GPGGA,090948.50,3542.311630304,N,13943.291407697,E,5,11,1.28,24.212,M,36.997,M,1.5,2107*4D
$PMSBATV,090948.50,2,2,1.66958,0.41338,138.33787,-0.000,-0.000,-0.000,125.95383,0.000*61
$GPGGA,090948.60,3542.311630309,N,13943.291407711,E,5,11,1.28,24.212,M,36.997,M,1.6,2107*4F
$PMSBATV,090948.60,2,2,1.66039,0.41355,138.33958,0.000,0.000,0.000,125.95383,0.000*46
$GPGGA,090948.70,3542.311630315,N,13943.291407723,E,5,11,1.28,24.212,M,36.997,M,1.7,2107*43
$PMSBATV,090948.70,2,2,1.65463,0.41248,138.34362,-0.000,0.000,0.000,125.95383,0.000*6B
$GPGGA,090948.80,3542.311630321,N,13943.291407738,E,5,11,1.28,24.212,M,36.997,M,1.8,2107*4E
$PMSBATV,090948.80,2,2,1.66286,0.41458,138.34434,0.000,0.000,0.000,125.95383,0.000*44
$GPGGA,090948.90,3542.311630316,N,13943.291407747,E,5,11,1.28,24.212,M,36.997,M,1.9,2107*42
$PMSBATV,090948.90,2,2,1.66616,0.41555,138.34706,-0.000,-0.000,-0.000,125.95383,0.000*6B
$GPGGA,090949.00,3542.311630309,N,13943.291407753,E,5,11,1.28,24.212,M,36.997,M,2.0,2107*4B
$PMSBATV,090949.00,2,2,1.66017,0.41778,138.34719,-0.000,0.000,0.000,125.95383,0.000*67
$GPGGA,090949.10,3542.311630303,N,13943.291407758,E,5,11,1.28,24.212,M,36.997,M,2.1,2107*4A
$PMSBATV,090949.10,2,2,1.66861,0.41976,138.34714,-0.000,-0.000,-0.000,125.95383,0.000*62
$GPGGA,090949.20,3542.311630297,N,13943.291407761,E,5,11,1.28,24.212,M,36.997,M,2.2,2107*4C
$PMSBATV,090949.20,2,2,1.67034,0.42149,138.34459,-0.000,0.000,0.000,125.95383,0.000*65
$GPGGA,090949.30,3542.311630292,N,13943.291407767,E,5,11,1.28,24.212,M,36.997,M,2.3,2107*4F
$PMSBATV,090949.30,2,2,1.66163,0.42208,138.34492,-0.000,0.000,-0.000,125.95383,0.000*4A
$GPGGA,090949.40,3542.311630285,N,13943.291407773,E,5,11,1.28,24.212,M,36.997,M,2.4,2107*4C
$PMSBATV,090949.40,2,2,1.65939,0.42027,138.34387,-0.000,0.000,0.000,125.95383,0.000*68
$GPGGA,090949.50,3542.311630292,N,13943.291407781,E,5,11,1.28,24.212,M,36.997,M,2.5,2107*47
$PMSBATV,090949.50,2,2,1.66987,0.42187,138.34386,-0.000,0.000,-0.000,125.95383,0.000*48
$GPGGA,090949.60,3542.311630285,N,13943.291407783,E,5,11,1.28,24.212,M,36.997,M,2.6,2107*43
$PMSBATV,090949.60,2,2,1.65805,0.42086,138.34417,-0.000,0.000,0.000,125.95383,0.000*61
$GPGGA,090949.70,3542.311630278,N,13943.291407787,E,5,11,1.28,24.212,M,36.997,M,2.7,2107*45
$PMSBATV,090949.70,2,2,1.65425,0.42171,138.34684,-0.000,-0.000,-0.000,125.95383,0.000*6F
$GPGGA,090949.80,3542.311630274,N,13943.291407790,E,5,11,1.28,24.212,M,36.997,M,2.8,2107*4F
$PMSBATV,090949.80,2,2,1.66324,0.42372,138.34645,-0.000,-0.000,0.000,125.95383,0.000*44
$GPGGA,090949.90,3542.311630269,N,13943.291407794,E,5,11,1.28,24.212,M,36.997,M,2.9,2107*47
$PMSBATV,090949.90,2,2,1.66299,0.42417,138.34548,-0.000,-0.000,0.000,125.95383,0.000*48
$GPGGA,090950.00,3542.311630261,N,13943.291407794,E,5,11,1.28,24.212,M,36.997,M,3.0,2107*46
$PMSBATV,090950.00,2,2,1.65550,0.42253,138.34828,-0.000,0.000,0.000,125.95383,0.000*68
$GPGGA,090950.10,3542.311630257,N,13943.291407798,E,5,11,1.28,24.212,M,36.997,M,3.1,2107*4F
$PMSBATV,090950.10,2,2,1.65811,0.42007,138.34734,-0.000,-0.000,0.000,125.95383,0.000*4D
$GPGGA,090950.20,3542.311630248,N,13943.291407798,E,5,11,1.28,24.212,M,36.997,M,3.2,2107*41
$PMSBATV,090950.20,2,2,1.65655,0.41892,138.34693,-0.000,0.000,0.000,125.95383,0.000*66
$GPGGA,090950.30,3542.311630255,N,13943.291407807,E,5,11,1.28,24.212,M,36.997,M,3.3,2107*44
$PMSBATV,090950.30,2,2,1.65833,0.41695,138.34585,-0.000,0.000,0.000,125.95383,0.000*64
$GPGGA,090950.40,3542.311630260,N,13943.291407816,E,5,11,1.28,24.212,M,36.997,M,3.4,2107*42
$PMSBATV,090950.40,2,2,1.65786,0.41537,138.34465,-0.000,-0.000,0.000,125.95383,0.000*4B
$GPGGA,090950.50,3542.311630256,N,13943.291407820,E,5,11,1.28,24.212,M,36.997,M,3.5,2107*42
$PMSBATV,090950.50,2,2,1.66498,0.41633,138.34518,-0.000,-0.000,0.000,125.95383,0.000*49
$GPGGA,090950.60,3542.311630250,N,13943.291407825,E,5,11,1.28,24.212,M,36.997,M,3.6,2107*41
$PMSBATV,090950.60,2,2,1.66147,0.41550,138.34614,-0.000,0.000,-0.000,125.95383,0.000*44
$GPGGA,090950.70,3542.311630245,N,13943.291407829,E,5,11,1.28,24.212,M,36.997,M,3.7,2107*49
$PMSBATV,090950.70,2,2,1.65845,0.41529,138.34620,-0.000,0.000,-0.000,125.95383,0.000*44
$GPGGA,090950.80,3542.311630238,N,13943.291407832,E,5,11,1.28,24.212,M,36.997,M,3.8,2107*49
$PMSBATV,090950.80,2,2,1.66130,0.41449,138.34686,-0.000,0.000,0.000,125.95383,0.000*65
$GPGGA,090950.90,3542.311630232,N,13943.291407837,E,5,11,1.28,24.212,M,36.997,M,3.9,2107*46
$PMSBATV,090950.90,2,2,1.66023,0.41407,138.34623,-0.000,-0.000,0.000,125.95383,0.000*4F
$GPGGA,090951.00,3542.311630225,N,13943.291407842,E,5,11,1.28,24.212,M,36.997,M,4.0,2107*44
$PMSBATV,090951.00,2,2,1.65829,0.41174,138.34681,-0.000,0.000,-0.000,125.95383,0.000*4F
$GPGGA,090951.10,3542.311630217,N,13943.291407847,E,5,11,1.28,24.212,M,36.997,M,4.1,2107*40
$PMSBATV,090951.10,2,2,1.65222,0.41071,138.34368,-0.000,0.000,0.000,125.95383,0.000*64
$GPGGA,090951.20,3542.311630214,N,13943.291407854,E,5,11,1.28,24.212,M,36.997,M,4.2,2107*41
$PMSBATV,090951.20,2,2,1.65678,0.40919,138.34359,-0.000,-0.000,-0.000,125.95383,0.000*68
$GPGGA,090951.30,3542.311630208,N,13943.291407860,E,5,11,1.28,24.212,M,36.997,M,4.3,2107*4B
$PMSBATV,090951.30,2,2,1.66304,0.41221,138.34287,-0.000,0.000,-0.000,125.95383,0.000*4A
$GPGGA,090951.40,3542.311630202,N,13943.291407865,E,5,11,1.28,24.212,M,36.997,M,4.4,2107*44
$PMSBATV,090951.40,2,2,1.66053,0.41264,138.34439,-0.000,0.000,0.000,125.95383,0.000*63
$GPGGA,090951.50,3542.311630194,N,13943.291407865,E,5,11,1.28,24.212,M,36.997,M,4.5,2107*48
$PMSBATV,090951.50,2,2,1.65221,0.41088,138.34298,-0.000,0.000,-0.000,125.95383,0.000*46
$GPGGA,090951.60,3542.311630186,N,13943.291407870,E,5,11,1.28,24.212,M,36.997,M,4.6,2107*4F
$PMSBATV,090951.60,2,2,1.65179,0.41214,138.34367,-0.000,-0.000,0.000,125.95383,0.000*4D
$GPGGA,090951.70,3542.311630178,N,13943.291407875,E,5,11,1.28,24.212,M,36.997,M,4.7,2107*4B
$PMSBATV,090951.70,2,2,1.64657,0.40908,138.34232,0.000,0.000,0.000,125.95383,0.000*40
$GPGGA,090951.80,3542.311630172,N,13943.291407879,E,5,11,1.28,24.212,M,36.997,M,4.8,2107*4D
$PMSBATV,090951.80,2,2,1.64852,0.40984,138.34359,-0.000,-0.000,-0.000,125.95383,0.000*61
$GPGGA,090951.90,3542.311630165,N,13943.291407882,E,5,11,1.28,24.212,M,36.997,M,4.9,2107*4F
$PMSBATV,090951.90,2,2,1.64935,0.40783,138.34208,-0.000,0.000,0.000,125.95383,0.000*6C
$GPGGA,090952.00,3542.311630157,N,13943.291407888,E,5,11,1.28,24.212,M,36.997,M,5.0,2107*46
$PMSBATV,090952.00,2,2,1.65606,0.41275,138.34526,-0.000,0.000,0.000,125.95383,0.000*6E
$GPGGA,090952.10,3542.311630148,N,13943.291407894,E,5,11,1.28,24.212,M,36.997,M,5.1,2107*45
$PMSBATV,090952.10,2,2,1.66261,0.41599,138.34645,0.000,0.000,-0.000,125.95383,0.000*6A
$GPGGA,090952.20,3542.311630142,N,13943.291407896,E,5,11,1.28,24.212,M,36.997,M,5.2,2107*4D
$PMSBATV,090952.20,2,2,1.65772,0.41420,138.34491,-0.000,0.000,-0.000,125.95383,0.000*48
$GPGGA,090952.30,3542.311630132,N,13943.291407898,E,5,11,1.28,24.212,M,36.997,M,5.3,2107*44
$PMSBATV,090952.30,2,2,1.65061,0.41465,138.34330,-0.000,0.000,0.000,125.95383,0.000*6C
$GPGGA,090952.40,3542.311630137,N,13943.291407912,E,5,11,1.28,24.212,M,36.997,M,5.4,2107*42
$PMSBATV,090952.40,2,2,1.66399,0.41545,138.34439,0.000,-0.000,0.000,125.95383,0.000*61
$GPGGA,090952.50,3542.311630130,N,13943.291407914,E,5,11,1.28,24.212,M,36.997,M,5.5,2107*43
$PMSBATV,090952.50,2,2,1.65767,0.41383,138.34348,-0.000,0.000,0.000,125.95383,0.000*6B
$GPGGA,090952.60,3542.311630125,N,13943.291407918,E,5,11,1.28,24.212,M,36.997,M,5.6,2107*4B
$PMSBATV,090952.60,2,2,1.65542,0.41323,138.34491,-0.000,-0.000,0.000,125.95383,0.000*49
$GPGGA,090952.70,3542.311630121,N,13943.291407923,E,5,11,1.28,24.212,M,36.997,M,5.7,2107*47
$PMSBATV,090952.70,2,2,1.66002,0.41299,138.34490,-0.000,-0.000,0.000,125.95383,0.000*4B
$GPGGA,090952.80,3542.311630117,N,13943.291407930,E,5,11,1.28,24.212,M,36.997,M,5.8,2107*40
$PMSBATV,090952.80,2,2,1.66815,0.41554,138.34548,-0.000,-0.000,0.000,125.95383,0.000*48
$GPGGA,090952.90,3542.311630112,N,13943.291407936,E,5,11,1.28,24.212,M,36.997,M,5.9,2107*43
$PMSBATV,090952.90,2,2,1.66279,0.41577,138.34603,-0.000,0.000,0.000,125.95383,0.000*69
$GPGGA,090953.00,3542.311630106,N,13943.291407938,E,5,11,1.28,24.212,M,36.997,M,6.0,2107*4A
$PMSBATV,090953.00,2,2,1.65876,0.41637,138.34772,0.000,0.000,0.000,125.95383,0.000*4A
$GPGGA,090953.10,3542.311630102,N,13943.291407941,E,5,11,1.28,24.212,M,36.997,M,1.1,2107*47
$PMSBATV,090953.10,2,2,1.66280,0.41622,138.34577,-0.000,0.000,0.000,125.95383,0.000*65
$GPGGA,090953.20,3542.311630097,N,13943.291407946,E,5,11,1.28,24.213,M,36.997,M,1.2,2107*4C
$PMSBATV,090953.20,2,2,1.66462,0.41850,138.34719,-0.000,0.000,0.000,125.95383,0.000*6D
$GPGGA,090953.30,3542.311630091,N,13943.291407947,E,5,11,1.28,24.213,M,36.997,M,1.3,2107*4B
$PMSBATV,090953.30,2,2,1.65183,0.41804,138.34718,-0.000,-0.000,0.000,125.95383,0.000*48
$GPGGA,090953.40,3542.311630088,N,13943.291407952,E,5,11,1.28,24.213,M,36.997,M,1.4,2107*47
$PMSBATV,090953.40,2,2,1.66131,0.41787,138.34648,-0.000,-0.000,-0.000,125.95383,0.000*68
$GPGGA,090953.50,3542.311630094,N,13943.291407958,E,5,11,1.28,24.213,M,36.997,M,1.5,2107*40
$PMSBATV,090953.50,2,2,1.65575,0.41764,138.34768,0.000,0.000,-0.000,125.95383,0.000*60
$GPGGA,090953.60,3542.311630101,N,13943.291407968,E,5,11,1.28,24.213,M,36.997,M,1.6,2107*4E
$PMSBATV,090953.60,2,2,1.65108,0.41560,138.34788,-0.000,0.000,-0.000,125.95383,0.000*48
$GPGGA,090953.70,3542.311630097,N,13943.291407973,E,5,11,1.28,24.213,M,36.997,M,1.7,2107*4A
$PMSBATV,090953.70,2,2,1.65391,0.41633,138.34577,-0.000,0.000,-0.000,125.95383,0.000*4C
$GPGGA,090953.80,3542.311630091,N,13943.291407975,E,5,11,1.28,24.213,M,36.997,M,1.8,2107*4A
$PMSBATV,090953.80,2,2,1.65688,0.41610,138.34528,-0.000,0.000,0.000,125.95383,0.000*68
$GPGGA,090953.90,3542.311630100,N,13943.291407984,E,5,11,1.28,24.213,M,36.997,M,1.9,2107*4D
$PMSBATV,090953.90,2,2,1.65747,0.41285,138.34451,-0.000,-0.000,-0.000,125.95383,0.000*6C
$GPGGA,090954.00,3542.311630095,N,13943.291407989,E,5,11,1.28,24.213,M,36.997,M,2.0,2107*49
$PMSBATV,090954.00,2,2,1.64867,0.41004,138.34451,-0.000,-0.000,0.000,125.95383,0.000*48
$GPGGA,090954.10,3542.311630101,N,13943.291408000,E,5,11,1.28,24.213,M,36.997,M,2.1,2107*42
$PMSBATV,090954.10,2,2,1.65761,0.41123,138.34565,0.000,-0.000,0.000,125.95383,0.000*6E
$GPGGA,090954.20,3542.311630109,N,13943.291408009,E,5,11,1.28,24.213,M,36.997,M,2.2,2107*43
$PMSBATV,090954.20,2,2,1.66238,0.41203,138.34474,-0.000,-0.000,0.000,125.95383,0.000*4A
$GPGGA,090954.30,3542.311630116,N,13943.291408016,E,5,11,1.28,24.213,M,36.997,M,2.3,2107*43
$PMSBATV,090954.30,2,2,1.65949,0.40909,138.34742,-0.000,0.000,0.000,125.95383,0.000*6E
$GPGGA,090954.40,3542.311630121,N,13943.291408021,E,5,11,1.28,24.213,M,36.997,M,2.4,2107*43
$PMSBATV,090954.40,2,2,1.66387,0.40902,138.34429,-0.000,0.000,0.000,125.95383,0.000*67
$GPGGA,090954.50,3542.311630127,N,13943.291408027,E,5,11,1.28,24.213,M,36.997,M,2.5,2107*43
$PMSBATV,090954.50,2,2,1.66587,0.41096,138.34460,-0.000,0.000,0.000,125.95383,0.000*68
$GPGGA,090954.60,3542.311630131,N,13943.291408033,E,5,11,1.28,24.213,M,36.997,M,2.6,2107*41
$PMSBATV,090954.60,2,2,1.66750,0.40959,138.34524,0.000,0.000,-0.000,125.95383,0.000*69
$GPGGA,090954.70,3542.311630136,N,13943.291408038,E,5,11,1.28,24.213,M,36.997,M,2.7,2107*4D
$PMSBATV,090954.70,2,2,1.66992,0.40724,138.34673,-0.000,0.000,-0.000,125.95383,0.000*40
$GPGGA,090954.80,3542.311630141,N,13943.291408044,E,5,11,1.28,24.213,M,36.997,M,2.8,2107*46
$PMSBATV,090954.80,2,2,1.66804,0.40485,138.34617,-0.000,0.000,0.000,125.95383,0.000*66
$GPGGA,090954.90,3542.311630148,N,13943.291408052,E,5,11,1.28,24.213,M,36.997,M,2.9,2107*48
$PMSBATV,090954.90,2,2,1.66498,0.40569,138.34468,-0.000,-0.000,0.000,125.95383,0.000*4A
$GPGGA,090955.00,3542.311630152,N,13943.291408061,E,5,11,1.28,24.213,M,36.997,M,3.0,2107*43
$PMSBATV,090955.00,2,2,1.65517,0.40621,138.34497,-0.000,0.000,0.000,125.95383,0.000*65
$GPGGA,090955.10,3542.311630160,N,13943.291408070,E,5,11,1.28,24.213,M,36.997,M,3.1,2107*42
$PMSBATV,090955.10,2,2,1.65888,0.40715,138.34520,-0.000,-0.000,0.000,125.95383,0.000*49
$GPGGA,090955.20,3542.311630169,N,13943.291408079,E,5,11,1.28,24.213,M,36.997,M,3.2,2107*42
$PMSBATV,090955.20,2,2,1.65779,0.41076,138.34290,-0.000,-0.000,0.000,125.95383,0.000*44
$GPGGA,090955.30,3542.311630176,N,13943.291408085,E,5,11,1.28,24.213,M,36.997,M,3.3,2107*4F
$PMSBATV,090955.30,2,2,1.65431,0.41265,138.34422,-0.000,-0.000,0.000,125.95383,0.000*45
$GPGGA,090955.40,3542.311630181,N,13943.291408095,E,5,11,1.28,24.213,M,36.997,M,3.4,2107*46
$PMSBATV,090955.40,2,2,1.65836,0.41324,138.34385,0.000,-0.000,0.000,125.95383,0.000*6A
$GPGGA,090955.50,3542.311630189,N,13943.291408104,E,5,11,1.28,24.213,M,36.997,M,3.5,2107*47
$PMSBATV,090955.50,2,2,1.67340,0.41099,138.34360,-0.000,-0.000,0.000,125.95383,0.000*40
$GPGGA,090955.60,3542.311630195,N,13943.291408109,E,5,11,1.28,24.213,M,36.997,M,3.6,2107*47
$PMSBATV,090955.60,2,2,1.67001,0.41145,138.34236,-0.000,0.000,0.000,125.95383,0.000*6A
$GPGGA,090955.70,3542.311630201,N,13943.291408115,E,5,11,1.28,24.213,M,36.997,M,3.7,2107*44
$PMSBATV,090955.70,2,2,1.65795,0.41491,138.34305,-0.000,0.000,-0.000,125.95383,0.000*43
$GPGGA,090955.80,3542.311630205,N,13943.291408123,E,5,11,1.28,24.213,M,36.997,M,3.8,2107*45
$PMSBATV,090955.80,2,2,1.66147,0.41536,138.34122,0.000,0.000,0.000,125.95383,0.000*4D
$GPGGA,090955.90,3542.311630212,N,13943.291408129,E,5,11,1.28,24.213,M,36.997,M,3.9,2107*49
$PMSBATV,090955.90,2,2,1.67385,0.41181,138.33991,-0.000,0.000,0.000,125.95383,0.000*63
$GPGGA,090956.00,3542.311630221,N,13943.291408137,E,5,11,1.28,24.213,M,36.997,M,4.0,2107*42
$PMSBATV,090956.00,2,2,1.66639,0.40727,138.34085,-0.000,-0.000,0.000,125.95383,0.000*47
$GPGGA,090956.10,3542.311630224,N,13943.291408139,E,5,11,1.28,24.213,M,36.997,M,4.1,2107*49
$PMSBATV,090956.10,2,2,1.66070,0.40671,138.34186,-0.000,0.000,0.000,125.95383,0.000*60
$GPGGA,090956.20,3542.311630229,N,13943.291408149,E,5,11,1.28,24.213,M,36.997,M,4.2,2107*43
$PMSBATV,090956.20,2,2,1.66873,0.40886,138.34188,0.000,-0.000,0.000,125.95383,0.000*60
$GPGGA,090956.30,3542.311630240,N,13943.291408156,E,5,11,1.28,24.213,M,36.997,M,4.3,2107*42
$PMSBATV,090956.30,2,2,1.67117,0.40976,138.34212,-0.000,-0.000,0.000,125.95383,0.000*48
$GPGGA,090956.40,3542.311630244,N,13943.291408159,E,5,11,1.28,24.213,M,36.997,M,4.4,2107*49
$PMSBATV,090956.40,2,2,1.65021,0.41023,138.34347,-0.000,0.000,0.000,125.95383,0.000*6D
$GPGGA,090956.50,3542.311630248,N,13943.291408165,E,5,11,1.28,24.213,M,36.997,M,4.5,2107*4A
$PMSBATV,090956.50,2,2,1.65214,0.41311,138.34098,0.000,-0.000,0.000,125.95383,0.000*6B
$GPGGA,090956.60,3542.311630257,N,13943.291408172,E,5,11,1.28,24.213,M,36.997,M,4.6,2107*42
$PMSBATV,090956.60,2,2,1.66726,0.41266,138.34039,0.000,-0.000,-0.000,125.95383,0.000*48
$GPGGA,090956.70,3542.311630264,N,13943.291408178,E,5,11,1.28,24.213,M,36.997,M,4.7,2107*48
$PMSBATV,090956.70,2,2,1.65903,0.41435,138.33923,-0.000,0.000,-0.000,125.95383,0.000*46
$GPGGA,090956.80,3542.311630270,N,13943.291408186,E,5,11,1.28,24.213,M,36.997,M,4.8,2107*4C
$PMSBATV,090956.80,2,2,1.64811,0.41445,138.34068,0.000,-0.000,0.000,125.95383,0.000*61
$GPGGA,090956.90,3542.311630276,N,13943.291408189,E,5,11,1.28,24.213,M,36.997,M,4.9,2107*45
$PMSBATV,090956.90,2,2,1.65544,0.41069,138.33671,-0.000,-0.000,0.000,125.95383,0.000*42
$GPGGA,090957.00,3542.311630286,N,13943.291408197,E,5,11,1.28,24.213,M,36.997,M,5.0,2107*45
$PMSBATV,090957.00,2,2,1.65862,0.41216,138.33659,-0.000,-0.000,0.000,125.95383,0.000*43
$GPGGA,090957.10,3542.311630294,N,13943.291408204,E,5,11,1.28,24.214,M,36.997,M,5.1,2107*48
$PMSBATV,090957.10,2,2,1.65348,0.41443,138.33718,-0.000,-0.000,-0.000,125.95383,0.000*6E
$GPGGA,090957.20,3542.311630299,N,13943.291408211,E,5,11,1.28,24.214,M,36.997,M,5.2,2107*41
$PMSBATV,090957.20,2,2,1.65499,0.41306,138.33761,0.000,-0.000,0.000,125.95383,0.000*6E
$GPGGA,090957.30,3542.311630306,N,13943.291408217,E,5,11,1.28,24.214,M,36.997,M,5.3,2107*40
$PMSBATV,090957.30,2,2,1.64991,0.41198,138.34036,-0.000,0.000,-0.000,125.95383,0.000*41
$GPGGA,090957.40,3542.311630312,N,13943.291408224,E,5,11,1.28,24.214,M,36.997,M,5.4,2107*45
$PMSBATV,090957.40,2,2,1.66112,0.41399,138.33668,0.000,-0.000,-0.000,125.95383,0.000*4E
$GPGGA,090957.50,3542.311630321,N,13943.291408231,E,5,11,1.28,24.214,M,36.997,M,5.5,2107*41
$PMSBATV,090957.50,2,2,1.66066,0.41654,138.34023,-0.000,0.000,0.000,125.95383,0.000*6A
$GPGGA,090957.60,3542.311630327,N,13943.291408234,E,5,11,1.28,24.214,M,36.997,M,5.6,2107*42
$PMSBATV,090957.60,2,2,1.65828,0.41389,138.33944,-0.000,0.000,0.000,125.95383,0.000*62
$GPGGA,090957.70,3542.311630332,N,13943.291408243,E,5,11,1.28,24.214,M,36.997,M,5.7,2107*46
$PMSBATV,090957.70,2,2,1.66335,0.41334,138.34177,0.000,-0.000,-0.000,125.95383,0.000*43
$GPGGA,090957.80,3542.311630339,N,13943.291408250,E,5,11,1.28,24.214,M,36.997,M,5.8,2107*4F
$PMSBATV,090957.80,2,2,1.65916,0.41151,138.34135,-0.000,0.000,0.000,125.95383,0.000*6E
$GPGGA,090957.90,3542.311630346,N,13943.291408257,E,5,11,1.28,24.214,M,36.997,M,5.9,2107*40
$PMSBATV,090957.90,2,2,1.66092,0.41349,138.34193,0.000,0.000,0.000,125.95383,0.000*43
$GPGGA,090958.00,3542.311630352,N,13943.291408262,E,5,11,1.28,24.214,M,36.997,M,6.0,2107*4F
$PMSBATV,090958.00,2,2,1.66265,0.41459,138.34222,-0.000,0.000,0.000,125.95383,0.000*6D
$GPGGA,090958.10,3542.311630358,N,13943.291408268,E,5,11,1.28,24.214,M,36.997,M,1.1,2107*48
$PMSBATV,090958.10,2,2,1.66413,0.41400,138.34322,-0.000,-0.000,0.000,125.95383,0.000*4B
$GPGGA,090958.20,3542.311630366,N,13943.291408277,E,5,11,1.28,24.214,M,36.997,M,1.2,2107*4B
$PMSBATV,090958.20,2,2,1.66140,0.41459,138.34231,-0.000,-0.000,0.000,125.95383,0.000*44
$GPGGA,090958.30,3542.311630371,N,13943.291408281,E,5,11,1.28,24.214,M,36.997,M,1.3,2107*44
$PMSBATV,090958.30,2,2,1.66145,0.41543,138.33886,-0.000,0.000,0.000,125.95383,0.000*66
$GPGGA,090958.40,3542.311630376,N,13943.291408288,E,5,11,1.28,24.214,M,36.997,M,1.4,2107*4A
$PMSBATV,090958.40,2,2,1.66525,0.41648,138.33523,-0.000,0.000,0.000,125.95383,0.000*69
$GPGGA,090958.50,3542.311630382,N,13943.291408296,E,5,11,1.28,24.214,M,36.997,M,1.5,2107*4E
$PMSBATV,090958.50,2,2,1.66708,0.41366,138.33528,-0.000,-0.000,0.000,125.95383,0.000*4A
$GPGGA,090958.60,3542.311630388,N,13943.291408302,E,5,11,1.28,24.214,M,36.997,M,1.6,2107*48
$PMSBATV,090958.60,2,2,1.65626,0.41234,138.33627,-0.000,0.000,-0.000,125.95383,0.000*4D
$GPGGA,090958.70,3542.311630393,N,13943.291408306,E,5,11,1.28,24.214,M,36.997,M,1.7,2107*46
$PMSBATV,090958.70,2,2,1.65544,0.41364,138.33459,-0.000,0.000,-0.000,125.95383,0.000*44
$GPGGA,090958.80,3542.311630389,N,13943.291408309,E,5,11,1.28,24.214,M,36.997,M,1.8,2107*42
$PMSBATV,090958.80,2,2,1.66096,0.41503,138.33602,0.000,-0.000,-0.000,125.95383,0.000*49
$GPGGA,090958.90,3542.311630386,N,13943.291408311,E,5,11,1.28,24.214,M,36.997,M,1.9,2107*44
$PMSBATV,090958.90,2,2,1.65824,0.41634,138.33679,-0.000,0.000,-0.000,125.95383,0.000*41
$GPGGA,090959.00,3542.311630383,N,13943.291408311,E,5,11,1.28,24.214,M,36.997,M,2.0,2107*43
$PMSBATV,090959.00,2,2,1.65463,0.41834,138.33696,-0.000,0.000,0.000,125.95383,0.000*64
$GPGGA,090959.10,3542.311630381,N,13943.291408312,E,5,11,1.28,24.214,M,36.997,M,2.1,2107*42
$PMSBATV,090959.10,2,2,1.66254,0.42108,138.33542,-0.000,0.000,0.000,125.95383,0.000*6B
$GPGGA,090959.20,3542.311630376,N,13943.291408312,E,5,11,1.28,24.214,M,36.997,M,2.2,2107*4A
$PMSBATV,090959.20,2,2,1.65825,0.42184,138.33772,-0.000,0.000,0.000,125.95383,0.000*62
$GPGGA,090959.30,3542.311630373,N,13943.291408312,E,5,11,1.28,24.214,M,36.997,M,2.3,2107*4F
$PMSBATV,090959.30,2,2,1.65669,0.41862,138.34067,-0.000,-0.000,-0.000,125.95383,0.000*63
$GPGGA,090959.40,3542.311630368,N,13943.291408312,E,5,11,1.28,24.214,M,36.997,M,2.4,2107*45
$PMSBATV,090959.40,2,2,1.66373,0.42103,138.33966,0.000,0.000,0.000,125.95383,0.000*46
$GPGGA,090959.50,3542.311630366,N,13943.291408310,E,5,11,1.28,24.214,M,36.997,M,2.5,2107*49
$PMSBATV,090959.50,2,2,1.66794,0.42171,138.33941,-0.000,0.000,-0.000,125.95383,0.000*4A
$GPGGA,090959.60,3542.311630361,N,13943.291408316,E,5,11,1.28,24.214,M,36.997,M,2.6,2107*48
$PMSBATV,090959.60,2,2,1.67642,0.42235,138.34008,0.000,0.000,-0.000,125.95383,0.000*6F
$GPGGA,090959.70,3542.311630357,N,13943.291408312,E,5,11,1.28,24.214,M,36.997,M,2.7,2107*49
$PMSBATV,090959.70,2,2,1.66240,0.41711,138.34344,-0.000,0.000,-0.000,125.95383,0.000*4F
$GPGGA,090959.80,3542.311630352,N,13943.291408312,E,5,11,1.28,24.214,M,36.997,M,2.8,2107*4C
$PMSBATV,090959.80,2,2,1.66754,0.41878,138.34283,-0.000,0.000,-0.000,125.95383,0.000*4A
$GPGGA,090959.90,3542.311630346,N,13943.291408312,E,5,11,1.28,24.214,M,36.997,M,2.9,2107*49
$PMSBATV,090959.90,2,2,1.67089,0.42252,138.34375,-0.000,0.000,-0.000,125.95383,0.000*44
$GPGGA,091000.00,3542.311630342,N,13943.291408314,E,5,11,1.28,24.214,M,36.997,M,3.0,2107*4E
$PMSBATV,091000.00,2,2,1.66640,0.42015,138.34381,0.000,0.000,-0.000,125.95383,0.000*6C
$GPGGA,091000.10,3542.311630336,N,13943.291408311,E,5,11,1.28,24.214,M,36.997,M,3.1,2107*48
$PMSBATV,091000.10,2,2,1.66802,0.41660,138.34275,-0.000,0.000,-0.000,125.95383,0.000*45
$GPGGA,091000.20,3542.311630340,N,13943.291408319,E,5,11,1.28,24.214,M,36.997,M,3.2,2107*41
$PMSBATV,091000.20,2,2,1.68151,0.41829,138.34056,-0.000,0.000,-0.000,125.95383,0.000*47
$GPGGA,091000.30,3542.311630344,N,13943.291408328,E,5,11,1.28,24.214,M,36.997,M,3.3,2107*47
$PMSBATV,091000.30,2,2,1.67407,0.42025,138.34538,-0.000,0.000,0.000,125.95383,0.000*68
$GPGGA,091000.40,3542.311630337,N,13943.291408330,E,5,11,1.28,24.214,M,36.997,M,3.4,2107*4A
$PMSBATV,091000.40,2,2,1.66654,0.42107,138.34558,-0.000,0.000,0.000,125.95383,0.000*6D
$GPGGA,091000.50,3542.311630332,N,13943.291408331,E,5,11,1.28,24.214,M,36.997,M,3.5,2107*4E
$PMSBATV,091000.50,2,2,1.66962,0.42169,138.34483,-0.000,0.000,0.000,125.95383,0.000*69
$GPGGA,091000.60,3542.311630326,N,13943.291408334,E,5,11,1.28,24.214,M,36.997,M,3.6,2107*4E
$PMSBATV,091000.60,2,2,1.67740,0.42055,138.34318,-0.000,0.000,-0.000,125.95383,0.000*43
$GPGGA,091000.70,3542.311630318,N,13943.291408336,E,5,11,1.28,24.214,M,36.997,M,3.7,2107*41
$PMSBATV,091000.70,2,2,1.67367,0.42112,138.34332,0.000,0.000,0.000,125.95383,0.000*49
$GPGGA,091000.80,3542.311630312,N,13943.291408339,E,5,11,1.28,24.214,M,36.997,M,3.8,2107*44
$PMSBATV,091000.80,2,2,1.67041,0.41796,138.34219,-0.000,-0.000,0.000,125.95383,0.000*40
$GPGGA,091000.90,3542.311630306,N,13943.291408342,E,5,11,1.28,24.214,M,36.997,M,3.9,2107*4D
$PMSBATV,091000.90,2,2,1.67247,0.41840,138.34264,-0.000,-0.000,0.000,125.95383,0.000*4B
$GPGGA,091001.00,3542.311630298,N,13943.291408344,E,5,11,1.28,24.214,M,36.997,M,4.0,2107*4B
$PMSBATV,091001.00,2,2,1.67414,0.41812,138.34434,-0.000,-0.000,0.000,125.95383,0.000*47
$GPGGA,091001.10,3542.311630291,N,13943.291408346,E,5,11,1.28,24.214,M,36.997,M,4.1,2107*40
$PMSBATV,091001.10,2,2,1.66409,0.41602,138.34458,-0.000,-0.000,0.000,125.95383,0.000*4E
$GPGGA,091001.20,3542.311630284,N,13943.291408348,E,5,11,1.28,24.214,M,36.997,M,4.2,2107*4A
$PMSBATV,091001.20,2,2,1.67294,0.41885,138.34323,-0.000,0.000,-0.000,125.95383,0.000*44
$GPGGA,091001.30,3542.311630278,N,13943.291408351,E,5,11,1.28,24.214,M,36.997,M,4.3,2107*41
$PMSBATV,091001.30,2,2,1.67711,0.41912,138.34290,-0.000,-0.000,-0.000,125.95383,0.000*66
$GPGGA,091001.40,3542.311630270,N,13943.291408354,E,5,11,1.28,24.214,M,36.997,M,4.4,2107*4C
$PMSBATV,091001.40,2,2,1.66279,0.41837,138.34239,-0.000,0.000,0.000,125.95383,0.000*6E
$GPGGA,091001.50,3542.311630263,N,13943.291408355,E,5,11,1.28,24.214,M,36.997,M,4.5,2107*4F
$PMSBATV,091001.50,2,2,1.66323,0.41693,138.34332,-0.000,-0.000,-0.000,125.95383,0.000*6B
$GPGGA,091001.60,3542.311630259,N,13943.291408357,E,5,11,1.28,24.214,M,36.997,M,4.6,2107*44
$PMSBATV,091001.60,2,2,1.67351,0.41525,138.34184,-0.000,-0.000,-0.000,125.95383,0.000*6D
$GPGGA,091001.70,3542.311630252,N,13943.291408363,E,5,11,1.28,24.214,M,36.997,M,4.7,2107*48
$PMSBATV,091001.70,2,2,1.66453,0.41697,138.34295,-0.000,-0.000,0.000,125.95383,0.000*4C
$GPGGA,091001.80,3542.311630243,N,13943.291408366,E,5,11,1.28,24.214,M,36.997,M,4.8,2107*4D
$PMSBATV,091001.80,2,2,1.65551,0.41756,138.34311,-0.000,0.000,0.000,125.95383,0.000*6F
$GPGGA,091001.90,3542.311630235,N,13943.291408368,E,5,11,1.28,24.214,M,36.997,M,4.9,2107*42
$PMSBATV,091001.90,2,2,1.66482,0.41690,138.34376,-0.000,0.000,0.000,125.95383,0.000*68
$GPGGA,091002.00,3542.311630228,N,13943.291408370,E,5,11,1.28,24.214,M,36.997,M,5.0,2107*45
$PMSBATV,091002.00,2,2,1.66712,0.41678,138.34392,-0.000,0.000,0.000,125.95383,0.000*64
$GPGGA,091002.10,3542.311630222,N,13943.291408374,E,5,11,1.28,24.214,M,36.997,M,5.1,2107*4B
$PMSBATV,091002.10,2,2,1.65901,0.41654,138.34421,-0.000,0.000,0.000,125.95383,0.000*6B
$GPGGA,091002.20,3542.311630214,N,13943.291408378,E,5,11,1.28,24.214,M,36.997,M,5.2,2107*42
$PMSBATV,091002.20,2,2,1.66257,0.41514,138.34250,-0.000,0.000,0.000,125.95383,0.000*64
$GPGGA,091002.30,3542.311630207,N,13943.291408382,E,5,11,1.28,24.214,M,36.997,M,5.3,2107*45
$PMSBATV,091002.30,2,2,1.67113,0.41652,138.34330,0.000,0.000,0.000,125.95383,0.000*4C
$GPGGA,091002.40,3542.311630203,N,13943.291408390,E,5,11,1.28,24.214,M,36.997,M,5.4,2107*42
$PMSBATV,091002.40,2,2,1.66568,0.42084,138.34186,-0.000,-0.000,0.000,125.95383,0.000*43
$GPGGA,091002.50,3542.311630195,N,13943.291408386,E,5,11,1.28,24.214,M,36.997,M,5.5,2107*49
$PMSBATV,091002.50,2,2,1.65780,0.41905,138.34148,-0.000,-0.000,0.000,125.95383,0.000*44
$GPGGA,091002.60,3542.311630190,N,13943.291408388,E,5,11,1.28,24.214,M,36.997,M,5.6,2107*42
$PMSBATV,091002.60,2,2,1.66070,0.41598,138.33950,-0.000,-0.000,0.000,125.95383,0.000*42
$GPGGA,091002.70,3542.311630182,N,13943.291408386,E,5,11,1.28,24.214,M,36.997,M,5.7,2107*4F
$PMSBATV,091002.70,2,2,1.66664,0.41615,138.33895,-0.000,-0.000,0.000,125.95383,0.000*4E
$GPGGA,091002.80,3542.311630176,N,13943.291408392,E,5,11,1.28,24.214,M,36.997,M,5.8,2107*41
$PMSBATV,091002.80,2,2,1.66756,0.41513,138.34012,0.000,0.000,0.000,125.95383,0.000*44
$GPGGA,091002.90,3542.311630170,N,13943.291408389,E,5,11,1.28,24.214,M,36.997,M,5.9,2107*4D
$PMSBATV,091002.90,2,2,1.66617,0.41576,138.34157,-0.000,0.000,-0.000,125.95383,0.000*42
$GPGGA,091003.00,3542.311630164,N,13943.291408387,E,5,11,1.28,24.214,M,36.997,M,6.0,2107*44
$PMSBATV,091003.00,2,2,1.66349,0.41435,138.34273,-0.000,0.000,-0.000,125.95383,0.000*47
$GPGGA,091003.10,3542.311630158,N,13943.291408390,E,5,11,1.28,24.214,M,36.997,M,1.1,2107*4A
$PMSBATV,091003.10,2,2,1.67037,0.41692,138.34200,0.000,-0.000,0.000,125.95383,0.000*6B
$GPGGA,091003.20,3542.311630155,N,13943.291408395,E,5,11,1.28,24.214,M,36.997,M,1.2,2107*42
$PMSBATV,091003.20,2,2,1.67156,0.41853,138.34106,-0.000,-0.000,0.000,125.95383,0.000*45
$GPGGA,091003.30,3542.311630150,N,13943.291408399,E,5,11,1.28,24.215,M,36.997,M,1.3,2107*4A
$PMSBATV,091003.30,2,2,1.66984,0.41453,138.33796,-0.000,0.000,0.000,125.95383,0.000*6B
$GPGGA,091003.40,3542.311630145,N,13943.291408402,E,5,11,1.28,24.215,M,36.997,M,1.4,2107*4B
$PMSBATV,091003.40,2,2,1.66926,0.41107,138.33877,-0.000,0.000,0.000,125.95383,0.000*60
$GPGGA,091003.50,3542.311630140,N,13943.291408406,E,5,11,1.28,24.215,M,36.997,M,1.5,2107*4A
$PMSBATV,091003.50,2,2,1.67518,0.41292,138.33589,-0.000,-0.000,0.000,125.95383,0.000*4F
$GPGGA,091003.60,3542.311630135,N,13943.291408410,E,5,11,1.28,24.215,M,36.997,M,1.6,2107*4F
$PMSBATV,091003.60,2,2,1.67740,0.41196,138.33431,-0.000,-0.000,0.000,125.95383,0.000*46
$GPGGA,091003.70,3542.311630129,N,13943.291408412,E,5,11,1.28,24.215,M,36.997,M,1.7,2107*40
$PMSBATV,091003.70,2,2,1.67578,0.41122,138.33488,-0.000,0.000,0.000,125.95383,0.000*6E
$GPGGA,091003.80,3542.311630124,N,13943.291408413,E,5,11,1.28,24.215,M,36.997,M,1.8,2107*4C
$PMSBATV,091003.80,2,2,1.67877,0.41082,138.33274,-0.000,0.000,0.000,125.95383,0.000*6D
$GPGGA,091003.90,3542.311630120,N,13943.291408417,E,5,11,1.28,24.215,M,36.997,M,1.9,2107*4C
$PMSBATV,091003.90,2,2,1.68248,0.41136,138.33338,-0.000,-0.000,0.000,125.95383,0.000*4F
$GPGGA,091004.00,3542.311630114,N,13943.291408416,E,5,11,1.28,24.215,M,36.997,M,2.0,2107*4E
$PMSBATV,091004.00,2,2,1.67483,0.40977,138.33472,-0.000,0.000,-0.000,125.95383,0.000*4A
$GPGGA,091004.10,3542.311630109,N,13943.291408417,E,5,11,1.28,24.215,M,36.997,M,2.1,2107*43
$PMSBATV,091004.10,2,2,1.68518,0.41081,138.33491,-0.000,0.000,-0.000,125.95383,0.000*4B
$GPGGA,091004.20,3542.311630105,N,13943.291408420,E,5,11,1.28,24.215,M,36.997,M,2.2,2107*4B
$PMSBATV,091004.20,2,2,1.68981,0.40965,138.33528,-0.000,-0.000,0.000,125.95383,0.000*45
$GPGGA,091004.30,3542.311630099,N,13943.291408422,E,5,11,1.28,24.215,M,36.997,M,2.3,2107*4D
$PMSBATV,091004.30,2,2,1.68357,0.41277,138.33622,-0.000,0.000,0.000,125.95383,0.000*68
$GPGGA,091004.40,3542.311630095,N,13943.291408428,E,5,11,1.28,24.215,M,36.997,M,2.4,2107*4B
$PMSBATV,091004.40,2,2,1.68079,0.41074,138.33660,0.000,0.000,-0.000,125.95383,0.000*67
$GPGGA,091004.50,3542.311630090,N,13943.291408431,E,5,11,1.28,24.215,M,36.997,M,2.5,2107*46
$PMSBATV,091004.50,2,2,1.68030,0.40918,138.33529,0.000,0.000,-0.000,125.95383,0.000*67
$GPGGA,091004.60,3542.311630087,N,13943.291408435,E,5,11,1.28,24.215,M,36.997,M,2.6,2107*44
$PMSBATV,091004.60,2,2,1.68537,0.40921,138.33559,-0.000,0.000,-0.000,125.95383,0.000*46
$GPGGA,091004.70,3542.311630080,N,13943.291408441,E,5,11,1.28,24.215,M,36.997,M,2.7,2107*40
$PMSBATV,091004.70,2,2,1.68540,0.41187,138.33376,0.000,0.000,-0.000,125.95383,0.000*64
$GPGGA,091004.80,3542.311630076,N,13943.291408445,E,5,11,1.28,24.215,M,36.997,M,2.8,2107*4D
$PMSBATV,091004.80,2,2,1.67904,0.40863,138.33533,0.000,0.000,0.000,125.95383,0.000*40
$GPGGA,091004.90,3542.311630072,N,13943.291408449,E,5,11,1.28,24.215,M,36.997,M,2.9,2107*45
$PMSBATV,091004.90,2,2,1.67858,0.40752,138.33530,-0.000,0.000,0.000,125.95383,0.000*6A
$GPGGA,091005.00,3542.311630069,N,13943.291408454,E,5,11,1.28,24.215,M,36.997,M,3.0,2107*43
$PMSBATV,091005.00,2,2,1.68529,0.40795,138.33588,-0.000,0.000,-0.000,125.95383,0.000*43
$GPGGA,091005.10,3542.311630062,N,13943.291408459,E,5,11,1.28,24.215,M,36.997,M,3.1,2107*45
$PMSBATV,091005.10,2,2,1.68155,0.40701,138.33517,0.000,0.000,0.000,125.95383,0.000*46
$GPGGA,091005.20,3542.311630058,N,13943.291408466,E,5,11,1.28,24.215,M,36.997,M,3.2,2107*40
$PMSBATV,091005.20,2,2,1.67597,0.40495,138.33775,0.000,0.000,0.000,125.95383,0.000*48
$GPGGA,091005.30,3542.311630055,N,13943.291408472,E,5,11,1.28,24.215,M,36.997,M,3.3,2107*48
$PMSBATV,091005.30,2,2,1.66830,0.40040,138.33583,-0.000,-0.000,0.000,125.95383,0.000*4F
$GPGGA,091005.40,3542.311630050,N,13943.291408478,E,5,11,1.28,24.215,M,36.997,M,3.4,2107*47
$PMSBATV,091005.40,2,2,1.66970,0.40372,138.33588,0.000,0.000,0.000,125.95383,0.000*44
$GPGGA,091005.50,3542.311630049,N,13943.291408488,E,5,11,1.28,24.215,M,36.997,M,3.5,2107*40
$PMSBATV,091005.50,2,2,1.68023,0.40299,138.33588,0.000,-0.000,0.000,125.95383,0.000*6D
$GPGGA,091005.60,3542.311630044,N,13943.291408495,E,5,11,1.28,24.215,M,36.997,M,3.6,2107*41
$PMSBATV,091005.60,2,2,1.66558,0.39875,138.33595,-0.000,0.000,0.000,125.95383,0.000*63
$GPGGA,091005.70,3542.311630039,N,13943.291408502,E,5,11,1.28,24.215,M,36.997,M,3.7,2107*44
$PMSBATV,091005.70,2,2,1.66721,0.39880,138.33826,0.000,0.000,0.000,125.95383,0.000*4C
$GPGGA,091005.80,3542.311630036,N,13943.291408511,E,5,11,1.28,24.215,M,36.997,M,3.8,2107*49
$PMSBATV,091005.80,2,2,1.67586,0.40508,138.33824,0.000,-0.000,0.000,125.95383,0.000*61
$GPGGA,091005.90,3542.311630029,N,13943.291408517,E,5,11,1.28,24.215,M,36.997,M,3.9,2107*41
$PMSBATV,091005.90,2,2,1.67447,0.40543,138.33696,0.000,0.000,0.000,125.95383,0.000*49
$GPGGA,091006.00,3542.311630024,N,13943.291408525,E,5,11,1.28,24.215,M,36.997,M,4.0,2107*49
$PMSBATV,091006.00,2,2,1.66624,0.40510,138.33807,-0.000,-0.000,0.000,125.95383,0.000*45
$GPGGA,091006.10,3542.311630023,N,13943.291408530,E,5,11,1.28,24.215,M,36.997,M,4.1,2107*4A
$PMSBATV,091006.10,2,2,1.67581,0.40704,138.33726,-0.000,0.000,0.000,125.95383,0.000*6F
$GPGGA,091006.20,3542.311630020,N,13943.291408537,E,5,11,1.28,24.215,M,36.997,M,4.2,2107*4E
$PMSBATV,091006.20,2,2,1.67964,0.40856,138.33649,-0.000,0.000,-0.000,125.95383,0.000*46
$GPGGA,091006.30,3542.311630016,N,13943.291408547,E,5,11,1.28,24.215,M,36.997,M,4.3,2107*4C
$PMSBATV,091006.30,2,2,1.67065,0.41058,138.33792,0.000,-0.000,0.000,125.95383,0.000*62
$GPGGA,091006.40,3542.311630011,N,13943.291408552,E,5,11,1.28,24.215,M,36.997,M,4.4,2107*4F
$PMSBATV,091006.40,2,2,1.66827,0.40924,138.33870,-0.000,0.000,-0.000,125.95383,0.000*47
$GPGGA,091006.50,3542.311630009,N,13943.291408556,E,5,11,1.28,24.215,M,36.997,M,4.5,2107*42
$PMSBATV,091006.50,2,2,1.66819,0.41092,138.33698,-0.000,0.000,0.000,125.95383,0.000*6B
$GPGGA,091006.60,3542.311630005,N,13943.291408560,E,5,11,1.28,24.215,M,36.997,M,4.6,2107*4B
$PMSBATV,091006.60,2,2,1.66453,0.41741,138.33458,-0.000,0.000,-0.000,125.95383,0.000*40
$GPGGA,091006.70,3542.311629998,N,13943.291408564,E,5,11,1.28,24.215,M,36.997,M,4.7,2107*4A
$PMSBATV,091006.70,2,2,1.66049,0.41922,138.33510,-0.000,0.000,0.000,125.95383,0.000*65
$GPGGA,091006.80,3542.311629995,N,13943.291408570,E,5,11,1.28,24.215,M,36.997,M,4.8,2107*42
$PMSBATV,091006.80,2,2,1.66424,0.41765,138.33479,-0.000,-0.000,0.000,125.95383,0.000*4B
$GPGGA,091006.90,3542.311629993,N,13943.291408577,E,5,11,1.28,24.215,M,36.997,M,4.9,2107*43
$PMSBATV,091006.90,2,2,1.67105,0.41994,138.33437,-0.000,-0.000,0.000,125.95383,0.000*47
$GPGGA,091007.00,3542.311629985,N,13943.291408577,E,5,11,1.28,24.215,M,36.997,M,5.0,2107*44
$PMSBATV,091007.00,2,2,1.66985,0.42215,138.33449,0.000,0.000,-0.000,125.95383,0.000*6B
$GPGGA,091007.10,3542.311629977,N,13943.291408577,E,5,11,1.28,24.215,M,36.997,M,5.1,2107*49
$PMSBATV,091007.10,2,2,1.66388,0.41957,138.33462,-0.000,0.000,0.000,125.95383,0.000*6A
$GPGGA,091007.20,3542.311629975,N,13943.291408584,E,5,11,1.28,24.216,M,36.997,M,5.2,2107*44
$PMSBATV,091007.20,2,2,1.66063,0.41978,138.33437,-0.000,0.000,0.000,125.95383,0.000*62
$GPGGA,091007.30,3542.311629972,N,13943.291408591,E,5,11,1.28,24.216,M,36.997,M,5.3,2107*47
$PMSBATV,091007.30,2,2,1.66392,0.41908,138.33387,0.000,0.000,0.000,125.95383,0.000*48
$GPGGA,091007.40,3542.311629970,N,13943.291408596,E,5,11,1.28,24.216,M,36.997,M,5.4,2107*42
$PMSBATV,091007.40,2,2,1.66428,0.41779,138.33214,-0.000,-0.000,0.000,125.95383,0.000*4A
$GPGGA,091007.50,3542.311629966,N,13943.291408603,E,5,11,1.28,24.216,M,36.997,M,5.5,2107*4A
$PMSBATV,091007.50,2,2,1.66472,0.41802,138.33240,-0.000,0.000,0.000,125.95383,0.000*6B
$GPGGA,091007.60,3542.311629963,N,13943.291408606,E,5,11,1.28,24.216,M,36.997,M,5.6,2107*4A
$PMSBATV,091007.60,2,2,1.66394,0.41660,138.33422,-0.000,0.000,0.000,125.95383,0.000*6F
$GPGGA,091007.70,3542.311629963,N,13943.291408611,E,5,11,1.28,24.216,M,36.997,M,5.7,2107*4C
$PMSBATV,091007.70,2,2,1.66466,0.41860,138.33500,-0.000,0.000,-0.000,125.95383,0.000*46
$GPGGA,091007.80,3542.311629960,N,13943.291408617,E,5,11,1.28,24.216,M,36.997,M,5.8,2107*49
$PMSBATV,091007.80,2,2,1.66342,0.41952,138.33700,0.000,0.000,0.000,125.95383,0.000*4A
$GPGGA,091007.90,3542.311629956,N,13943.291408618,E,5,11,1.28,24.216,M,36.997,M,5.9,2107*43
$PMSBATV,091007.90,2,2,1.66010,0.41903,138.33852,-0.000,0.000,0.000,125.95383,0.000*6E
$GPGGA,091008.00,3542.311629953,N,13943.291408623,E,5,11,1.28,24.216,M,36.997,M,6.0,2107*42
$PMSBATV,091008.00,2,2,1.66213,0.42050,138.33884,-0.000,-0.000,-0.000,125.95383,0.000*6E
$GPGGA,091008.10,3542.311629946,N,13943.291408621,E,5,11,1.28,24.216,M,36.997,M,1.1,2107*43
$PMSBATV,091008.10,2,2,1.66099,0.42081,138.33779,-0.000,0.000,0.000,125.95383,0.000*6E
$GPGGA,091008.20,3542.311629944,N,13943.291408627,E,5,11,1.28,24.216,M,36.997,M,1.2,2107*47
$PMSBATV,091008.20,2,2,1.65993,0.42055,138.33957,-0.000,0.000,-0.000,125.95383,0.000*4B
