$GPGGA,103727.80,3542.304179498,N,13943.277878454,E,4,11,0.93,23.315,M,36.997,M,20.8,7107*7B
$GPGGA,103727.90,3542.304179510,N,13943.277878561,E,4,11,0.93,23.315,M,36.997,M,20.9,7107*7D
$GPGGA,103728.00,3542.304179500,N,13943.277878560,E,4,11,0.93,23.315,M,36.997,M,21.0,7107*73
$GPGGA,103728.10,3542.304179334,N,13943.277878818,E,4,11,0.93,23.314,M,36.997,M,21.1,7107*71
$GPGGA,103728.20,3542.304179481,N,13943.277878709,E,4,11,0.93,23.315,M,36.997,M,21.2,7107*76
$GPGGA,103728.30,3542.304179398,N,13943.277878831,E,4,11,0.93,23.315,M,36.997,M,21.3,7107*7D
$GPGGA,103728.40,3542.304179489,N,13943.277878770,E,4,11,0.93,23.315,M,36.997,M,21.4,7107*70
$GPGGA,103728.50,3542.304179485,N,13943.277878885,E,4,11,0.93,23.315,M,36.997,M,21.5,7107*79
$GPGGA,103728.60,3542.304179403,N,13943.277878986,E,4,11,0.93,23.315,M,36.997,M,21.6,7107*75
$GPGGA,103728.70,3542.304179533,N,13943.277878701,E,4,11,0.93,23.315,M,36.997,M,21.7,7107*76
$GPGGA,103728.80,3542.304179551,N,13943.277878760,E,4,11,0.93,23.315,M,36.997,M,21.8,7107*75
$GPGGA,103728.90,3542.304179532,N,13943.277878849,E,4,11,0.93,23.315,M,36.997,M,21.9,7107*74
$GPGGA,103729.00,3542.304179529,N,13943.277878712,E,4,11,0.93,23.315,M,36.997,M,22.0,7107*7D
$GPGGA,103729.10,3542.304179674,N,13943.277878713,E,4,11,0.93,23.316,M,36.997,M,22.1,7107*74
$GPGGA,103729.20,3542.304179740,N,13943.277878726,E,4,11,0.93,23.316,M,36.997,M,22.2,7107*74
$GPGGA,103729.30,3542.304179792,N,13943.277878757,E,4,11,0.93,23.316,M,36.997,M,22.3,7107*7D
$GPGGA,103729.40,3542.304179751,N,13943.277878771,E,4,11,0.93,23.316,M,36.997,M,22.4,7107*76
$GPGGA,103729.50,3542.304179711,N,13943.277878946,E,4,11,0.93,23.316,M,36.997,M,22.5,7107*78
$GPGGA,103729.60,3542.304179697,N,13943.277879169,E,4,11,0.93,23.316,M,36.997,M,22.6,7107*73
$GPGGA,103729.70,3542.304179721,N,13943.277879208,E,4,11,0.93,23.316,M,36.997,M,22.7,7107*7B
$GPGGA,103729.80,3542.304179821,N,13943.277879347,E,4,11,0.93,23.316,M,36.997,M,22.8,7107*7E
$GPGGA,103729.90,3542.304179904,N,13943.277879334,E,4,11,0.93,23.316,M,36.997,M,22.9,7107*7C
$GPGGA,103730.00,3542.304179872,N,13943.277879524,E,4,11,0.93,23.316,M,36.997,M,23.0,7107*72
$GPGGA,103730.10,3542.304179888,N,13943.277879359,E,4,11,0.93,23.316,M,36.997,M,3.1,7107*49
$GPGGA,103730.20,3542.304180556,N,13943.277878241,E,4,11,0.93,23.318,M,36.997,M,3.2,7107*46
$GPGGA,103730.30,3542.304180670,N,13943.277876842,E,4,11,0.93,23.319,M,36.997,M,3.3,7107*47
$GPGGA,103730.40,3542.304180971,N,13943.277875585,E,4,11,0.93,23.320,M,36.997,M,3.4,7107*46
$GPGGA,103730.50,3542.304181079,N,13943.277874432,E,4,11,0.93,23.320,M,36.997,M,3.5,7107*4A
$GPGGA,103730.60,3542.304181369,N,13943.277874213,E,4,11,0.93,23.321,M,36.997,M,3.6,7107*4C
$GPGGA,103730.70,3542.304181777,N,13943.277873552,E,4,11,0.93,23.323,M,36.997,M,3.7,7107*40
$GPGGA,103730.80,3542.304182036,N,13943.277872701,E,4,11,0.93,23.324,M,36.997,M,3.8,7107*43
$GPGGA,103730.90,3542.304182207,N,13943.277872473,E,4,11,0.93,23.325,M,36.997,M,3.9,7107*44
$GPGGA,103731.00,3542.304182331,N,13943.277872205,E,4,11,0.93,23.325,M,36.997,M,4.0,7107*41
$GPGGA,103731.10,3542.304182215,N,13943.277871919,E,4,11,0.93,23.325,M,36.997,M,4.1,7107*43
$GPGGA,103731.20,3542.304182453,N,13943.277871760,E,4,11,0.93,23.326,M,36.997,M,4.2,7107*44
$GPGGA,103731.30,3542.304182527,N,13943.277871260,E,4,11,0.93,23.326,M,36.997,M,4.3,7107*43
$GPGGA,103731.40,3542.304182371,N,13943.277870949,E,4,11,0.93,23.326,M,36.997,M,4.4,7107*47
$GPGGA,103731.50,3542.304182600,N,13943.277871084,E,4,11,0.93,23.327,M,36.997,M,4.5,7107*4C
$GPGGA,103731.60,3542.304182680,N,13943.277870874,E,4,11,0.93,23.328,M,36.997,M,4.6,7107*4D
$GPGGA,103731.70,3542.304182807,N,13943.277870960,E,4,11,0.93,23.328,M,36.997,M,4.7,7107*48
$GPGGA,103731.80,3542.304182872,N,13943.277870529,E,4,11,0.93,23.328,M,36.997,M,4.8,7107*4B
$GPGGA,103731.90,3542.304182975,N,13943.277870118,E,4,11,0.93,23.329,M,36.997,M,4.9,7107*4A
$GPGGA,103732.00,3542.304183088,N,13943.277870142,E,4,11,0.93,23.329,M,36.997,M,5.0,7107*4D
$GPGGA,103732.10,3542.304182911,N,13943.277869685,E,4,11,0.93,23.329,M,36.997,M,5.1,7107*41
$GPGGA,103732.20,3542.304182863,N,13943.277870123,E,4,11,0.93,23.329,M,36.997,M,5.2,7107*46
$GPGGA,103732.30,3542.304182803,N,13943.277869997,E,4,11,0.93,23.329,M,36.997,M,5.3,7107*4F
$GPGGA,103732.40,3542.304182652,N,13943.277870497,E,4,11,0.93,23.329,M,36.997,M,5.4,7107*40
$GPGGA,103732.50,3542.304182509,N,13943.277870143,E,4,12,0.90,23.329,M,36.997,M,5.5,7107*41
$GPGGA,103732.60,3542.304182791,N,13943.277870203,E,4,12,0.90,23.330,M,36.997,M,5.6,7107*4D
$GPGGA,103732.70,3542.304182832,N,13943.277869964,E,4,12,0.90,23.330,M,36.997,M,5.7,7107*49
$GPGGA,103732.80,3542.304183140,N,13943.277870285,E,4,11,0.93,23.332,M,36.997,M,5.8,7107*4A
$GPGGA,103732.90,3542.304183644,N,13943.277869625,E,4,11,0.93,23.333,M,36.997,M,5.9,7107*4E
$GPGGA,103733.00,3542.304184180,N,13943.277869370,E,4,11,0.93,23.334,M,36.997,M,6.0,7107*46
$GPGGA,103733.10,3542.304184560,N,13943.277868931,E,4,11,0.93,23.335,M,36.997,M,1.1,7107*44
$GPGGA,103733.20,3542.304185043,N,13943.277868691,E,4,11,0.93,23.336,M,36.997,M,1.2,7107*47
$GPGGA,103733.30,3542.304185405,N,13943.277868657,E,4,11,0.93,23.337,M,36.997,M,1.3,7107*4A
$GPGGA,103733.40,3542.304185597,N,13943.277868384,E,4,11,0.93,23.337,M,36.997,M,1.4,7107*4B
$GPGGA,103733.50,3542.304185907,N,13943.277868340,E,4,11,0.93,23.338,M,36.997,M,1.5,7107*49
$GPGGA,103733.60,3542.304185885,N,13943.277867879,E,4,11,0.93,23.338,M,36.997,M,1.6,7107*4C
$GPGGA,103733.70,3542.304185890,N,13943.277867781,E,4,11,0.93,23.338,M,36.997,M,1.7,7107*40
$GPGGA,103733.80,3542.304185968,N,13943.277867560,E,4,11,0.93,23.339,M,36.997,M,1.8,7107*4A
$GPGGA,103733.90,3542.304186319,N,13943.277867621,E,4,11,0.93,23.340,M,36.997,M,1.9,7107*4D
$GPGGA,103734.00,3542.304186346,N,13943.277867731,E,4,11,0.93,23.340,M,36.997,M,2.0,7107*43
$GPGGA,103734.10,3542.304186498,N,13943.277867982,E,4,11,0.93,23.340,M,36.997,M,2.1,7107*41
$GPGGA,103734.20,3542.304186974,N,13943.277868150,E,4,11,0.93,23.342,M,36.997,M,2.2,7107*44
$GPGGA,103734.30,3542.304187111,N,13943.277868060,E,4,11,0.93,23.342,M,36.997,M,2.3,7107*4C
$GPGGA,103734.40,3542.304187135,N,13943.277867922,E,4,11,0.93,23.342,M,36.997,M,2.4,7107*4A
$GPGGA,103734.50,3542.304187146,N,13943.277867799,E,4,11,0.93,23.342,M,36.997,M,2.5,7107*40
$GPGGA,103734.60,3542.304187341,N,13943.277867857,E,4,11,0.93,23.343,M,36.997,M,2.6,7107*49
$GPGGA,103734.70,3542.304187278,N,13943.277867887,E,4,11,0.93,23.343,M,36.997,M,2.7,7107*4F
$GPGGA,103734.80,3542.304187268,N,13943.277867807,E,4,11,0.93,23.343,M,36.997,M,2.8,7107*46
$GPGGA,103734.90,3542.304187245,N,13943.277867373,E,4,11,0.93,23.343,M,36.997,M,2.9,7107*41
$GPGGA,103735.00,3542.304187589,N,13943.277867370,E,4,11,0.93,23.344,M,36.997,M,3.0,7107*42
$GPGGA,103735.10,3542.304187789,N,13943.277867654,E,4,11,0.93,23.345,M,36.997,M,3.1,7107*42
$GPGGA,103735.20,3542.304187896,N,13943.277867142,E,4,11,0.93,23.345,M,36.997,M,3.2,7107*43
$GPGGA,103735.30,3542.304188031,N,13943.277867109,E,4,11,0.93,23.346,M,36.997,M,3.3,7107*45
$GPGGA,103735.40,3542.304188033,N,13943.277867433,E,4,11,0.93,23.346,M,36.997,M,3.4,7107*4B
$GPGGA,103735.50,3542.304187990,N,13943.277867651,E,4,11,0.93,23.346,M,36.997,M,3.5,7107*42
$GPGGA,103735.60,3542.304188204,N,13943.277867596,E,4,11,0.93,23.346,M,36.997,M,3.6,7107*43
$GPGGA,103735.70,3542.304188289,N,13943.277867757,E,4,11,0.93,23.347,M,36.997,M,3.7,7107*48
$GPGGA,103735.80,3542.304188167,N,13943.277867783,E,4,11,0.93,23.347,M,36.997,M,3.8,7107*42
$GPGGA,103735.90,3542.304188261,N,13943.277868130,E,4,11,0.93,23.347,M,36.997,M,3.9,7107*46
$GPGGA,103736.00,3542.304188570,N,13943.277868172,E,4,11,0.93,23.349,M,36.997,M,4.0,7107*4D
$GPGGA,103736.10,3542.304188695,N,13943.277868785,E,4,11,0.93,23.349,M,36.997,M,4.1,7107*4B
$GPGGA,103736.20,3542.304188877,N,13943.277868580,E,4,11,0.93,23.350,M,36.997,M,4.2,7107*46
$GPGGA,103736.30,3542.304188790,N,13943.277868731,E,4,11,0.93,23.350,M,36.997,M,4.3,7107*48
$GPGGA,103736.40,3542.304188876,N,13943.277868620,E,4,11,0.93,23.350,M,36.997,M,4.4,7107*4E
$GPGGA,103736.50,3542.304188974,N,13943.277868770,E,4,11,0.93,23.351,M,36.997,M,4.5,7107*48
$GPGGA,103736.60,3542.304188969,N,13943.277868711,E,4,11,0.93,23.351,M,36.997,M,4.6,7107*43
$GPGGA,103736.70,3542.304189208,N,13943.277868548,E,4,11,0.93,23.351,M,36.997,M,4.7,7107*40
$GPGGA,103736.80,3542.304189007,N,13943.277868250,E,4,11,0.93,23.351,M,36.997,M,4.8,7107*43
$GPGGA,103736.90,3542.304189083,N,13943.277868201,E,4,11,0.93,23.351,M,36.997,M,4.9,7107*4B
$GPGGA,103737.00,3542.304189174,N,13943.277868189,E,4,11,0.93,23.351,M,36.997,M,5.0,7107*41
$GPGGA,103737.10,3542.304189105,N,13943.277868337,E,4,11,0.93,23.351,M,36.997,M,5.1,7107*40
$GPGGA,103737.20,3542.304189148,N,13943.277868524,E,4,11,0.93,23.352,M,36.997,M,5.2,7107*4E
$GPGGA,103737.30,3542.304189158,N,13943.277868528,E,4,11,0.93,23.352,M,36.997,M,5.3,7107*43
$GPGGA,103737.40,3542.304189185,N,13943.277868603,E,4,11,0.93,23.352,M,36.997,M,5.4,7107*49
$GPGGA,103737.50,3542.304189231,N,13943.277867841,E,4,11,0.93,23.353,M,36.997,M,5.5,7107*43
$GPGGA,103737.60,3542.304189081,N,13943.277867793,E,4,11,0.93,23.353,M,36.997,M,5.6,7107*4A
$GPGGA,103737.70,3542.304189100,N,13943.277868081,E,4,11,0.93,23.353,M,36.997,M,5.7,7107*49
$GPGGA,103737.80,3542.304189129,N,13943.277868204,E,4,11,0.93,23.354,M,36.997,M,5.8,7107*4A
$GPGGA,103737.90,3542.304189209,N,13943.277868119,E,4,11,0.93,23.355,M,36.997,M,5.9,7107*45
$GPGGA,103738.00,3542.304189163,N,13943.277868039,E,4,11,0.93,23.355,M,36.997,M,6.0,7107*45
$GPGGA,103738.10,3542.304189240,N,13943.277868292,E,4,11,0.93,23.355,M,36.997,M,1.1,7107*43
$GPGGA,103738.20,3542.304189171,N,13943.277868230,E,4,11,0.93,23.355,M,36.997,M,1.2,7107*4A
$GPGGA,103738.30,3542.304189326,N,13943.277867848,E,4,11,0.93,23.356,M,36.997,M,1.3,7107*43
$GPGGA,103738.40,3542.304189220,N,13943.277868074,E,4,11,0.93,23.356,M,36.997,M,1.4,7107*4C
$GPGGA,103738.50,3542.304189124,N,13943.277868129,E,4,11,0.93,23.356,M,36.997,M,1.5,7107*42
$GPGGA,103738.60,3542.304188987,N,13943.277867659,E,4,11,0.93,23.356,M,36.997,M,1.6,7107*4D
$GPGGA,103738.70,3542.304189236,N,13943.277867506,E,4,11,0.93,23.357,M,36.997,M,1.7,7107*45
$GPGGA,103738.80,3542.304189280,N,13943.277868138,E,4,11,0.93,23.357,M,36.997,M,1.8,7107*4E
$GPGGA,103738.90,3542.304189327,N,13943.277868400,E,4,11,0.93,23.358,M,36.997,M,1.9,7107*43
$GPGGA,103739.00,3542.304189416,N,13943.277868435,E,4,11,0.93,23.358,M,36.997,M,2.0,7107*42
$GPGGA,103739.10,3542.304189347,N,13943.277868881,E,4,11,0.93,23.358,M,36.997,M,2.1,7107*42
$GPGGA,103739.20,3542.304189326,N,13943.277868825,E,4,11,0.93,23.358,M,36.997,M,2.2,7107*4B
$GPGGA,103739.30,3542.304189589,N,13943.277868805,E,4,11,0.93,23.359,M,36.997,M,2.3,7107*4B
$GPGGA,103739.40,3542.304189384,N,13943.277869094,E,4,11,0.93,23.358,M,36.997,M,2.4,7107*40
$GPGGA,103739.50,3542.304189436,N,13943.277869473,E,4,11,0.93,23.358,M,36.997,M,2.5,7107*43
$GPGGA,103739.60,3542.304189464,N,13943.277869674,E,4,11,0.93,23.358,M,36.997,M,2.6,7107*41
$GPGGA,103739.70,3542.304189377,N,13943.277869626,E,4,11,0.93,23.358,M,36.997,M,2.7,7107*43
$GPGGA,103739.80,3542.304189314,N,13943.277869675,E,4,11,0.93,23.358,M,36.997,M,2.8,7107*40
$GPGGA,103739.90,3542.304189515,N,13943.277869802,E,4,11,0.93,23.359,M,36.997,M,2.9,7107*48
$GPGGA,103740.00,3542.304189526,N,13943.277869589,E,4,11,0.93,23.358,M,36.997,M,3.0,7107*48
$GPGGA,103740.10,3542.304189666,N,13943.277869879,E,4,11,0.93,23.359,M,36.997,M,3.1,7107*4C
$GPGGA,103740.20,3542.304189830,N,13943.277869737,E,4,11,0.93,23.359,M,36.997,M,3.2,7107*44
$GPGGA,103740.30,3542.304189990,N,13943.277869516,E,4,11,0.93,23.360,M,36.997,M,3.3,7107*44
$GPGGA,103740.40,3542.304190037,N,13943.277869351,E,4,11,0.93,23.360,M,36.997,M,3.4,7107*4D
$GPGGA,103740.50,3542.304190182,N,13943.277869546,E,4,11,0.93,23.361,M,36.997,M,3.5,7107*43
$GPGGA,103740.60,3542.304190019,N,13943.277868909,E,4,11,0.93,23.360,M,36.997,M,3.6,7107*47
$GPGGA,103740.70,3542.304190113,N,13943.277868907,E,4,11,0.93,23.361,M,36.997,M,3.7,7107*43
$GPGGA,103740.80,3542.304190293,N,13943.277869297,E,4,11,0.93,23.361,M,36.997,M,3.8,7107*4B
$GPGGA,103740.90,3542.304190691,N,13943.277869478,E,4,11,0.93,23.362,M,36.997,M,3.9,7107*49
$GPGGA,103741.00,3542.304190643,N,13943.277869294,E,4,11,0.93,23.362,M,36.997,M,4.0,7107*44
$GPGGA,103741.10,3542.304190698,N,13943.277869406,E,4,11,0.93,23.362,M,36.997,M,4.1,7107*4F
$GPGGA,103741.20,3542.304190886,N,13943.277869108,E,4,11,0.93,23.363,M,36.997,M,4.2,7107*44
$GPGGA,103741.30,3542.304190822,N,13943.277869617,E,4,11,0.93,23.362,M,36.997,M,4.3,7107*42
$GPGGA,103741.40,3542.304190908,N,13943.277869750,E,4,11,0.93,23.363,M,36.997,M,4.4,7107*48
$GPGGA,103741.50,3542.304190971,N,13943.277869599,E,4,11,0.93,23.363,M,36.997,M,4.5,7107*41
$GPGGA,103741.60,3542.304190914,N,13943.277869826,E,4,11,0.93,23.362,M,36.997,M,4.6,7107*4A
$GPGGA,103741.70,3542.304190984,N,13943.277869879,E,4,11,0.93,23.363,M,36.997,M,4.7,7107*48
$GPGGA,103741.80,3542.304190971,N,13943.277870044,E,4,11,0.93,23.363,M,36.997,M,4.8,7107*4C
$GPGGA,103741.90,3542.304190906,N,13943.277870023,E,4,11,0.93,23.363,M,36.997,M,4.9,7107*4D
$GPGGA,103742.00,3542.304191061,N,13943.277870181,E,4,11,0.93,23.364,M,36.997,M,5.0,7107*48
$GPGGA,103742.10,3542.304191176,N,13943.277869875,E,4,11,0.93,23.364,M,36.997,M,5.1,7107*45
$GPGGA,103742.20,3542.304191119,N,13943.277869789,E,4,11,0.93,23.364,M,36.997,M,5.2,7107*40
$GPGGA,103742.30,3542.304191359,N,13943.277869652,E,4,11,0.93,23.365,M,36.997,M,5.3,7107*40
$GPGGA,103742.40,3542.304191243,N,13943.277869721,E,4,11,0.93,23.364,M,36.997,M,5.4,7107*4E
$GPGGA,103742.50,3542.304191300,N,13943.277870008,E,4,11,0.93,23.364,M,36.997,M,5.5,7107*4C
$GPGGA,103742.60,3542.304191331,N,13943.277869938,E,4,11,0.93,23.365,M,36.997,M,5.6,7107*4D
$GPGGA,103742.70,3542.304191250,N,13943.277869836,E,4,11,0.93,23.365,M,36.997,M,5.7,7107*44
$GPGGA,103742.80,3542.304191314,N,13943.277870534,E,4,11,0.93,23.365,M,36.997,M,5.8,7107*42
$GPGGA,103742.90,3542.304191033,N,13943.277870056,E,4,11,0.93,23.364,M,36.997,M,5.9,7107*44
$GPGGA,103743.00,3542.304190903,N,13943.277869878,E,4,11,0.93,23.364,M,36.997,M,6.0,7107*41
$GPGGA,103743.10,3542.304190863,N,13943.277870021,E,4,11,0.93,23.364,M,36.997,M,6.1,7107*4A
$GPGGA,103743.20,3542.304191010,N,13943.277870164,E,4,11,0.93,23.364,M,36.997,M,6.2,7107*47
$GPGGA,103743.30,3542.304190883,N,13943.277869935,E,4,11,0.93,23.364,M,36.997,M,6.3,7107*40
$GPGGA,103743.40,3542.304190889,N,13943.277870123,E,4,11,0.93,23.365,M,36.997,M,6.4,7107*4C
$GPGGA,103743.50,3542.304191036,N,13943.277870049,E,4,11,0.93,23.365,M,36.997,M,6.5,7107*4C
$GPGGA,103743.60,3542.304190883,N,13943.277870000,E,4,11,0.93,23.365,M,36.997,M,6.6,7107*46
$GPGGA,103743.70,3542.304191238,N,13943.277869952,E,4,11,0.93,23.366,M,36.997,M,6.7,7107*48
$GPGGA,103743.80,3542.304191235,N,13943.277870372,E,4,11,0.93,23.366,M,36.997,M,6.8,7107*45
$GPGGA,103743.90,3542.304191270,N,13943.277869968,E,4,11,0.93,23.366,M,36.997,M,6.9,7107*4D
$GPGGA,103744.00,3542.304191349,N,13943.277870286,E,4,11,0.93,23.367,M,36.997,M,7.0,7107*42
$GPGGA,103744.10,3542.304191163,N,13943.277870016,E,4,11,0.93,23.366,M,36.997,M,2.1,7107*47
$GPGGA,103744.20,3542.304191385,N,13943.277869615,E,4,11,0.93,23.367,M,36.997,M,2.2,7107*41
$GPGGA,103744.30,3542.304191314,N,13943.277870096,E,4,11,0.93,23.367,M,36.997,M,2.3,7107*4C
$GPGGA,103744.40,3542.304191180,N,13943.277869567,E,4,11,0.93,23.367,M,36.997,M,2.4,7107*40
$GPGGA,103744.50,3542.304191327,N,13943.277869605,E,4,11,0.93,23.367,M,36.997,M,2.5,7107*48
$GPGGA,103744.60,3542.304191340,N,13943.277869129,E,4,11,0.93,23.367,M,36.997,M,2.6,7107*40
$GPGGA,103744.70,3542.304191232,N,13943.277868822,E,4,11,0.93,23.367,M,36.997,M,2.7,7107*47
$GPGGA,103744.80,3542.304190979,N,13943.277869284,E,4,11,0.93,23.367,M,36.997,M,2.8,7107*45
$GPGGA,103744.90,3542.304191090,N,13943.277869738,E,4,11,0.93,23.367,M,36.997,M,2.9,7107*48
$GPGGA,103745.00,3542.304190998,N,13943.277869644,E,4,11,0.93,23.367,M,36.997,M,3.0,7107*42
$GPGGA,103745.10,3542.304190970,N,13943.277869432,E,4,11,0.93,23.367,M,36.997,M,3.1,7107*47
$GPGGA,103745.20,3542.304191198,N,13943.277869576,E,4,11,0.93,23.368,M,36.997,M,3.2,7107*46
$GPGGA,103745.30,3542.304190983,N,13943.277869522,E,4,11,0.93,23.368,M,36.997,M,3.3,7107*44
$GPGGA,103745.40,3542.304190712,N,13943.277869545,E,4,11,0.93,23.367,M,36.997,M,3.4,7107*4C
$GPGGA,103745.50,3542.304190921,N,13943.277869702,E,4,11,0.93,23.368,M,36.997,M,3.5,7107*4C
$GPGGA,103745.60,3542.304190967,N,13943.277868958,E,4,11,0.93,23.368,M,36.997,M,3.6,7107*4E
$GPGGA,103745.70,3542.304190815,N,13943.277868715,E,4,11,0.93,23.368,M,36.997,M,3.7,7107*4D
$GPGGA,103745.80,3542.304190967,N,13943.277868000,E,4,11,0.93,23.369,M,36.997,M,3.8,7107*4B
$GPGGA,103745.90,3542.304190920,N,13943.277867899,E,4,11,0.93,23.369,M,36.997,M,3.9,7107*4F
$GPGGA,103746.00,3542.304191033,N,13943.277867918,E,4,11,0.93,23.369,M,36.997,M,4.0,7107*49
$GPGGA,103746.10,3542.304190823,N,13943.277867314,E,4,11,0.93,23.369,M,36.997,M,4.1,7107*47
$GPGGA,103746.20,3542.304190632,N,13943.277867093,E,4,11,0.93,23.369,M,36.997,M,4.2,7107*45
$GPGGA,103746.30,3542.304190234,N,13943.277866658,E,4,11,0.93,23.369,M,36.997,M,4.3,7107*47
$GPGGA,103746.40,3542.304189773,N,13943.277866018,E,4,11,0.93,23.368,M,36.997,M,4.4,7107*4A
$GPGGA,103746.50,3542.304189332,N,13943.277864849,E,4,11,0.93,23.368,M,36.997,M,4.5,7107*45
$GPGGA,103746.60,3542.304188791,N,13943.277863045,E,4,11,0.93,23.368,M,36.997,M,4.6,7107*4A
$GPGGA,103746.70,3542.304186571,N,13943.277858661,E,4,10,1.25,23.365,M,36.997,M,4.7,7107*40
$GPGGA,103746.80,3542.304182151,N,13943.277847782,E,4,09,1.32,23.356,M,36.997,M,4.8,7107*4E
$GPGGA,103746.90,3542.304173531,N,13943.277834830,E,4,09,1.32,23.338,M,36.997,M,4.9,7107*48
$GPGGA,103747.00,3542.304164153,N,13943.277815443,E,4,09,1.32,23.320,M,36.997,M,5.0,7107*4C
$GPGGA,103747.10,3542.304154826,N,13943.277799652,E,4,09,1.32,23.318,M,36.997,M,5.1,7107*46
$GPGGA,103747.20,3542.304143269,N,13943.277781385,E,4,09,1.32,23.334,M,36.997,M,5.2,7107*49
$GPGGA,103747.30,3542.304131848,N,13943.277768182,E,4,09,1.32,23.349,M,36.997,M,5.3,7107*4D
$GPGGA,103747.40,3542.304120575,N,13943.277749475,E,4,09,1.32,23.354,M,36.997,M,5.4,7107*4C
$GPGGA,103747.50,3542.304102547,N,13943.277736380,E,4,09,1.32,23.348,M,36.997,M,5.5,7107*45
$GPGGA,103747.60,3542.304084074,N,13943.277725669,E,4,09,1.32,23.345,M,36.997,M,5.6,7107*42
$GPGGA,103747.70,3542.304071296,N,13943.277706156,E,4,09,1.32,23.352,M,36.997,M,5.7,7107*4A
$GPGGA,103747.80,3542.304059745,N,13943.277690709,E,4,10,0.99,23.390,M,36.997,M,5.8,7107*4F
$GPGGA,103747.90,3542.304043669,N,13943.277683259,E,4,10,0.99,23.363,M,36.997,M,5.9,7107*45
$GPGGA,103748.00,3542.304010860,N,13943.277659690,E,4,10,0.99,23.397,M,36.997,M,6.0,7107*45
$GPGGA,103748.10,3542.304004574,N,13943.277633426,E,4,10,1.25,23.399,M,36.997,M,1.1,7107*44
$GPGGA,103748.20,3542.303987954,N,13943.277615833,E,4,10,1.25,23.401,M,36.997,M,1.2,7107*45
$GPGGA,103748.30,3542.303953035,N,13943.277586440,E,4,11,0.95,23.414,M,36.997,M,1.3,7107*4C
$GPGGA,103748.40,3542.303936308,N,13943.277561098,E,4,10,1.02,23.422,M,36.997,M,1.4,7107*41
$GPGGA,103748.50,3542.303929249,N,13943.277548584,E,4,10,1.25,23.389,M,36.997,M,1.5,7107*4B
$GPGGA,103748.60,3542.303896201,N,13943.277522461,E,4,10,1.25,23.398,M,36.997,M,1.6,7107*44
$GPGGA,103748.70,3542.303872936,N,13943.277501072,E,4,10,1.25,23.417,M,36.997,M,1.7,7107*46
$GPGGA,103748.80,3542.303846989,N,13943.277477759,E,4,12,0.90,23.425,M,36.997,M,1.8,7107*47
$GPGGA,103748.90,3542.303825860,N,13943.277448589,E,4,12,0.90,23.431,M,36.997,M,1.9,7107*42
$GPGGA,103749.00,3542.303815449,N,13943.277424007,E,4,12,0.90,23.366,M,36.997,M,2.0,7107*48
$GPGGA,103749.10,3542.303794689,N,13943.277390715,E,4,13,0.88,23.364,M,36.997,M,2.1,7107*46
$GPGGA,103749.20,3542.303766542,N,13943.277366140,E,4,11,1.23,23.370,M,36.997,M,2.2,7107*47
$GPGGA,103749.30,3542.303742198,N,13943.277338746,E,4,10,1.30,23.365,M,36.997,M,2.3,7107*4E
$GPGGA,103749.40,3542.303722101,N,13943.277303654,E,4,11,1.23,23.370,M,36.997,M,2.4,7107*45
$GPGGA,103749.50,3542.303686332,N,13943.277273837,E,4,10,1.30,23.383,M,36.997,M,2.5,7107*4A
$GPGGA,103749.60,3542.303656767,N,13943.277250587,E,4,10,1.30,23.342,M,36.997,M,2.6,7107*49
$GPGGA,103749.70,3542.303624244,N,13943.277211830,E,4,11,1.06,23.423,M,36.997,M,2.7,7107*48
$GPGGA,103749.80,3542.303596312,N,13943.277183075,E,4,10,1.30,23.402,M,36.997,M,2.8,7107*46
$GPGGA,103749.90,3542.303556501,N,13943.277147651,E,4,09,1.41,23.435,M,36.997,M,2.9,7107*4C
$GPGGA,103750.00,3542.303533175,N,13943.277114663,E,4,09,1.41,23.445,M,36.997,M,3.0,7107*41
$GPGGA,103750.10,3542.303500114,N,13943.277079292,E,4,10,1.25,23.435,M,36.997,M,3.1,7107*4B
$GPGGA,103750.20,3542.303466447,N,13943.277051411,E,4,08,1.53,23.431,M,36.997,M,3.2,7107*42
$GPGGA,103750.30,3542.303434287,N,13943.277019876,E,4,09,1.31,23.433,M,36.997,M,3.3,7107*49
$GPGGA,103750.40,3542.303400854,N,13943.276986864,E,4,09,1.31,23.481,M,36.997,M,3.4,7107*4E
$GPGGA,103750.50,3542.303401293,N,13943.276967603,E,4,07,2.08,23.387,M,36.997,M,3.5,7107*48
$GPGGA,103750.60,3542.303343768,N,13943.276930978,E,4,09,1.38,23.452,M,36.997,M,3.6,7107*48
$GPGGA,103750.70,3542.303325436,N,13943.276903121,E,4,07,1.67,23.426,M,36.997,M,3.7,7107*43
$GPGGA,103750.80,3542.303291143,N,13943.276868894,E,4,09,1.31,23.441,M,36.997,M,3.8,7107*4D
$GPGGA,103750.90,3542.303243134,N,13943.276824388,E,4,10,1.25,23.512,M,36.997,M,3.9,7107*46
$GPGGA,103751.00,3542.303226279,N,13943.276799294,E,4,10,1.25,23.481,M,36.997,M,4.0,7107*47
$GPGGA,103751.10,3542.303196565,N,13943.276771671,E,4,07,1.67,23.479,M,36.997,M,4.1,7107*4B
$GPGGA,103751.20,3542.303172851,N,13943.276735695,E,4,09,1.31,23.505,M,36.997,M,4.2,7107*46
$GPGGA,103751.30,3542.303134449,N,13943.276710744,E,4,09,1.32,23.506,M,36.997,M,4.3,7107*4B
$GPGGA,103751.40,3542.303098519,N,13943.276679209,E,4,09,1.31,23.500,M,36.997,M,4.4,7107*4F
$GPGGA,103751.50,3542.303075761,N,13943.276647467,E,4,10,1.05,23.483,M,36.997,M,4.5,7107*47
$GPGGA,103751.60,3542.303039404,N,13943.276621295,E,4,10,1.05,23.472,M,36.997,M,4.6,7107*4A
$GPGGA,103751.70,3542.303004201,N,13943.276594251,E,4,10,1.05,23.481,M,36.997,M,4.7,7107*4E
$GPGGA,103751.80,3542.302979889,N,13943.276575804,E,4,09,1.23,23.484,M,36.997,M,4.8,7107*4A
$GPGGA,103751.90,3542.302948678,N,13943.276551000,E,4,09,1.23,23.469,M,36.997,M,4.9,7107*41
$GPGGA,103752.00,3542.302929404,N,13943.276520224,E,4,09,1.37,23.430,M,36.997,M,5.0,7107*46
$GPGGA,103752.10,3542.302894578,N,13943.276484432,E,4,09,1.38,23.447,M,36.997,M,5.1,7107*4A
$GPGGA,103752.20,3542.302854237,N,13943.276466784,E,4,10,1.25,23.464,M,36.997,M,5.2,7107*4D
$GPGGA,103752.30,3542.302826228,N,13943.276430096,E,4,10,1.25,23.455,M,36.997,M,5.3,7107*43
$GPGGA,103752.40,3542.302804216,N,13943.276408085,E,4,10,1.25,23.437,M,36.997,M,5.4,7107*43
$GPGGA,103752.50,3542.302769525,N,13943.276372007,E,4,10,1.25,23.446,M,36.997,M,5.5,7107*46
$GPGGA,103752.60,3542.302741794,N,13943.276349765,E,4,10,1.25,23.478,M,36.997,M,5.6,7107*42
$GPGGA,103752.70,3542.302701333,N,13943.276313961,E,4,11,1.24,23.515,M,36.997,M,5.7,7107*40
$GPGGA,103752.80,3542.302671527,N,13943.276292324,E,4,10,1.25,23.496,M,36.997,M,5.8,7107*4C
$GPGGA,103752.90,3542.302641273,N,13943.276268858,E,4,10,1.25,23.504,M,36.997,M,5.9,7107*46
$GPGGA,103753.00,3542.302616873,N,13943.276233837,E,4,11,1.04,23.473,M,36.997,M,6.0,7107*48
$GPGGA,103753.10,3542.302579316,N,13943.276202402,E,4,09,1.32,23.507,M,36.997,M,1.1,7107*4B
$GPGGA,103753.20,3542.302546987,N,13943.276188149,E,4,10,1.02,23.512,M,36.997,M,1.2,7107*41
$GPGGA,103753.30,3542.302505334,N,13943.276160667,E,4,09,1.32,23.537,M,36.997,M,1.3,7107*45
$GPGGA,103753.40,3542.302485583,N,13943.276131478,E,4,09,1.32,23.515,M,36.997,M,1.4,7107*4E
$GPGGA,103753.50,3542.302454781,N,13943.276100755,E,4,09,1.32,23.485,M,36.997,M,1.5,7107*44
$GPGGA,103753.60,3542.302429564,N,13943.276078566,E,4,09,1.32,23.453,M,36.997,M,1.6,7107*40
$GPGGA,103753.70,3542.302397309,N,13943.276053092,E,4,10,1.11,23.457,M,36.997,M,1.7,7107*45
$GPGGA,103753.80,3542.302376949,N,13943.276026161,E,4,10,1.11,23.487,M,36.997,M,1.8,7107*46
$GPGGA,103753.90,3542.302345097,N,13943.276000032,E,4,11,1.05,23.478,M,36.997,M,1.9,7107*4B
$GPGGA,103754.00,3542.302284165,N,13943.275962971,E,4,11,1.05,23.523,M,36.997,M,2.0,7107*40
$GPGGA,103754.10,3542.302251065,N,13943.275944568,E,4,11,1.05,23.518,M,36.997,M,2.1,7107*41
$GPGGA,103754.20,3542.302219448,N,13943.275922040,E,4,11,1.05,23.509,M,36.997,M,2.2,7107*49
$GPGGA,103754.30,3542.302185650,N,13943.275882380,E,4,10,1.09,23.516,M,36.997,M,2.3,7107*43
$GPGGA,103754.40,3542.302153595,N,13943.275844099,E,4,09,1.16,23.531,M,36.997,M,2.4,7107*40
$GPGGA,103754.50,3542.302125590,N,13943.275815525,E,4,09,1.40,23.549,M,36.997,M,2.5,7107*4E
$GPGGA,103754.60,3542.302094327,N,13943.275783045,E,4,10,1.09,23.563,M,36.997,M,2.6,7107*41
$GPGGA,103754.70,3542.302064700,N,13943.275756494,E,4,10,1.09,23.534,M,36.997,M,2.7,7107*4D
$GPGGA,103754.80,3542.302037084,N,13943.275733095,E,4,09,1.10,23.490,M,36.997,M,2.8,7107*49
$GPGGA,103754.90,3542.301999367,N,13943.275710304,E,4,11,0.96,23.493,M,36.997,M,2.9,7107*46
$GPGGA,103755.00,3542.301968349,N,13943.275689236,E,4,11,1.05,23.512,M,36.997,M,3.0,7107*46
$GPGGA,103755.10,3542.301940540,N,13943.275671983,E,4,11,1.05,23.455,M,36.997,M,3.1,7107*43
$GPGGA,103755.20,3542.301908630,N,13943.275635375,E,4,11,1.05,23.485,M,36.997,M,3.2,7107*45
$GPGGA,103755.30,3542.301880683,N,13943.275600047,E,4,10,1.12,23.490,M,36.997,M,3.3,7107*4B
$GPGGA,103755.40,3542.301843370,N,13943.275567903,E,4,09,1.21,23.519,M,36.997,M,3.4,7107*4E
$GPGGA,103755.50,3542.301823196,N,13943.275544114,E,4,09,1.21,23.523,M,36.997,M,3.5,7107*44
$GPGGA,103755.60,3542.301794171,N,13943.275521982,E,4,09,1.21,23.531,M,36.997,M,3.6,7107*49
$GPGGA,103755.70,3542.301754374,N,13943.275497707,E,4,09,1.21,23.546,M,36.997,M,3.7,7107*4D
$GPGGA,103755.80,3542.301704908,N,13943.275465747,E,4,09,1.21,23.552,M,36.997,M,3.8,7107*45
$GPGGA,103755.90,3542.301681342,N,13943.275437023,E,4,09,1.21,23.545,M,36.997,M,3.9,7107*49
$GPGGA,103756.00,3542.301651026,N,13943.275404776,E,4,09,1.21,23.508,M,36.997,M,4.0,7107*4F
$GPGGA,103756.10,3542.301611028,N,13943.275377838,E,4,09,1.21,23.534,M,36.997,M,4.1,7107*4C
$GPGGA,103756.20,3542.301575894,N,13943.275351491,E,4,09,1.21,23.550,M,36.997,M,4.2,7107*4B
$GPGGA,103756.30,3542.301537060,N,13943.275325022,E,4,09,1.21,23.550,M,36.997,M,4.3,7107*41
$GPGGA,103756.40,3542.301512469,N,13943.275298820,E,4,09,1.21,23.538,M,36.997,M,4.4,7107*48
$GPGGA,103756.50,3542.301481943,N,13943.275263222,E,4,09,1.21,23.548,M,36.997,M,4.5,7107*4D
$GPGGA,103756.60,3542.301449816,N,13943.275240307,E,4,09,1.21,23.560,M,36.997,M,4.6,7107*45
$GPGGA,103756.70,3542.301413915,N,13943.275220434,E,4,08,1.29,23.564,M,36.997,M,4.7,7107*44
$GPGGA,103756.80,3542.301391554,N,13943.275196367,E,4,08,1.29,23.559,M,36.997,M,4.8,7107*41
$GPGGA,103756.90,3542.301358219,N,13943.275176140,E,4,08,1.29,23.555,M,36.997,M,4.9,7107*4F
$GPGGA,103757.00,3542.301325270,N,13943.275159581,E,4,08,1.29,23.561,M,36.997,M,5.0,7107*49
$GPGGA,103757.10,3542.301296920,N,13943.275136019,E,4,08,1.76,23.615,M,36.997,M,5.1,7107*49
$GPGGA,103757.20,3542.301273221,N,13943.275110267,E,4,08,1.76,23.568,M,36.997,M,5.2,7107*4E
$GPGGA,103757.30,3542.301208578,N,13943.275086294,E,4,10,1.03,23.536,M,36.997,M,5.3,7107*4B
$GPGGA,103757.40,3542.301169605,N,13943.275061306,E,4,10,1.03,23.578,M,36.997,M,5.4,7107*4F
$GPGGA,103757.50,3542.301160387,N,13943.275029272,E,4,10,1.03,23.639,M,36.997,M,5.5,7107*41
$GPGGA,103757.60,3542.301103414,N,13943.275011837,E,4,10,1.03,23.564,M,36.997,M,5.6,7107*42
$GPGGA,103757.70,3542.301067424,N,13943.274981424,E,5,05,4.10,23.559,M,36.997,M,5.7,7107*41
$GPGGA,103757.80,3542.301046795,N,13943.274959155,E,4,10,1.03,23.542,M,36.997,M,5.8,7107*45
$GPGGA,103757.90,3542.301018216,N,13943.274930884,E,4,10,1.03,23.524,M,36.997,M,5.9,7107*4A
$GPGGA,103758.00,3542.300986687,N,13943.274906707,E,4,09,1.32,23.507,M,36.997,M,6.0,7107*4F
$GPGGA,103758.10,3542.300965303,N,13943.274874914,E,4,09,1.32,23.494,M,36.997,M,6.1,7107*48
$GPGGA,103758.20,3542.300920681,N,13943.274863265,E,4,08,1.77,23.481,M,36.997,M,6.2,7107*49
$GPGGA,103758.30,3542.300883441,N,13943.274841252,E,4,08,1.77,23.513,M,36.997,M,6.3,7107*41
$GPGGA,103758.40,3542.300860431,N,13943.274813574,E,4,07,1.97,23.514,M,36.997,M,6.4,7107*49
$GPGGA,103758.50,3542.300842971,N,13943.274788319,E,4,08,1.33,23.557,M,36.997,M,6.5,7107*46
$GPGGA,103758.60,3542.300780901,N,13943.274756321,E,4,08,1.55,23.605,M,36.997,M,6.6,7107*4C
$GPGGA,103758.70,3542.300745791,N,13943.274731565,E,4,09,1.06,23.582,M,36.997,M,6.7,7107*4E
$GPGGA,103758.80,3542.300713385,N,13943.274699508,E,4,09,1.06,23.578,M,36.997,M,6.8,7107*41
$GPGGA,103758.90,3542.300680219,N,13943.274666920,E,4,08,1.15,23.573,M,36.997,M,6.9,7107*40
$GPGGA,103759.00,3542.300646620,N,13943.274638960,E,4,08,1.15,23.591,M,36.997,M,7.0,7107*47
$GPGGA,103759.10,3542.300609051,N,13943.274625855,E,4,08,1.15,23.613,M,36.997,M,2.1,7107*4B
$GPGGA,103759.20,3542.300564285,N,13943.274607451,E,4,09,1.06,23.624,M,36.997,M,2.2,7107*47
$GPGGA,103759.30,3542.300513834,N,13943.274584920,E,4,08,1.33,23.627,M,36.997,M,2.3,7107*40
$GPGGA,103759.40,3542.300484406,N,13943.274559869,E,4,09,1.06,23.608,M,36.997,M,2.4,7107*44
$GPGGA,103759.50,3542.300460845,N,13943.274527212,E,4,09,1.06,23.625,M,36.997,M,2.5,7107*45
$GPGGA,103759.60,3542.300430604,N,13943.274516347,E,4,09,1.06,23.561,M,36.997,M,2.6,7107*4B
$GPGGA,103759.70,3542.300405891,N,13943.274485341,E,4,09,1.06,23.561,M,36.997,M,2.7,7107*42
$GPGGA,103759.80,3542.300373652,N,13943.274455543,E,4,09,1.06,23.580,M,36.997,M,2.8,7107*43
$GPGGA,103759.90,3542.300341826,N,13943.274437300,E,4,08,1.33,23.576,M,36.997,M,2.9,7107*44
$GPGGA,103800.00,3542.300293509,N,13943.274427259,E,4,08,1.33,23.612,M,36.997,M,3.0,7107*45
$GPGGA,103800.10,3542.300251705,N,13943.274411634,E,4,08,1.33,23.586,M,36.997,M,3.1,7107*41
$GPGGA,103800.20,3542.300220828,N,13943.274393258,E,4,09,1.32,23.562,M,36.997,M,3.2,7107*4E
$GPGGA,103800.30,3542.300209738,N,13943.274359605,E,4,09,1.32,23.596,M,36.997,M,3.3,7107*4A
$GPGGA,103800.40,3542.300180981,N,13943.274340350,E,4,08,1.77,23.575,M,36.997,M,3.4,7107*44
$GPGGA,103800.50,3542.300155196,N,13943.274330472,E,4,08,1.77,23.542,M,36.997,M,3.5,7107*46
$GPGGA,103800.60,3542.300125584,N,13943.274304785,E,4,08,1.77,23.544,M,36.997,M,3.6,7107*4C
$GPGGA,103800.70,3542.300094483,N,13943.274274411,E,4,08,1.77,23.559,M,36.997,M,3.7,7107*45
$GPGGA,103800.80,3542.300054664,N,13943.274240473,E,4,10,1.06,23.558,M,36.997,M,3.8,7107*4F
$GPGGA,103800.90,3542.300025568,N,13943.274220301,E,4,08,1.77,23.557,M,36.997,M,3.9,7107*42
$GPGGA,103801.00,3542.299998009,N,13943.274208256,E,4,07,3.28,23.573,M,36.997,M,4.0,7107*40
$GPGGA,103801.10,3542.299966905,N,13943.274185811,E,4,09,1.32,23.560,M,36.997,M,4.1,7107*4E
$GPGGA,103801.20,3542.299925462,N,13943.274164893,E,4,09,1.32,23.524,M,36.997,M,4.2,7107*40
$GPGGA,103801.30,3542.299891631,N,13943.274145214,E,4,10,1.24,23.531,M,36.997,M,4.3,7107*47
$GPGGA,103801.40,3542.299855773,N,13943.274136397,E,4,10,1.24,23.581,M,36.997,M,4.4,7107*4D
$GPGGA,103801.50,3542.299840703,N,13943.274121032,E,4,10,1.24,23.567,M,36.997,M,4.5,7107*4C
$GPGGA,103801.60,3542.299805154,N,13943.274097557,E,4,09,1.27,23.539,M,36.997,M,4.6,7107*43
$GPGGA,103801.70,3542.299774991,N,13943.274075782,E,4,07,1.99,23.527,M,36.997,M,4.7,7107*49
$GPGGA,103801.80,3542.299754004,N,13943.274057245,E,4,07,1.99,23.511,M,36.997,M,4.8,7107*45
$GPGGA,103801.90,3542.299711386,N,13943.274030013,E,4,08,1.68,23.549,M,36.997,M,4.9,7107*41
$GPGGA,103802.00,3542.299685205,N,13943.274013201,E,4,08,1.68,23.550,M,36.997,M,5.0,7107*4D
$GPGGA,103802.10,3542.299672835,N,13943.274000547,E,4,08,1.68,23.540,M,36.997,M,5.1,7107*4A
$GPGGA,103802.20,3542.299631191,N,13943.273972274,E,5,04,12.75,23.537,M,36.997,M,5.2,7107*75
$GPGGA,103802.30,3542.299597864,N,13943.273948606,E,5,04,12.75,23.541,M,36.997,M,5.3,7107*70
$GPGGA,103802.40,3542.299586127,N,13943.273929447,E,5,04,12.75,23.581,M,36.997,M,5.4,7107*72
$GPGGA,103802.50,3542.299541254,N,13943.273897101,E,4,08,1.68,23.583,M,36.997,M,5.5,7107*4C
$GPGGA,103802.60,3542.299505116,N,13943.273860636,E,4,08,1.68,23.549,M,36.997,M,5.6,7107*44
$GPGGA,103802.70,3542.299467452,N,13943.273837307,E,4,09,1.09,23.559,M,36.997,M,5.7,7107*46
$GPGGA,103802.80,3542.299429392,N,13943.273824810,E,5,05,9.92,23.537,M,36.997,M,5.8,7107*47
$GPGGA,103802.90,3542.299392251,N,13943.273808999,E,5,04,12.74,23.505,M,36.997,M,5.9,7107*72
$GPGGA,103803.00,3542.299348222,N,13943.273781994,E,5,05,9.92,23.505,M,36.997,M,6.0,7107*43
$GPGGA,103803.10,3542.299302122,N,13943.273765171,E,4,08,1.68,23.470,M,36.997,M,6.1,7107*45
$GPGGA,103803.20,3542.299260514,N,13943.273745442,E,5,04,12.74,23.449,M,36.997,M,6.2,7107*7E
$GPGGA,103803.30,3542.299231882,N,13943.273724039,E,5,04,12.74,23.489,M,36.997,M,6.3,7107*7B
$GPGGA,103803.40,3542.299197695,N,13943.273699928,E,5,04,47.41,23.540,M,36.997,M,6.4,7107*70
$GPGGA,103803.50,3542.299174050,N,13943.273679003,E,5,04,47.38,23.590,M,36.997,M,6.5,7107*7F
$GPGGA,103803.60,3542.299163797,N,13943.273642298,E,4,10,1.11,23.647,M,36.997,M,6.6,7107*49
$GPGGA,103803.70,3542.299135411,N,13943.273605009,E,4,10,0.98,23.674,M,36.997,M,6.7,7107*4E
$GPGGA,103803.80,3542.299100337,N,13943.273560803,E,5,05,3.42,23.724,M,36.997,M,6.8,7107*4C
$GPGGA,103803.90,3542.299074059,N,13943.273534012,E,5,05,13.30,23.798,M,36.997,M,6.9,7107*7F
$GPGGA,103804.00,3542.299033935,N,13943.273507802,E,5,06,2.09,23.837,M,36.997,M,7.0,7107*43
$GPGGA,103804.10,3542.298997843,N,13943.273468921,E,5,04,2.75,23.863,M,36.997,M,7.1,7107*45
$GPGGA,103804.20,3542.298973233,N,13943.273452940,E,5,06,1.95,23.888,M,36.997,M,7.2,7107*46
$GPGGA,103804.30,3542.298931933,N,13943.273436800,E,5,06,1.95,23.941,M,36.997,M,7.3,7107*48
$GPGGA,103804.40,3542.298890037,N,13943.273428732,E,5,06,2.11,23.929,M,36.997,M,7.4,7107*4F
$GPGGA,103804.50,3542.298849434,N,13943.273423181,E,5,05,12.15,23.851,M,36.997,M,7.5,7107*71
$GPGGA,103804.60,3542.298812579,N,13943.273403508,E,5,05,12.15,23.824,M,36.997,M,7.6,7107*72
$GPGGA,103804.70,3542.298798259,N,13943.273381562,E,5,07,1.35,23.792,M,36.997,M,7.7,7107*4B
$GPGGA,103804.80,3542.298771467,N,13943.273350599,E,5,07,1.35,23.746,M,36.997,M,7.8,7107*46
$GPGGA,103804.90,3542.298735614,N,13943.273318095,E,5,06,1.41,23.712,M,36.997,M,7.9,7107*46
$GPGGA,103805.00,3542.298707566,N,13943.273304892,E,4,09,1.06,23.674,M,36.997,M,8.0,7107*41
$GPGGA,103805.10,3542.298671258,N,13943.273276392,E,5,04,2.87,23.638,M,36.997,M,8.1,7107*4A
$GPGGA,103805.20,3542.298633900,N,13943.273258756,E,5,03,99.90,23.642,M,36.997,M,8.2,7107*74
$GPGGA,103805.30,3542.298592050,N,13943.273233203,E,4,07,1.12,23.672,M,36.997,M,8.3,7107*45
$GPGGA,103805.40,3542.298542853,N,13943.273195060,E,4,08,1.10,23.657,M,36.997,M,8.4,7107*41
$GPGGA,103805.50,3542.298506981,N,13943.273159937,E,4,09,1.06,23.671,M,36.997,M,8.5,7107*46
$GPGGA,103805.60,3542.298464452,N,13943.273131152,E,4,07,1.58,23.680,M,36.997,M,8.6,7107*4E
$GPGGA,103805.70,3542.298440674,N,13943.273115986,E,4,07,1.58,23.665,M,36.997,M,8.7,7107*42
$GPGGA,103805.80,3542.298407134,N,13943.273099243,E,4,06,1.99,23.686,M,36.997,M,8.8,7107*44
$GPGGA,103805.90,3542.298356965,N,13943.273074438,E,4,07,1.68,23.580,M,36.997,M,8.9,7107*48
$GPGGA,103806.00,3542.298328309,N,13943.273049828,E,5,04,2.40,23.520,M,36.997,M,9.0,7107*41
$GPGGA,103806.10,3542.298307066,N,13943.273022186,E,5,04,2.40,23.410,M,36.997,M,9.1,7107*44
$GPGGA,103806.20,3542.298271040,N,13943.272990306,E,5,04,2.40,23.418,M,36.997,M,9.2,7107*43
$GPGGA,103806.30,3542.298201629,N,13943.272964734,E,5,03,99.90,23.524,M,36.997,M,9.3,7107*75
$GPGGA,103806.40,3542.298175379,N,13943.272934179,E,5,02,99.90,23.488,M,36.997,M,9.4,7107*79
$GPGGA,103806.50,3542.298146167,N,13943.272906829,E,5,03,99.90,23.489,M,36.997,M,9.5,7107*79
$GPGGA,103806.60,3542.298121116,N,13943.272880535,E,5,03,99.90,23.474,M,36.997,M,9.6,7107*73
$GPGGA,103806.70,3542.298096541,N,13943.272863868,E,5,04,2.40,23.475,M,36.997,M,9.7,7107*49
$GPGGA,103806.80,3542.298075561,N,13943.272834125,E,5,05,2.18,23.484,M,36.997,M,9.8,7107*46
$GPGGA,103806.90,3542.298042128,N,13943.272806575,E,4,06,2.09,23.452,M,36.997,M,9.9,7107*42
$GPGGA,103807.00,3542.298016627,N,13943.272780567,E,5,02,99.90,23.419,M,36.997,M,10.0,7107*48
$GPGGA,103807.10,3542.297978808,N,13943.272754697,E,5,02,99.90,23.455,M,36.997,M,10.1,7107*48
$GPGGA,103807.20,3542.297950673,N,13943.272725070,E,5,03,99.90,23.489,M,36.997,M,10.2,7107*49
$GPGGA,103807.30,3542.297927643,N,13943.272695704,E,5,03,99.90,23.522,M,36.997,M,10.3,7107*44
$GPGGA,103807.40,3542.297917059,N,13943.272667116,E,5,03,99.90,23.523,M,36.997,M,10.4,7107*43
$GPGGA,103807.50,3542.297902642,N,13943.272635106,E,5,03,99.90,23.520,M,36.997,M,10.5,7107*4E
$GPGGA,103807.60,3542.297877101,N,13943.272611524,E,5,02,99.90,23.531,M,36.997,M,10.6,7107*4E
$GPGGA,103807.70,3542.297837001,N,13943.272600212,E,5,02,99.90,23.534,M,36.997,M,10.7,7107*4C
$GPGGA,103807.80,3542.297802055,N,13943.272574875,E,5,02,99.90,23.558,M,36.997,M,10.8,7107*4A
$GPGGA,103807.90,3542.297778957,N,13943.272553848,E,5,02,99.90,23.570,M,36.997,M,10.9,7107*42
$GPGGA,103808.00,3542.297725146,N,13943.272530850,E,5,04,2.40,23.607,M,36.997,M,11.0,7107*7A
$GPGGA,103808.10,3542.297689714,N,13943.272509270,E,5,02,99.90,23.550,M,36.997,M,11.1,7107*46
$GPGGA,103808.20,3542.297667868,N,13943.272478022,E,5,03,99.90,23.567,M,36.997,M,11.2,7107*45
$GPGGA,103808.30,3542.297627561,N,13943.272445835,E,5,03,99.90,23.583,M,36.997,M,11.3,7107*4F
$GPGGA,103808.40,3542.297587045,N,13943.272420978,E,5,03,99.90,23.598,M,36.997,M,11.4,7107*44
$GPGGA,103808.50,3542.297533948,N,13943.272387375,E,5,03,99.90,23.667,M,36.997,M,11.5,7107*41
$GPGGA,103808.60,3542.297524443,N,13943.272350260,E,5,02,99.90,23.665,M,36.997,M,11.6,7107*4D
$GPGGA,103808.70,3542.297520945,N,13943.272319709,E,5,03,99.90,23.669,M,36.997,M,11.7,7107*48
$GPGGA,103808.80,3542.297486573,N,13943.272282001,E,5,03,99.90,23.690,M,36.997,M,11.8,7107*46
$GPGGA,103808.90,3542.297443796,N,13943.272245592,E,5,03,99.90,23.708,M,36.997,M,11.9,7107*42
$GPGGA,103809.00,3542.297417233,N,13943.272215298,E,5,04,2.40,23.736,M,36.997,M,12.0,7107*76
$GPGGA,103809.10,3542.297396261,N,13943.272180318,E,5,05,1.70,23.740,M,36.997,M,2.1,7107*48
$GPGGA,103809.20,3542.297363171,N,13943.272141005,E,5,05,1.70,23.723,M,36.997,M,2.2,7107*47
$GPGGA,103809.30,3542.297324885,N,13943.272100784,E,5,06,1.63,23.817,M,36.997,M,2.3,7107*44
$GPGGA,103809.40,3542.297307294,N,13943.272059070,E,5,05,1.70,23.819,M,36.997,M,2.4,7107*41
$GPGGA,103809.50,3542.297275245,N,13943.272006194,E,5,05,1.70,23.843,M,36.997,M,2.5,7107*47
$GPGGA,103809.60,3542.297241761,N,13943.271981619,E,5,05,1.70,23.789,M,36.997,M,2.6,7107*4D
$GPGGA,103809.70,3542.297216018,N,13943.271969186,E,5,06,1.66,23.776,M,36.997,M,2.7,7107*45
$GPGGA,103809.80,3542.297175688,N,13943.271932184,E,5,07,1.57,23.745,M,36.997,M,2.8,7107*43
$GPGGA,103809.90,3542.297155313,N,13943.271903599,E,5,06,2.03,23.734,M,36.997,M,2.9,7107*49
$GPGGA,103810.00,3542.297129591,N,13943.271876500,E,5,05,2.11,23.724,M,36.997,M,3.0,7107*45
$GPGGA,103810.10,3542.297108154,N,13943.271846582,E,5,06,1.60,23.713,M,36.997,M,3.1,7107*40
$GPGGA,103810.20,3542.297093318,N,13943.271819076,E,5,05,1.78,23.645,M,36.997,M,3.2,7107*45
$GPGGA,103810.30,3542.297077677,N,13943.271782224,E,5,06,1.63,23.547,M,36.997,M,3.3,7107*43
$GPGGA,103810.40,3542.297059955,N,13943.271745548,E,5,06,1.63,23.551,M,36.997,M,3.4,7107*41
$GPGGA,103810.50,3542.297033559,N,13943.271712843,E,5,06,1.63,23.552,M,36.997,M,3.5,7107*4A
$GPGGA,103810.60,3542.296999594,N,13943.271670628,E,5,07,1.57,23.557,M,36.997,M,3.6,7107*46
$GPGGA,103810.70,3542.296959792,N,13943.271622351,E,5,07,1.57,23.585,M,36.997,M,3.7,7107*4D
$GPGGA,103810.80,3542.296933465,N,13943.271580645,E,5,07,1.57,23.596,M,36.997,M,3.8,7107*43
$GPGGA,103810.90,3542.296914789,N,13943.271546186,E,5,07,1.57,23.593,M,36.997,M,3.9,7107*40
$GPGGA,103811.00,3542.296886633,N,13943.271502045,E,5,07,1.57,23.592,M,36.997,M,4.0,7107*43
$GPGGA,103811.10,3542.296863037,N,13943.271466136,E,5,07,1.57,23.587,M,36.997,M,4.1,7107*48
$GPGGA,103811.20,3542.296841080,N,13943.271433178,E,5,07,1.57,23.556,M,36.997,M,4.2,7107*42
$GPGGA,103811.30,3542.296817602,N,13943.271394228,E,5,07,1.57,23.562,M,36.997,M,4.3,7107*46
$GPGGA,103811.40,3542.296789848,N,13943.271354893,E,5,06,1.63,23.579,M,36.997,M,4.4,7107*44
$GPGGA,103811.50,3542.296767207,N,13943.271320855,E,5,06,1.63,23.584,M,36.997,M,4.5,7107*4E
$GPGGA,103811.60,3542.296738410,N,13943.271263844,E,5,07,1.45,23.577,M,36.997,M,4.6,7107*4B
$GPGGA,103811.70,3542.296709835,N,13943.271219430,E,5,07,1.45,23.601,M,36.997,M,4.7,7107*42
$GPGGA,103811.80,3542.296683765,N,13943.271185102,E,5,07,1.45,23.621,M,36.997,M,4.8,7107*4B
$GPGGA,103811.90,3542.296659516,N,13943.271148148,E,5,06,1.60,23.636,M,36.997,M,4.9,7107*45
$GPGGA,103812.00,3542.296632937,N,13943.271120179,E,5,05,2.18,23.552,M,36.997,M,5.0,7107*47
$GPGGA,103812.10,3542.296611789,N,13943.271080048,E,5,08,1.41,23.530,M,36.997,M,5.1,7107*43
$GPGGA,103812.20,3542.296587189,N,13943.271041239,E,5,08,1.41,23.497,M,36.997,M,5.2,7107*4C
$GPGGA,103812.30,3542.296571753,N,13943.271012459,E,5,07,1.43,23.409,M,36.997,M,5.3,7107*48
$GPGGA,103812.40,3542.296554492,N,13943.270979942,E,5,07,1.43,23.405,M,36.997,M,5.4,7107*4F
$GPGGA,103812.50,3542.296520866,N,13943.270941451,E,5,07,1.43,23.396,M,36.997,M,5.5,7107*42
$GPGGA,103812.60,3542.296487762,N,13943.270905685,E,5,07,1.43,23.429,M,36.997,M,5.6,7107*4D
$GPGGA,103812.70,3542.296465134,N,13943.270876945,E,5,06,1.60,23.391,M,36.997,M,5.7,7107*46
$GPGGA,103812.80,3542.296434553,N,13943.270830018,E,5,07,1.36,23.416,M,36.997,M,5.8,7107*4E
$GPGGA,103812.90,3542.296402185,N,13943.270792786,E,5,06,1.65,23.461,M,36.997,M,5.9,7107*44
$GPGGA,103813.00,3542.296377606,N,13943.270763288,E,5,06,1.60,23.469,M,36.997,M,6.0,7107*47
$GPGGA,103813.10,3542.296340115,N,13943.270707503,E,5,07,1.36,23.480,M,36.997,M,6.1,7107*45
$GPGGA,103813.20,3542.296313971,N,13943.270661905,E,5,07,1.36,23.502,M,36.997,M,6.2,7107*49
$GPGGA,103813.30,3542.296285363,N,13943.270623057,E,5,09,1.10,23.487,M,36.997,M,6.3,7107*40
$GPGGA,103813.40,3542.296271740,N,13943.270587412,E,5,09,1.10,23.449,M,36.997,M,6.4,7107*44
$GPGGA,103813.50,3542.296235608,N,13943.270545026,E,5,09,1.10,23.461,M,36.997,M,6.5,7107*4E
$GPGGA,103813.60,3542.296210238,N,13943.270517259,E,5,11,0.92,23.442,M,36.997,M,6.6,7107*40
$GPGGA,103813.70,3542.296181350,N,13943.270479407,E,5,10,0.93,23.458,M,36.997,M,6.7,7107*4B
$GPGGA,103813.80,3542.296152539,N,13943.270432225,E,5,10,0.96,23.470,M,36.997,M,6.8,7107*4A
$GPGGA,103813.90,3542.296124370,N,13943.270395738,E,5,10,0.96,23.488,M,36.997,M,6.9,7107*44
$GPGGA,103814.00,3542.296103086,N,13943.270363552,E,5,09,1.00,23.447,M,36.997,M,7.0,7107*4F
$GPGGA,103814.10,3542.296078265,N,13943.270323147,E,5,09,1.16,23.440,M,36.997,M,7.1,7107*49
$GPGGA,103814.20,3542.296045586,N,13943.270272488,E,5,10,1.09,23.464,M,36.997,M,2.2,7107*4B
$GPGGA,103814.30,3542.296021178,N,13943.270233175,E,4,07,1.64,23.466,M,36.997,M,2.3,7107*40
$GPGGA,103814.40,3542.295992148,N,13943.270202581,E,4,11,0.94,23.188,M,36.997,M,2.4,7107*40
$GPGGA,103814.50,3542.295963078,N,13943.270156070,E,4,11,0.97,23.206,M,36.997,M,2.5,7107*43
$GPGGA,103814.60,3542.295938395,N,13943.270113147,E,4,09,1.13,23.192,M,36.997,M,2.6,7107*43
$GPGGA,103814.70,3542.295915755,N,13943.270073460,E,4,09,1.13,23.196,M,36.997,M,2.7,7107*47
$GPGGA,103814.80,3542.295882973,N,13943.270035621,E,4,11,0.95,23.229,M,36.997,M,2.8,7107*46
$GPGGA,103814.90,3542.295841920,N,13943.269993238,E,4,11,0.95,23.269,M,36.997,M,2.9,7107*4A
$GPGGA,103815.00,3542.295813799,N,13943.269953632,E,4,10,1.09,23.305,M,36.997,M,3.0,7107*4D
$GPGGA,103815.10,3542.295790427,N,13943.269905180,E,4,10,1.09,23.304,M,36.997,M,3.1,7107*43
$GPGGA,103815.20,3542.295768878,N,13943.269870014,E,4,10,1.09,23.307,M,36.997,M,3.2,7107*4E
$GPGGA,103815.30,3542.295747197,N,13943.269842615,E,4,10,1.09,23.312,M,36.997,M,3.3,7107*49
$GPGGA,103815.40,3542.295713837,N,13943.269807262,E,4,10,1.09,23.309,M,36.997,M,3.4,7107*44
$GPGGA,103815.50,3542.295698126,N,13943.269770314,E,4,10,0.98,23.302,M,36.997,M,3.5,7107*42
$GPGGA,103815.60,3542.295671468,N,13943.269727066,E,4,10,0.98,23.314,M,36.997,M,3.6,7107*49
$GPGGA,103815.70,3542.295644041,N,13943.269692643,E,4,10,0.98,23.317,M,36.997,M,3.7,7107*4D
$GPGGA,103815.80,3542.295617631,N,13943.269653852,E,5,11,0.95,23.313,M,36.997,M,3.8,7107*40
$GPGGA,103815.90,3542.295586996,N,13943.269619707,E,5,11,0.95,23.329,M,36.997,M,3.9,7107*41
$GPGGA,103816.00,3542.295560586,N,13943.269585354,E,5,12,0.93,23.326,M,36.997,M,4.0,7107*4E
$GPGGA,103816.10,3542.295533515,N,13943.269543474,E,5,12,0.93,23.329,M,36.997,M,4.1,7107*42
$GPGGA,103816.20,3542.295508871,N,13943.269509416,E,5,12,0.93,23.328,M,36.997,M,4.2,7107*4E
$GPGGA,103816.30,3542.295475867,N,13943.269470744,E,5,12,0.93,23.338,M,36.997,M,4.3,7107*48
$GPGGA,103816.40,3542.295449361,N,13943.269438549,E,5,12,0.93,23.347,M,36.997,M,4.4,7107*41
$GPGGA,103816.50,3542.295422290,N,13943.269398014,E,5,11,0.95,23.348,M,36.997,M,4.5,7107*49
$GPGGA,103816.60,3542.295397326,N,13943.269360558,E,5,12,0.93,23.350,M,36.997,M,4.6,7107*4A
$GPGGA,103816.70,3542.295375508,N,13943.269321374,E,5,11,0.97,23.341,M,36.997,M,4.7,7107*46
$GPGGA,103816.80,3542.295354853,N,13943.269276607,E,5,11,0.97,23.346,M,36.997,M,4.8,7107*43
$GPGGA,103816.90,3542.295319921,N,13943.269238718,E,5,11,0.97,23.345,M,36.997,M,4.9,7107*48
$GPGGA,103817.00,3542.295296029,N,13943.269203619,E,5,11,0.97,23.346,M,36.997,M,5.0,7107*44
$GPGGA,103817.10,3542.295273917,N,13943.269161579,E,5,11,0.97,23.360,M,36.997,M,5.1,7107*4D
$GPGGA,103817.20,3542.295243521,N,13943.269121168,E,5,11,0.97,23.359,M,36.997,M,5.2,7107*4D
$GPGGA,103817.30,3542.295222478,N,13943.269074275,E,5,12,0.93,23.368,M,36.997,M,5.3,7107*4C
$GPGGA,103817.40,3542.295197194,N,13943.269035393,E,5,11,0.96,23.368,M,36.997,M,5.4,7107*4C
$GPGGA,103817.50,3542.295169676,N,13943.269011635,E,5,12,0.93,23.364,M,36.997,M,5.5,7107*43
$GPGGA,103817.60,3542.295145261,N,13943.268970371,E,5,12,0.93,23.358,M,36.997,M,5.6,7107*4A
$GPGGA,103817.70,3542.295122035,N,13943.268926586,E,5,11,0.96,23.349,M,36.997,M,5.7,7107*43
$GPGGA,103817.80,3542.295090561,N,13943.268896524,E,5,11,0.96,23.347,M,36.997,M,5.8,7107*43
$GPGGA,103817.90,3542.295060054,N,13943.268862593,E,5,11,0.96,23.341,M,36.997,M,5.9,7107*4E
$GPGGA,103818.00,3542.295031940,N,13943.268825258,E,5,11,0.96,23.339,M,36.997,M,6.0,7107*46
$GPGGA,103818.10,3542.295014754,N,13943.268789021,E,5,11,0.96,23.340,M,36.997,M,1.1,7107*46
$GPGGA,103818.20,3542.294985218,N,13943.268734950,E,5,11,0.96,23.340,M,36.997,M,1.2,7107*42
$GPGGA,103818.30,3542.294962004,N,13943.268699024,E,5,10,1.09,23.348,M,36.997,M,1.3,7107*46
$GPGGA,103818.40,3542.294929071,N,13943.268675889,E,5,10,1.09,23.343,M,36.997,M,1.4,7107*4D
$GPGGA,103818.50,3542.294906127,N,13943.268656736,E,5,08,1.34,23.358,M,36.997,M,1.5,7107*45
$GPGGA,103818.60,3542.294887564,N,13943.268608971,E,5,08,1.34,23.346,M,36.997,M,1.6,7107*47
$GPGGA,103818.70,3542.294858813,N,13943.268580102,E,5,08,1.34,23.345,M,36.997,M,1.7,7107*44
$GPGGA,103818.80,3542.294831673,N,13943.268566112,E,5,09,1.30,23.347,M,36.997,M,1.8,7107*4D
$GPGGA,103818.90,3542.294800408,N,13943.268526406,E,5,06,2.22,23.337,M,36.997,M,1.9,7107*4D
$GPGGA,103819.00,3542.294785092,N,13943.268492412,E,5,05,2.50,23.333,M,36.997,M,2.0,7107*43
$GPGGA,103819.10,3542.294760821,N,13943.268458690,E,5,06,1.71,23.324,M,36.997,M,2.1,7107*43
$GPGGA,103819.20,3542.294725236,N,13943.268422564,E,5,08,1.15,23.336,M,36.997,M,2.2,7107*44
$GPGGA,103819.30,3542.294693077,N,13943.268391047,E,5,08,1.15,23.349,M,36.997,M,2.3,7107*4C
$GPGGA,103819.40,3542.294669625,N,13943.268369396,E,5,08,1.59,23.368,M,36.997,M,2.4,7107*4B
$GPGGA,103819.50,3542.294650805,N,13943.268345868,E,5,07,2.09,23.339,M,36.997,M,2.5,7107*44
$GPGGA,103819.60,3542.294638294,N,13943.268302547,E,5,08,1.19,23.323,M,36.997,M,2.6,7107*4D
$GPGGA,103819.70,3542.294615630,N,13943.268260995,E,5,09,1.08,23.333,M,36.997,M,2.7,7107*4E
$GPGGA,103819.80,3542.294579292,N,13943.268231180,E,5,08,1.19,23.346,M,36.997,M,2.8,7107*40
$GPGGA,103819.90,3542.294546635,N,13943.268199492,E,5,08,1.19,23.350,M,36.997,M,2.9,7107*45
$GPGGA,103820.00,3542.294525354,N,13943.268158540,E,5,09,1.08,23.334,M,36.997,M,3.0,7107*49
$GPGGA,103820.10,3542.294492179,N,13943.268107085,E,5,09,1.08,23.336,M,36.997,M,3.1,7107*4D
$GPGGA,103820.20,3542.294458592,N,13943.268075397,E,5,10,1.03,23.342,M,36.997,M,3.2,7107*4E
$GPGGA,103820.30,3542.294430062,N,13943.268033705,E,5,10,1.03,23.321,M,36.997,M,3.3,7107*42
$GPGGA,103820.40,3542.294394718,N,13943.267992597,E,5,10,1.03,23.341,M,36.997,M,3.4,7107*43
$GPGGA,103820.50,3542.294358341,N,13943.267965306,E,5,10,1.03,23.336,M,36.997,M,3.5,7107*4D
$GPGGA,103820.60,3542.294334093,N,13943.267932405,E,5,10,1.03,23.339,M,36.997,M,3.6,7107*42
$GPGGA,103820.70,3542.294307197,N,13943.267893417,E,5,10,1.03,23.332,M,36.997,M,3.7,7107*45
$GPGGA,103820.80,3542.294277201,N,13943.267869815,E,5,10,1.03,23.358,M,36.997,M,3.8,7107*48
$GPGGA,103820.90,3542.294248527,N,13943.267848334,E,5,10,1.03,23.354,M,36.997,M,3.9,7107*40
$GPGGA,103821.00,3542.294226662,N,13943.267811819,E,5,10,1.03,23.336,M,36.997,M,4.0,7107*40
$GPGGA,103821.10,3542.294195271,N,13943.267775016,E,5,10,1.03,23.335,M,36.997,M,4.1,7107*44
$GPGGA,103821.20,3542.294164304,N,13943.267754173,E,5,12,0.89,23.337,M,36.997,M,4.2,7107*4B
$GPGGA,103821.30,3542.294151900,N,13943.267716584,E,5,12,0.89,23.331,M,36.997,M,4.3,7107*4F
$GPGGA,103821.40,3542.294131472,N,13943.267676842,E,5,09,1.22,23.336,M,36.997,M,4.4,7107*4C
$GPGGA,103821.50,3542.294078453,N,13943.267668366,E,5,08,1.29,23.350,M,36.997,M,4.5,7107*4B
$GPGGA,103821.60,3542.294048445,N,13943.267647476,E,5,08,1.29,23.316,M,36.997,M,4.6,7107*46
$GPGGA,103821.70,3542.294040750,N,13943.267603704,E,5,08,1.29,23.307,M,36.997,M,4.7,7107*4F
$GPGGA,103821.80,3542.294017538,N,13943.267562173,E,5,08,1.29,23.306,M,36.997,M,4.8,7107*42
$GPGGA,103821.90,3542.293973588,N,13943.267546201,E,5,08,1.29,23.334,M,36.997,M,4.9,7107*44
$GPGGA,103822.00,3542.293935994,N,13943.267532208,E,5,10,1.04,23.335,M,36.997,M,5.0,7107*48
$GPGGA,103822.10,3542.293911248,N,13943.267495750,E,5,10,1.04,23.329,M,36.997,M,5.1,7107*4D
$GPGGA,103822.20,3542.293881512,N,13943.267450363,E,5,10,1.04,23.324,M,36.997,M,5.2,7107*4D
$GPGGA,103822.30,3542.293844504,N,13943.267422062,E,5,11,0.94,23.332,M,36.997,M,5.3,7107*4A
$GPGGA,103822.40,3542.293804614,N,13943.267418007,E,5,11,0.94,23.339,M,36.997,M,5.4,7107*4D
$GPGGA,103822.50,3542.293773998,N,13943.267393023,E,5,11,0.94,23.335,M,36.997,M,5.5,7107*47
$GPGGA,103822.60,3542.293742796,N,13943.267353424,E,5,11,0.94,23.338,M,36.997,M,5.6,7107*47
$GPGGA,103822.70,3542.293709139,N,13943.267331772,E,5,12,0.91,23.326,M,36.997,M,5.7,7107*46
$GPGGA,103822.80,3542.293676309,N,13943.267311282,E,5,12,0.91,23.325,M,36.997,M,5.8,7107*45
$GPGGA,103822.90,3542.293645548,N,13943.267280883,E,5,11,0.94,23.329,M,36.997,M,5.9,7107*4E
$GPGGA,103823.00,3542.293604328,N,13943.267250860,E,5,11,0.94,23.334,M,36.997,M,6.0,7107*45
$GPGGA,103823.10,3542.293563649,N,13943.267229796,E,5,11,0.94,23.338,M,36.997,M,1.1,7107*46
$GPGGA,103823.20,3542.293534652,N,13943.267203619,E,5,11,0.94,23.338,M,36.997,M,1.2,7107*40
$GPGGA,103823.30,3542.293499588,N,13943.267171008,E,5,11,0.94,23.331,M,36.997,M,1.3,7107*4B
$GPGGA,103823.40,3542.293460096,N,13943.267152724,E,5,11,0.94,23.327,M,36.997,M,1.4,7107*48
$GPGGA,103823.50,3542.293426356,N,13943.267129695,E,5,11,0.94,23.326,M,36.997,M,1.5,7107*43
$GPGGA,103823.60,3542.293392263,N,13943.267109206,E,5,11,0.94,23.329,M,36.997,M,1.6,7107*4F
$GPGGA,103823.70,3542.293360140,N,13943.267081836,E,5,11,0.94,23.342,M,36.997,M,1.7,7107*45
$GPGGA,103823.80,3542.293322754,N,13943.267060305,E,5,10,1.30,23.350,M,36.997,M,1.8,7107*49
$GPGGA,103823.90,3542.293285541,N,13943.267041558,E,5,11,0.94,23.353,M,36.997,M,1.9,7107*43
$GPGGA,103824.00,3542.293253101,N,13943.267014230,E,5,11,0.94,23.358,M,36.997,M,2.0,7107*4E
$GPGGA,103824.10,3542.293223960,N,13943.266990905,E,5,11,0.94,23.365,M,36.997,M,2.1,7107*41
$GPGGA,103824.20,3542.293186208,N,13943.266974722,E,5,10,0.99,23.367,M,36.997,M,2.2,7107*47
$GPGGA,103824.30,3542.293150337,N,13943.266954582,E,5,09,1.33,23.370,M,36.997,M,2.3,7107*44
$GPGGA,103824.40,3542.293112202,N,13943.266936829,E,5,09,1.33,23.375,M,36.997,M,2.4,7107*48
$GPGGA,103824.50,3542.293073739,N,13943.266916557,E,5,09,1.33,23.368,M,36.997,M,2.5,7107*49
$GPGGA,103824.60,3542.293038389,N,13943.266904118,E,5,11,0.99,23.371,M,36.997,M,2.6,7107*45
$GPGGA,103824.70,3542.293001660,N,13943.266887384,E,5,11,0.99,23.368,M,36.997,M,2.7,7107*48
$GPGGA,103824.80,3542.292967535,N,13943.266861355,E,5,12,0.93,23.370,M,36.997,M,2.8,7107*47
$GPGGA,103824.90,3542.292925444,N,13943.266843012,E,5,12,0.93,23.380,M,36.997,M,2.9,7107*49
$GPGGA,103825.00,3542.292884257,N,13943.266823654,E,5,11,1.06,23.382,M,36.997,M,3.0,7107*49
$GPGGA,103825.10,3542.292848515,N,13943.266806017,E,5,11,1.06,23.379,M,36.997,M,3.1,7107*4A
$GPGGA,103825.20,3542.292808618,N,13943.266793925,E,5,08,1.49,23.391,M,36.997,M,3.2,7107*4E
$GPGGA,103825.30,3542.292772041,N,13943.266777680,E,5,09,1.27,23.396,M,36.997,M,3.3,7107*42
$GPGGA,103825.40,3542.292735773,N,13943.266758857,E,5,08,1.49,23.393,M,36.997,M,3.4,7107*42
$GPGGA,103825.50,3542.292697440,N,13943.266741555,E,5,08,1.49,23.388,M,36.997,M,3.5,7107*45
$GPGGA,103825.60,3542.292660163,N,13943.266729634,E,5,08,1.49,23.379,M,36.997,M,3.6,7107*4D
$GPGGA,103825.70,3542.292629623,N,13943.266714589,E,5,09,1.32,23.368,M,36.997,M,3.7,7107*45
$GPGGA,103825.80,3542.292590257,N,13943.266695346,E,5,11,0.99,23.362,M,36.997,M,3.8,7107*4D
$GPGGA,103825.90,3542.292553477,N,13943.266683999,E,5,09,1.32,23.367,M,36.997,M,3.9,7107*45
$GPGGA,103826.00,3542.292518830,N,13943.266668438,E,5,11,0.99,23.361,M,36.997,M,4.0,7107*4D
$GPGGA,103826.10,3542.292479381,N,13943.266655408,E,5,10,1.28,23.370,M,36.997,M,4.1,7107*4D
$GPGGA,103826.20,3542.292441008,N,13943.266649194,E,5,11,0.99,23.372,M,36.997,M,4.2,7107*41
$GPGGA,103826.30,3542.292401496,N,13943.266640847,E,5,11,0.99,23.371,M,36.997,M,4.3,7107*4B
$GPGGA,103826.40,3542.292365585,N,13943.266623280,E,5,11,0.99,23.378,M,36.997,M,4.4,7107*40
$GPGGA,103826.50,3542.292323765,N,13943.266610565,E,5,10,1.11,23.386,M,36.997,M,4.5,7107*43
$GPGGA,103826.60,3542.292280869,N,13943.266600357,E,5,10,1.11,23.392,M,36.997,M,4.6,7107*4B
$GPGGA,103826.70,3542.292246093,N,13943.266581728,E,5,10,1.11,23.391,M,36.997,M,4.7,7107*49
$GPGGA,103826.80,3542.292206822,N,13943.266564460,E,5,09,1.40,23.391,M,36.997,M,4.8,7107*47
$GPGGA,103826.90,3542.292170113,N,13943.266557371,E,5,10,1.11,23.387,M,36.997,M,4.9,7107*42
$GPGGA,103827.00,3542.292132257,N,13943.266545157,E,5,10,1.11,23.395,M,36.997,M,5.0,7107*41
$GPGGA,103827.10,3542.292093003,N,13943.266532210,E,5,11,0.99,23.395,M,36.997,M,5.1,7107*48
$GPGGA,103827.20,3542.292056186,N,13943.266519723,E,5,11,0.99,23.397,M,36.997,M,5.2,7107*43
$GPGGA,103827.30,3542.292019603,N,13943.266515576,E,5,11,0.99,23.392,M,36.997,M,5.3,7107*49
$GPGGA,103827.40,3542.291981769,N,13943.266504505,E,5,09,1.32,23.394,M,36.997,M,5.4,7107*44
$GPGGA,103827.50,3542.291939304,N,13943.266491724,E,5,09,1.32,23.389,M,36.997,M,5.5,7107*48
$GPGGA,103827.60,3542.291899718,N,13943.266486692,E,5,09,1.32,23.388,M,36.997,M,5.6,7107*41
$GPGGA,103827.70,3542.291859175,N,13943.266481013,E,5,09,1.32,23.387,M,36.997,M,5.7,7107*47
$GPGGA,103827.80,3542.291815329,N,13943.266472331,E,5,08,1.49,23.386,M,36.997,M,5.8,7107*47
$GPGGA,103827.90,3542.291774217,N,13943.266468672,E,5,08,1.49,23.384,M,36.997,M,5.9,7107*48
$GPGGA,103828.00,3542.291733977,N,13943.266459848,E,5,08,1.49,23.387,M,36.997,M,6.0,7107*4C
$GPGGA,103828.10,3542.291693817,N,13943.266450604,E,5,08,1.49,23.385,M,36.997,M,1.1,7107*4A
$GPGGA,103828.20,3542.291652461,N,13943.266449030,E,5,08,1.49,23.385,M,36.997,M,1.2,7107*43
$GPGGA,103828.30,3542.291614913,N,13943.266442004,E,5,08,1.49,23.384,M,36.997,M,1.3,7107*44
$GPGGA,103828.40,3542.291573238,N,13943.266428781,E,5,08,1.49,23.378,M,36.997,M,1.4,7107*41
$GPGGA,103828.50,3542.291534399,N,13943.266419318,E,5,08,1.49,23.375,M,36.997,M,1.5,7107*43
$GPGGA,103828.60,3542.291494402,N,13943.266413474,E,5,08,1.49,23.383,M,36.997,M,1.6,7107*43
$GPGGA,103828.70,3542.291456376,N,13943.266404322,E,5,08,1.49,23.386,M,36.997,M,1.7,7107*4E
$GPGGA,103828.80,3542.291414731,N,13943.266399974,E,5,08,1.49,23.389,M,36.997,M,1.8,7107*4A
$GPGGA,103828.90,3542.291374587,N,13943.266394975,E,5,09,1.32,23.390,M,36.997,M,1.9,7107*4D
$GPGGA,103829.00,3542.291335816,N,13943.266393480,E,5,09,1.32,23.384,M,36.997,M,2.0,7107*4A
$GPGGA,103829.10,3542.291294433,N,13943.266388826,E,5,09,1.32,23.379,M,36.997,M,2.1,7107*43
$GPGGA,103829.20,3542.291255036,N,13943.266375983,E,5,09,1.32,23.379,M,36.997,M,2.2,7107*43
$GPGGA,103829.30,3542.291216444,N,13943.266372460,E,5,09,1.32,23.386,M,36.997,M,2.3,7107*42
$GPGGA,103829.40,3542.291179011,N,13943.266368980,E,5,09,1.32,23.388,M,36.997,M,2.4,7107*4A
$GPGGA,103829.50,3542.291141519,N,13943.266359361,E,5,09,1.32,23.391,M,36.997,M,2.5,7107*43
$GPGGA,103829.60,3542.291100889,N,13943.266354537,E,5,09,1.32,23.394,M,36.997,M,2.6,7107*4F
$GPGGA,103829.70,3542.291064451,N,13943.266350040,E,5,09,1.32,23.397,M,36.997,M,2.7,7107*47
$GPGGA,103829.80,3542.291024778,N,13943.266350478,E,5,08,1.34,23.387,M,36.997,M,2.8,7107*42
$GPGGA,103829.90,3542.290989437,N,13943.266356019,E,5,08,1.34,23.385,M,36.997,M,2.9,7107*42
$GPGGA,103830.00,3542.290955929,N,13943.266357484,E,5,08,1.34,23.389,M,36.997,M,3.0,7107*45
$GPGGA,103830.10,3542.290919716,N,13943.266348880,E,5,08,1.34,23.384,M,36.997,M,3.1,7107*44
$GPGGA,103830.20,3542.290876495,N,13943.266350876,E,4,07,1.99,23.397,M,36.997,M,3.2,7107*4F
$GPGGA,103830.30,3542.290835349,N,13943.266340988,E,5,08,1.34,23.366,M,36.997,M,3.3,7107*48
$GPGGA,103830.40,3542.290798071,N,13943.266337688,E,5,08,1.34,23.384,M,36.997,M,3.4,7107*4B
$GPGGA,103830.50,3542.290762475,N,13943.266339565,E,5,08,1.34,23.421,M,36.997,M,3.5,7107*48
$GPGGA,103830.60,3542.290715920,N,13943.266332060,E,5,08,1.34,23.447,M,36.997,M,3.6,7107*4E
$GPGGA,103830.70,3542.290676188,N,13943.266332894,E,5,08,1.34,23.457,M,36.997,M,3.7,7107*42
$GPGGA,103830.80,3542.290625702,N,13943.266335401,E,5,08,1.34,23.452,M,36.997,M,3.8,7107*42
$GPGGA,103830.90,3542.290580697,N,13943.266322300,E,5,08,1.34,23.442,M,36.997,M,3.9,7107*42
$GPGGA,103831.00,3542.290535434,N,13943.266321515,E,5,09,1.27,23.456,M,36.997,M,4.0,7107*46
$GPGGA,103831.10,3542.290492561,N,13943.266327555,E,5,09,1.27,23.486,M,36.997,M,4.1,7107*44
$GPGGA,103831.20,3542.290461159,N,13943.266338316,E,5,09,1.27,23.449,M,36.996,M,4.2,7107*4A
$GPGGA,103831.30,3542.290437536,N,13943.266331783,E,5,09,1.27,23.452,M,36.996,M,4.3,7107*4F
$GPGGA,103831.40,3542.290390491,N,13943.266325395,E,5,09,1.27,23.426,M,36.996,M,4.4,7107*4C
$GPGGA,103831.50,3542.290353600,N,13943.266326099,E,5,09,1.27,23.420,M,36.996,M,4.5,7107*43
$GPGGA,103831.60,3542.290319385,N,13943.266327282,E,5,09,1.27,23.479,M,36.996,M,4.6,7107*40
$GPGGA,103831.70,3542.290279928,N,13943.266317377,E,5,09,1.27,23.456,M,36.996,M,4.7,7107*4F
$GPGGA,103831.80,3542.290231138,N,13943.266328017,E,5,09,1.27,23.454,M,36.996,M,4.8,7107*41
$GPGGA,103831.90,3542.290188734,N,13943.266326845,E,5,09,1.27,23.446,M,36.996,M,4.9,7107*48
$GPGGA,103832.00,3542.290148928,N,13943.266329278,E,5,09,1.27,23.437,M,36.996,M,5.0,7107*48
$GPGGA,103832.10,3542.290098188,N,13943.266338138,E,5,09,1.27,23.408,M,36.996,M,5.1,7107*4D
$GPGGA,103832.20,3542.290078976,N,13943.266338529,E,5,09,1.27,23.414,M,36.996,M,5.2,7107*43
$GPGGA,103832.30,3542.290048339,N,13943.266344725,E,5,09,1.27,23.461,M,36.996,M,5.3,7107*46
$GPGGA,103832.40,3542.290011144,N,13943.266347915,E,5,09,1.27,23.453,M,36.996,M,5.4,7107*4D
$GPGGA,103832.50,3542.289977596,N,13943.266355112,E,5,09,1.27,23.411,M,36.996,M,5.5,7107*4D
$GPGGA,103832.60,3542.289950764,N,13943.266360950,E,5,09,1.27,23.460,M,36.996,M,5.6,7107*49
$GPGGA,103832.70,3542.289915301,N,13943.266366307,E,5,09,1.27,23.437,M,36.996,M,5.7,7107*43
$GPGGA,103832.80,3542.289873377,N,13943.266366760,E,5,09,1.27,23.443,M,36.996,M,5.8,7107*45
