$GPGGA,204122.60,3542.292615782,N,13943.267585814,E,5,10,1.49,24.951,M,36.997,M,5.6,3107*49
$GPGGA,204122.70,3542.292615655,N,13943.267585734,E,5,10,1.49,24.951,M,36.997,M,5.7,3107*4F
$GPGGA,204122.80,3542.292615525,N,13943.267585654,E,5,10,1.49,24.951,M,36.997,M,5.8,3107*4C
$GPGGA,204122.90,3542.292615400,N,13943.267585573,E,5,10,1.49,24.951,M,36.997,M,5.9,3107*4C
$GPGGA,204123.00,3542.292615278,N,13943.267585492,E,5,10,1.49,24.950,M,36.997,M,6.0,3107*48
$GPGGA,204123.10,3542.292615158,N,13943.267585419,E,5,10,1.49,24.950,M,36.997,M,1.1,3107*4D
$GPGGA,204123.20,3542.292615069,N,13943.267585349,E,5,10,1.49,24.950,M,36.997,M,1.2,3107*4C
$GPGGA,204123.30,3542.292614978,N,13943.267585284,E,5,10,1.49,24.950,M,36.997,M,1.3,3107*44
$GPGGA,204123.40,3542.292614894,N,13943.267585227,E,5,10,1.49,24.950,M,36.997,M,1.4,3107*4E
$GPGGA,204123.50,3542.292614812,N,13943.267585165,E,5,10,1.49,24.950,M,36.997,M,1.5,3107*45
$GPGGA,204123.60,3542.292614727,N,13943.267585106,E,5,10,1.49,24.950,M,36.997,M,1.6,3107*49
$GPGGA,204123.70,3542.292614643,N,13943.267585050,E,5,10,1.49,24.950,M,36.997,M,1.7,3107*48
$GPGGA,204123.80,3542.292614562,N,13943.267585007,E,5,10,1.49,24.950,M,36.997,M,1.8,3107*4A
$GPGGA,204123.90,3542.292614483,N,13943.267584945,E,5,10,1.49,24.950,M,36.997,M,1.9,3107*4A
$GPGGA,204124.00,3542.292614398,N,13943.267584891,E,5,10,1.49,24.950,M,36.997,M,2.0,3107*4B
$GPGGA,204124.10,3542.292614323,N,13943.267584839,E,5,10,1.49,24.951,M,36.997,M,2.1,3107*48
$GPGGA,204124.20,3542.292614247,N,13943.267584799,E,5,10,1.49,24.951,M,36.997,M,2.2,3107*4E
$GPGGA,204124.30,3542.292614168,N,13943.267584759,E,5,10,1.49,24.951,M,36.997,M,2.3,3107*4C
$GPGGA,204124.40,3542.292614099,N,13943.267584709,E,5,10,1.49,24.951,M,36.997,M,2.4,3107*46
$GPGGA,204124.50,3542.292613993,N,13943.267584694,E,5,10,1.49,24.950,M,36.997,M,2.5,3107*46
$GPGGA,204124.60,3542.292613926,N,13943.267584654,E,5,10,1.49,24.950,M,36.997,M,2.6,3107*44
$GPGGA,204124.70,3542.292613858,N,13943.267584612,E,5,10,1.49,24.950,M,36.997,M,2.7,3107*4E
$GPGGA,204124.80,3542.292613764,N,13943.267584592,E,5,10,1.49,24.950,M,36.997,M,2.8,3107*45
$GPGGA,204124.90,3542.292613702,N,13943.267584552,E,5,10,1.49,24.950,M,36.997,M,2.9,3107*49
$GPGGA,204125.00,3542.292613640,N,13943.267584523,E,5,10,1.49,24.950,M,36.997,M,3.0,3107*48
$GPGGA,204125.10,3542.292613584,N,13943.267584487,E,5,10,1.49,24.950,M,36.997,M,3.1,3107*4C
$GPGGA,204125.20,3542.292613525,N,13943.267584451,E,5,10,1.49,24.950,M,36.997,M,3.2,3107*4C
$GPGGA,204125.30,3542.292613432,N,13943.267584434,E,5,10,1.49,24.950,M,36.997,M,3.3,3107*48
$GPGGA,204125.40,3542.292613371,N,13943.267584403,E,5,10,1.49,24.950,M,36.997,M,3.4,3107*4C
$GPGGA,204125.50,3542.292613286,N,13943.267584389,E,5,10,1.49,24.950,M,36.997,M,3.5,3107*40
$GPGGA,204125.60,3542.292613200,N,13943.267584370,E,5,10,1.49,24.950,M,36.997,M,3.6,3107*48
$GPGGA,204125.70,3542.292613119,N,13943.267584358,E,5,10,1.49,24.950,M,36.997,M,3.7,3107*49
$GPGGA,204125.80,3542.292613071,N,13943.267584323,E,5,10,1.49,24.950,M,36.997,M,3.8,3107*4A
$GPGGA,204125.90,3542.292613023,N,13943.267584296,E,5,10,1.49,24.950,M,36.997,M,3.9,3107*42
$GPGGA,204126.00,3542.292612978,N,13943.267584262,E,5,10,1.49,24.950,M,36.997,M,4.0,3107*4B
$GPGGA,204126.10,3542.292612903,N,13943.267584247,E,5,10,1.49,24.950,M,36.997,M,4.1,3107*40
$GPGGA,204126.20,3542.292612831,N,13943.267584243,E,5,10,1.49,24.950,M,36.997,M,4.2,3107*44
$GPGGA,204126.30,3542.292612762,N,13943.267584234,E,5,10,1.49,24.950,M,36.997,M,4.3,3107*4D
$GPGGA,204126.40,3542.292612717,N,13943.267584212,E,5,10,1.49,24.950,M,36.997,M,4.4,3107*4B
$GPGGA,204126.50,3542.292612676,N,13943.267584193,E,5,10,1.49,24.950,M,36.997,M,4.5,3107*47
$GPGGA,204126.60,3542.292612632,N,13943.267584175,E,5,10,1.49,24.950,M,36.997,M,4.6,3107*4F
$GPGGA,204126.70,3542.292612561,N,13943.267584170,E,5,10,1.49,24.950,M,36.997,M,4.7,3107*4F
$GPGGA,204126.80,3542.292612487,N,13943.267584164,E,5,10,1.49,24.950,M,36.997,M,4.8,3107*43
$GPGGA,204126.90,3542.292612419,N,13943.267584170,E,5,10,1.49,24.950,M,36.997,M,4.9,3107*41
$GPGGA,204127.00,3542.292612353,N,13943.267584178,E,5,10,1.49,24.950,M,36.997,M,5.0,3107*40
$GPGGA,204127.10,3542.292612285,N,13943.267584192,E,5,10,1.49,24.950,M,36.997,M,5.1,3107*4E
$GPGGA,204127.20,3542.292612212,N,13943.267584200,E,5,10,1.49,24.950,M,36.997,M,5.2,3107*48
$GPGGA,204127.30,3542.292612144,N,13943.267584203,E,5,10,1.49,24.950,M,36.997,M,5.3,3107*4B
$GPGGA,204127.40,3542.292612073,N,13943.267584204,E,5,10,1.49,24.950,M,36.997,M,5.4,3107*49
$GPGGA,204127.50,3542.292612020,N,13943.267584187,E,5,10,1.49,24.950,M,36.997,M,5.5,3107*47
$GPGGA,204127.60,3542.292611965,N,13943.267584172,E,5,10,1.49,24.950,M,36.997,M,5.6,3107*46
$GPGGA,204127.70,3542.292611914,N,13943.267584156,E,5,10,1.49,24.949,M,36.997,M,5.7,3107*4E
$GPGGA,204127.80,3542.292611863,N,13943.267584129,E,5,10,1.49,24.949,M,36.997,M,5.8,3107*47
$GPGGA,204127.90,3542.292611808,N,13943.267584109,E,5,10,1.49,24.949,M,36.997,M,5.9,3107*48
$GPGGA,204128.00,3542.292611755,N,13943.267584080,E,5,10,1.49,24.949,M,36.997,M,6.0,3107*43
$GPGGA,204128.10,3542.292611693,N,13943.267584079,E,5,10,1.49,24.949,M,36.997,M,1.1,3107*49
$GPGGA,204128.20,3542.292611632,N,13943.267584022,E,5,10,1.49,24.949,M,36.997,M,1.2,3107*4C
$GPGGA,204128.30,3542.292611567,N,13943.267583965,E,5,10,1.49,24.949,M,36.997,M,1.3,3107*42
$GPGGA,204128.40,3542.292611514,N,13943.267583907,E,5,10,1.49,24.949,M,36.997,M,1.4,3107*42
$GPGGA,204128.50,3542.292611465,N,13943.267583838,E,5,10,1.49,24.949,M,36.997,M,1.5,3107*48
$GPGGA,204128.60,3542.292611407,N,13943.267583785,E,5,10,1.49,24.948,M,36.997,M,1.6,3107*44
$GPGGA,204128.70,3542.292611351,N,13943.267583727,E,5,10,1.49,24.948,M,36.997,M,1.7,3107*48
$GPGGA,204128.80,3542.292611297,N,13943.267583703,E,5,10,1.49,24.948,M,36.997,M,1.8,3107*45
$GPGGA,204128.90,3542.292611242,N,13943.267583677,E,5,10,1.49,24.948,M,36.997,M,1.9,3107*4F
$GPGGA,204129.00,3542.292611187,N,13943.267583627,E,5,10,1.49,24.948,M,36.997,M,2.0,3107*42
$GPGGA,204129.10,3542.292611132,N,13943.267583574,E,5,10,1.49,24.948,M,36.997,M,2.1,3107*49
$GPGGA,204129.20,3542.292611077,N,13943.267583525,E,5,10,1.49,24.948,M,36.997,M,2.2,3107*4D
$GPGGA,204129.30,3542.292611023,N,13943.267583476,E,5,10,1.49,24.948,M,36.997,M,2.3,3107*4B
$GPGGA,204129.40,3542.292610974,N,13943.267583432,E,5,10,1.49,24.948,M,36.997,M,2.4,3107*41
$GPGGA,204129.50,3542.292610927,N,13943.267583386,E,5,10,1.49,24.947,M,36.997,M,2.5,3107*40
$GPGGA,204129.60,3542.292610877,N,13943.267583341,E,5,10,1.49,24.947,M,36.997,M,2.6,3107*4F
$GPGGA,204129.70,3542.292610831,N,13943.267583302,E,5,10,1.49,24.947,M,36.997,M,2.7,3107*4A
$GPGGA,204129.80,3542.292610780,N,13943.267583268,E,5,10,1.49,24.947,M,36.997,M,2.8,3107*42
$GPGGA,204129.90,3542.292610727,N,13943.267583231,E,5,10,1.49,24.947,M,36.997,M,2.9,3107*43
$GPGGA,204130.00,3542.292610679,N,13943.267583194,E,5,10,1.49,24.947,M,36.997,M,3.0,3107*4C
$GPGGA,204130.10,3542.292610608,N,13943.267583142,E,5,10,1.49,24.947,M,36.997,M,3.1,3107*41
$GPGGA,204130.20,3542.292610539,N,13943.267583096,E,5,10,1.49,24.947,M,36.997,M,3.2,3107*48
$GPGGA,204130.30,3542.292610468,N,13943.267583057,E,5,10,1.49,24.947,M,36.997,M,3.3,3107*40
$GPGGA,204130.40,3542.292610412,N,13943.267583029,E,5,10,1.49,24.947,M,36.997,M,3.4,3107*44
$GPGGA,204130.50,3542.292610392,N,13943.267583020,E,5,10,1.49,24.946,M,36.997,M,3.5,3107*43
$GPGGA,204130.60,3542.292610374,N,13943.267583011,E,5,10,1.49,24.946,M,36.997,M,3.6,3107*49
$GPGGA,204130.70,3542.292610357,N,13943.267583002,E,5,10,1.49,24.946,M,36.997,M,3.7,3107*4A
$GPGGA,204130.80,3542.292610336,N,13943.267583002,E,5,10,1.49,24.946,M,36.997,M,3.8,3107*4D
$GPGGA,204130.90,3542.292610318,N,13943.267583002,E,5,10,1.49,24.946,M,36.997,M,3.9,3107*41
$GPGGA,204131.00,3542.292610303,N,13943.267583004,E,5,10,1.49,24.946,M,36.997,M,4.0,3107*4B
$GPGGA,204131.10,3542.292610284,N,13943.267583003,E,5,10,1.49,24.946,M,36.997,M,4.1,3107*42
$GPGGA,204131.20,3542.292610269,N,13943.267582999,E,5,10,1.49,24.946,M,36.997,M,4.2,3107*4A
$GPGGA,204131.30,3542.292610267,N,13943.267582986,E,5,10,1.49,24.946,M,36.997,M,4.3,3107*4A
$GPGGA,204131.40,3542.292610268,N,13943.267582970,E,5,10,1.49,24.946,M,36.997,M,4.4,3107*4C
$GPGGA,204131.50,3542.292610256,N,13943.267582968,E,5,10,1.49,24.946,M,36.997,M,4.5,3107*48
$GPGGA,204131.60,3542.292610244,N,13943.267582961,E,5,10,1.49,24.946,M,36.997,M,4.6,3107*42
$GPGGA,204131.70,3542.292610230,N,13943.267582958,E,5,10,1.49,24.946,M,36.997,M,4.7,3107*4B
$GPGGA,204131.80,3542.292610218,N,13943.267582956,E,5,10,1.49,24.945,M,36.997,M,4.8,3107*4C
$GPGGA,204131.90,3542.292610201,N,13943.267582948,E,5,10,1.49,24.945,M,36.997,M,4.9,3107*4B
$GPGGA,204132.00,3542.292610183,N,13943.267582940,E,5,10,1.49,24.945,M,36.997,M,5.0,3107*48
$GPGGA,204132.10,3542.292610167,N,13943.267582940,E,5,10,1.49,24.945,M,36.997,M,5.1,3107*42
$GPGGA,204132.20,3542.292610118,N,13943.267582932,E,5,10,1.49,24.945,M,36.997,M,5.2,3107*4F
$GPGGA,204132.30,3542.292610071,N,13943.267582929,E,5,10,1.49,24.945,M,36.997,M,5.3,3107*4B
$GPGGA,204132.40,3542.292610042,N,13943.267582936,E,5,10,1.49,24.945,M,36.997,M,5.4,3107*45
$GPGGA,204132.50,3542.292609996,N,13943.267582934,E,5,10,1.49,24.945,M,36.997,M,5.5,3107*4F
$GPGGA,204132.60,3542.292609969,N,13943.267582933,E,5,10,1.49,24.945,M,36.997,M,5.6,3107*48
$GPGGA,204132.70,3542.292609961,N,13943.267582911,E,5,10,1.49,24.945,M,36.997,M,5.7,3107*40
$GPGGA,204132.80,3542.292609944,N,13943.267582897,E,5,10,1.49,24.945,M,36.997,M,5.8,3107*48
$GPGGA,204132.90,3542.292609892,N,13943.267582889,E,5,10,1.49,24.944,M,36.997,M,5.9,3107*4C
$GPGGA,204133.00,3542.292609858,N,13943.267582892,E,5,10,1.49,24.944,M,36.997,M,6.0,3107*42
$GPGGA,204133.10,3542.292609810,N,13943.267582880,E,5,10,1.49,24.944,M,36.997,M,1.1,3107*4A
$GPGGA,204133.20,3542.292609759,N,13943.267582874,E,5,10,1.49,24.944,M,36.997,M,1.2,3107*43
$GPGGA,204133.30,3542.292609727,N,13943.267582875,E,5,10,1.49,24.944,M,36.997,M,1.3,3107*4B
$GPGGA,204133.40,3542.292609683,N,13943.267582827,E,5,10,1.49,24.944,M,36.997,M,1.4,3107*43
$GPGGA,204133.50,3542.292609639,N,13943.267582815,E,5,10,1.49,24.944,M,36.997,M,1.5,3107*43
$GPGGA,204133.60,3542.292609601,N,13943.267582802,E,5,10,1.49,24.944,M,36.997,M,1.6,3107*4E
$GPGGA,204133.70,3542.292609557,N,13943.267582764,E,5,10,1.49,24.944,M,36.997,M,1.7,3107*41
$GPGGA,204133.80,3542.292609510,N,13943.267582731,E,5,10,1.49,24.944,M,36.997,M,1.8,3107*42
$GPGGA,204133.90,3542.292609464,N,13943.267582697,E,5,10,1.49,24.943,M,36.997,M,1.9,3107*4A
$GPGGA,204134.00,3542.292609420,N,13943.267582655,E,5,10,1.49,24.943,M,36.997,M,2.0,3107*40
$GPGGA,204134.10,3542.292609381,N,13943.267582603,E,5,10,1.49,24.943,M,36.997,M,2.1,3107*4F
$GPGGA,204134.20,3542.292609341,N,13943.267582556,E,5,10,1.49,24.943,M,36.997,M,2.2,3107*40
$GPGGA,204134.30,3542.292609301,N,13943.267582513,E,5,10,1.49,24.943,M,36.997,M,2.3,3107*45
$GPGGA,204134.40,3542.292609260,N,13943.267582475,E,5,10,1.49,24.943,M,36.997,M,2.4,3107*42
$GPGGA,204134.50,3542.292609217,N,13943.267582436,E,5,10,1.49,24.943,M,36.997,M,2.5,3107*45
$GPGGA,204134.60,3542.292609178,N,13943.267582392,E,5,10,1.49,24.943,M,36.997,M,2.6,3107*46
$GPGGA,204134.70,3542.292609133,N,13943.267582352,E,5,10,1.49,24.943,M,36.997,M,2.7,3107*45
$GPGGA,204134.80,3542.292609094,N,13943.267582310,E,5,10,1.49,24.942,M,36.997,M,2.8,3107*4E
$GPGGA,204134.90,3542.292609053,N,13943.267582270,E,5,10,1.49,24.942,M,36.997,M,2.9,3107*42
$GPGGA,204135.00,3542.292609009,N,13943.267582223,E,5,10,1.49,24.942,M,36.997,M,3.0,3107*4B
$GPGGA,204135.10,3542.292608968,N,13943.267582183,E,5,10,1.49,24.942,M,36.997,M,3.1,3107*4D
$GPGGA,204135.20,3542.292608929,N,13943.267582135,E,5,10,1.49,24.942,M,36.997,M,3.2,3107*45
$GPGGA,204135.30,3542.292608883,N,13943.267582094,E,5,10,1.49,24.942,M,36.997,M,3.3,3107*4E
$GPGGA,204135.40,3542.292608838,N,13943.267582051,E,5,10,1.49,24.942,M,36.997,M,3.4,3107*47
$GPGGA,204135.50,3542.292608797,N,13943.267582011,E,5,10,1.49,24.942,M,36.997,M,3.5,3107*49
$GPGGA,204135.60,3542.292608750,N,13943.267581974,E,5,10,1.49,24.942,M,36.997,M,3.6,3107*4B
$GPGGA,204135.70,3542.292608712,N,13943.267581952,E,5,10,1.49,24.942,M,36.997,M,3.7,3107*49
$GPGGA,204135.80,3542.292608679,N,13943.267581930,E,5,10,1.49,24.942,M,36.997,M,3.8,3107*41
$GPGGA,204135.90,3542.292608636,N,13943.267581894,E,5,10,1.49,24.941,M,36.997,M,3.9,3107*46
$GPGGA,204136.00,3542.292608599,N,13943.267581853,E,5,10,1.49,24.941,M,36.997,M,4.0,3107*4F
$GPGGA,204136.10,3542.292608551,N,13943.267581820,E,5,10,1.49,24.941,M,36.997,M,4.1,3107*4F
$GPGGA,204136.20,3542.292608513,N,13943.267581789,E,5,10,1.49,24.941,M,36.997,M,4.2,3107*45
$GPGGA,204136.30,3542.292608477,N,13943.267581752,E,5,10,1.49,24.941,M,36.997,M,4.3,3107*40
$GPGGA,204136.40,3542.292608432,N,13943.267581712,E,5,10,1.49,24.941,M,36.997,M,4.4,3107*45
$GPGGA,204136.50,3542.292608392,N,13943.267581671,E,5,10,1.49,24.941,M,36.997,M,4.5,3107*4C
$GPGGA,204136.60,3542.292608366,N,13943.267581641,E,5,10,1.49,24.941,M,36.997,M,4.6,3107*44
$GPGGA,204136.70,3542.292608336,N,13943.267581612,E,5,10,1.49,24.941,M,36.997,M,4.7,3107*47
$GPGGA,204136.80,3542.292608307,N,13943.267581588,E,5,10,1.49,24.941,M,36.997,M,4.8,3107*45
$GPGGA,204136.90,3542.292608273,N,13943.267581567,E,5,10,1.49,24.941,M,36.997,M,4.9,3107*46
$GPGGA,204137.00,3542.292608239,N,13943.267581526,E,5,10,1.49,24.941,M,36.997,M,5.0,3107*4D
$GPGGA,204137.10,3542.292608198,N,13943.267581480,E,5,10,1.49,24.940,M,36.997,M,5.1,3107*49
$GPGGA,204137.20,3542.292608150,N,13943.267581424,E,5,10,1.49,24.940,M,36.997,M,5.2,3107*43
$GPGGA,204137.30,3542.292608100,N,13943.267581365,E,5,10,1.49,24.940,M,36.997,M,5.3,3107*44
$GPGGA,204137.40,3542.292608048,N,13943.267581311,E,5,10,1.49,24.940,M,36.997,M,5.4,3107*4A
$GPGGA,204137.50,3542.292607995,N,13943.267581256,E,5,10,1.49,24.940,M,36.997,M,5.5,3107*4E
$GPGGA,204137.60,3542.292607947,N,13943.267581192,E,5,10,1.49,24.940,M,36.997,M,5.6,3107*4A
$GPGGA,204137.70,3542.292607895,N,13943.267581135,E,5,10,1.49,24.940,M,36.997,M,5.7,3107*49
$GPGGA,204137.80,3542.292607843,N,13943.267581087,E,5,10,1.49,24.940,M,36.997,M,5.8,3107*4A
$GPGGA,204137.90,3542.292607796,N,13943.267581031,E,5,10,1.49,24.940,M,36.997,M,5.9,3107*40
$GPGGA,204138.00,3542.292607749,N,13943.267580987,E,5,10,1.49,24.940,M,36.997,M,6.0,3107*4B
$GPGGA,204138.10,3542.292607703,N,13943.267580959,E,5,10,1.49,24.940,M,36.997,M,1.1,3107*41
$GPGGA,204138.20,3542.292607655,N,13943.267580931,E,5,10,1.49,24.940,M,36.997,M,1.2,3107*4D
$GPGGA,204138.30,3542.292607610,N,13943.267580908,E,5,10,1.49,24.940,M,36.997,M,1.3,3107*46
$GPGGA,204138.40,3542.292607573,N,13943.267580881,E,5,10,1.49,24.940,M,36.997,M,1.4,3107*40
$GPGGA,204138.50,3542.292607531,N,13943.267580858,E,5,10,1.49,24.940,M,36.997,M,1.5,3107*42
$GPGGA,204138.60,3542.292607494,N,13943.267580823,E,5,10,1.49,24.939,M,36.997,M,1.6,3107*4E
$GPGGA,204138.70,3542.292607453,N,13943.267580798,E,5,10,1.49,24.939,M,36.997,M,1.7,3107*4A
$GPGGA,204138.80,3542.292607418,N,13943.267580768,E,5,10,1.49,24.939,M,36.997,M,1.8,3107*4A
$GPGGA,204138.90,3542.292607373,N,13943.267580738,E,5,10,1.49,24.939,M,36.997,M,1.9,3107*45
$GPGGA,204139.00,3542.292607330,N,13943.267580709,E,5,10,1.49,24.939,M,36.997,M,2.0,3107*42
$GPGGA,204139.10,3542.292607294,N,13943.267580677,E,5,10,1.49,24.939,M,36.997,M,2.1,3107*45
$GPGGA,204139.20,3542.292607254,N,13943.267580647,E,5,10,1.49,24.939,M,36.997,M,2.2,3107*4A
$GPGGA,204139.30,3542.292607208,N,13943.267580624,E,5,10,1.49,24.939,M,36.997,M,2.3,3107*46
$GPGGA,204139.40,3542.292607170,N,13943.267580597,E,5,10,1.49,24.939,M,36.997,M,2.4,3107*41
$GPGGA,204139.50,3542.292607125,N,13943.267580566,E,5,10,1.49,24.939,M,36.997,M,2.5,3107*4F
$GPGGA,204139.60,3542.292607078,N,13943.267580538,E,5,10,1.49,24.939,M,36.997,M,2.6,3107*4D
$GPGGA,204139.70,3542.292607040,N,13943.267580509,E,5,10,1.49,24.939,M,36.997,M,2.7,3107*44
$GPGGA,204139.80,3542.292607003,N,13943.267580487,E,5,10,1.49,24.938,M,36.997,M,2.8,3107*45
$GPGGA,204139.90,3542.292606964,N,13943.267580455,E,5,10,1.49,24.938,M,36.997,M,2.9,3107*43
$GPGGA,204140.00,3542.292606925,N,13943.267580439,E,5,10,1.49,24.938,M,36.997,M,3.0,3107*43
$GPGGA,204140.10,3542.292606888,N,13943.267580407,E,5,10,1.49,24.938,M,36.997,M,3.1,3107*48
$GPGGA,204140.20,3542.292606848,N,13943.267580381,E,5,10,1.49,24.938,M,36.997,M,3.2,3107*4D
$GPGGA,204140.30,3542.292606811,N,13943.267580354,E,5,10,1.49,24.938,M,36.997,M,3.3,3107*49
$GPGGA,204140.40,3542.292606770,N,13943.267580333,E,5,10,1.49,24.938,M,36.997,M,3.4,3107*40
$GPGGA,204140.50,3542.292606727,N,13943.267580312,E,5,10,1.49,24.938,M,36.997,M,3.5,3107*41
$GPGGA,204140.60,3542.292606689,N,13943.267580290,E,5,10,1.49,24.938,M,36.997,M,3.6,3107*4F
$GPGGA,204140.70,3542.292606653,N,13943.267580259,E,5,10,1.49,24.938,M,36.997,M,3.7,3107*4D
$GPGGA,204140.80,3542.292606617,N,13943.267580233,E,5,10,1.49,24.938,M,36.997,M,3.8,3107*41
$GPGGA,204140.90,3542.292606582,N,13943.267580203,E,5,10,1.49,24.938,M,36.997,M,3.9,3107*4D
$GPGGA,204141.00,3542.292606546,N,13943.267580169,E,5,10,1.49,24.937,M,36.997,M,4.0,3107*43
$GPGGA,204141.10,3542.292606512,N,13943.267580134,E,5,10,1.49,24.937,M,36.997,M,4.1,3107*4A
$GPGGA,204141.20,3542.292606488,N,13943.267580115,E,5,10,1.49,24.937,M,36.997,M,4.2,3107*4B
$GPGGA,204141.30,3542.292606466,N,13943.267580099,E,5,10,1.49,24.937,M,36.997,M,4.3,3107*4E
$GPGGA,204141.40,3542.292606446,N,13943.267580079,E,5,10,1.49,24.937,M,36.997,M,4.4,3107*42
$GPGGA,204141.50,3542.292606415,N,13943.267580046,E,5,10,1.49,24.937,M,36.997,M,4.5,3107*48
$GPGGA,204141.60,3542.292606391,N,13943.267580016,E,5,10,1.49,24.937,M,36.997,M,4.6,3107*46
$GPGGA,204141.70,3542.292606376,N,13943.267579989,E,5,10,1.49,24.937,M,36.997,M,4.7,3107*46
$GPGGA,204141.80,3542.292606377,N,13943.267579952,E,5,10,1.49,24.937,M,36.997,M,4.8,3107*41
$GPGGA,204141.90,3542.292606423,N,13943.267579920,E,5,10,1.49,24.937,M,36.997,M,4.9,3107*42
$GPGGA,204142.00,3542.292606455,N,13943.267579889,E,5,10,1.49,24.937,M,36.997,M,5.0,3107*43
$GPGGA,204142.10,3542.292606459,N,13943.267579847,E,5,10,1.49,24.937,M,36.997,M,5.1,3107*4D
$GPGGA,204142.20,3542.292606477,N,13943.267579798,E,5,10,1.49,24.937,M,36.997,M,5.2,3107*4C
$GPGGA,204142.30,3542.292606517,N,13943.267579762,E,5,10,1.49,24.937,M,36.997,M,5.3,3107*4E
$GPGGA,204142.40,3542.292606557,N,13943.267579753,E,5,10,1.49,24.937,M,36.997,M,5.4,3107*48
$GPGGA,204142.50,3542.292606975,N,13943.267579764,E,5,10,1.49,24.936,M,36.997,M,5.5,3107*41
$GPGGA,204142.60,3542.292607356,N,13943.267579098,E,5,10,1.49,24.936,M,36.997,M,5.6,3107*4F
$GPGGA,204142.70,3542.292607159,N,13943.267577777,E,5,10,1.49,24.936,M,36.997,M,5.7,3107*4A
$GPGGA,204142.80,3542.292606297,N,13943.267576049,E,5,10,1.49,24.936,M,36.997,M,5.8,3107*41
$GPGGA,204142.90,3542.292603301,N,13943.267573086,E,5,10,1.49,24.938,M,36.997,M,5.9,3107*42
$GPGGA,204143.00,3542.292598334,N,13943.267567396,E,5,10,1.49,24.938,M,36.997,M,6.0,3107*40
$GPGGA,204143.10,3542.292591268,N,13943.267560707,E,5,10,1.49,24.937,M,36.997,M,6.1,3107*45
$GPGGA,204143.20,3542.292581393,N,13943.267555317,E,5,10,1.49,24.938,M,36.997,M,6.2,3107*4D
$GPGGA,204143.30,3542.292570476,N,13943.267544763,E,5,10,1.49,24.936,M,36.997,M,6.3,3107*46
$GPGGA,204143.40,3542.292555267,N,13943.267534325,E,5,10,1.49,24.940,M,36.997,M,6.4,3107*47
$GPGGA,204143.50,3542.292539815,N,13943.267526538,E,5,10,1.49,24.943,M,36.997,M,6.5,3107*48
$GPGGA,204143.60,3542.292525216,N,13943.267509712,E,5,10,1.49,24.940,M,36.997,M,6.6,3107*48
$GPGGA,204143.70,3542.292512054,N,13943.267491001,E,5,10,1.49,24.937,M,36.997,M,6.7,3107*4D
$GPGGA,204143.80,3542.292495208,N,13943.267472228,E,5,10,1.49,24.945,M,36.997,M,6.8,3107*49
$GPGGA,204143.90,3542.292482830,N,13943.267464679,E,5,10,1.49,24.955,M,36.997,M,6.9,3107*48
$GPGGA,204144.00,3542.292464040,N,13943.267445835,E,5,10,1.49,24.947,M,36.997,M,7.0,3107*4F
$GPGGA,204144.10,3542.292454168,N,13943.267417157,E,5,10,1.49,24.964,M,36.997,M,2.1,3107*49
$GPGGA,204144.20,3542.292438491,N,13943.267394849,E,5,10,1.49,24.975,M,36.997,M,2.2,3107*4A
$GPGGA,204144.30,3542.292416344,N,13943.267383131,E,5,09,1.56,24.976,M,36.997,M,2.3,3107*4C
$GPGGA,204144.40,3542.292398272,N,13943.267363287,E,5,09,1.56,24.970,M,36.997,M,2.4,3107*4F
$GPGGA,204144.50,3542.292379301,N,13943.267330680,E,5,10,1.49,24.991,M,36.997,M,2.5,3107*49
$GPGGA,204144.60,3542.292358844,N,13943.267307157,E,5,10,1.49,25.000,M,36.997,M,2.6,3107*49
$GPGGA,204144.70,3542.292334206,N,13943.267288652,E,5,10,1.49,25.000,M,36.997,M,2.7,3107*4B
$GPGGA,204144.80,3542.292306089,N,13943.267241217,E,5,10,1.49,24.983,M,36.997,M,2.8,3107*4C
$GPGGA,204144.90,3542.292246915,N,13943.267200296,E,5,10,1.49,25.007,M,36.997,M,2.9,3107*4D
$GPGGA,204145.00,3542.292202844,N,13943.267174394,E,5,10,1.49,25.011,M,36.997,M,3.0,3107*4C
$GPGGA,204145.10,3542.292161598,N,13943.267138193,E,5,10,1.49,25.006,M,36.997,M,3.1,3107*4D
$GPGGA,204145.20,3542.292118867,N,13943.267109049,E,5,09,1.56,25.020,M,36.997,M,3.2,3107*48
$GPGGA,204145.30,3542.292080043,N,13943.267084117,E,5,10,1.49,24.997,M,36.997,M,3.3,3107*4A
$GPGGA,204145.40,3542.292032081,N,13943.267067569,E,5,10,1.49,25.006,M,36.997,M,3.4,3107*4D
$GPGGA,204145.50,3542.291989000,N,13943.267044824,E,5,09,1.56,24.975,M,36.997,M,3.5,3107*41
$GPGGA,204145.60,3542.291949258,N,13943.267015005,E,5,09,1.56,24.986,M,36.997,M,3.6,3107*41
$GPGGA,204145.70,3542.291897762,N,13943.266997032,E,5,09,1.56,24.953,M,36.997,M,3.7,3107*41
$GPGGA,204145.80,3542.291852373,N,13943.266985927,E,5,09,1.56,24.949,M,36.997,M,3.8,3107*49
$GPGGA,204145.90,3542.291809430,N,13943.266961782,E,5,09,1.56,24.957,M,36.997,M,3.9,3107*43
$GPGGA,204146.00,3542.291771946,N,13943.266950987,E,5,09,1.56,24.955,M,36.997,M,4.0,3107*40
$GPGGA,204146.10,3542.291723336,N,13943.266943730,E,5,10,1.49,24.960,M,36.997,M,4.1,3107*4A
$GPGGA,204146.20,3542.291681320,N,13943.266930618,E,5,10,1.49,25.008,M,36.997,M,4.2,3107*4D
$GPGGA,204146.30,3542.291641900,N,13943.266928000,E,5,10,1.49,25.017,M,36.997,M,4.3,3107*41
$GPGGA,204146.40,3542.291591349,N,13943.266917771,E,5,10,1.49,25.019,M,36.997,M,4.4,3107*4B
$GPGGA,204146.50,3542.291547504,N,13943.266902806,E,5,10,1.49,25.001,M,36.997,M,4.5,3107*4D
$GPGGA,204146.60,3542.291501527,N,13943.266888628,E,5,10,1.49,24.997,M,36.997,M,4.6,3107*48
$GPGGA,204146.70,3542.291455644,N,13943.266888318,E,5,10,1.49,25.007,M,36.997,M,4.7,3107*49
$GPGGA,204146.80,3542.291422666,N,13943.266893485,E,5,10,1.49,24.997,M,36.997,M,4.8,3107*41
$GPGGA,204146.90,3542.291383617,N,13943.266883605,E,5,10,1.49,24.992,M,36.997,M,4.9,3107*45
$GPGGA,204147.00,3542.291346374,N,13943.266875375,E,5,10,1.49,25.001,M,36.997,M,5.0,3107*45
$GPGGA,204147.10,3542.291313253,N,13943.266862887,E,5,10,1.49,24.981,M,36.997,M,5.1,3107*41
$GPGGA,204147.20,3542.291270824,N,13943.266857842,E,5,10,1.49,24.973,M,36.997,M,5.2,3107*4D
$GPGGA,204147.30,3542.291231660,N,13943.266855900,E,5,10,1.49,24.962,M,36.997,M,5.3,3107*43
$GPGGA,204147.40,3542.291190370,N,13943.266855860,E,5,10,1.49,24.952,M,36.997,M,5.4,3107*4B
$GPGGA,204147.50,3542.291151126,N,13943.266854678,E,5,10,1.49,24.944,M,36.997,M,5.5,3107*46
$GPGGA,204147.60,3542.291115329,N,13943.266851463,E,5,10,1.49,24.930,M,36.997,M,5.6,3107*45
$GPGGA,204147.70,3542.291082670,N,13943.266848262,E,5,10,1.49,24.915,M,36.997,M,5.7,3107*4B
$GPGGA,204147.80,3542.291048693,N,13943.266852591,E,5,10,1.49,24.910,M,36.997,M,5.8,3107*45
$GPGGA,204147.90,3542.291009869,N,13943.266856950,E,5,10,1.49,24.903,M,36.997,M,5.9,3107*4C
$GPGGA,204148.00,3542.290977716,N,13943.266853233,E,5,10,1.49,24.890,M,36.997,M,6.0,3107*46
$GPGGA,204148.10,3542.290942385,N,13943.266850726,E,5,10,1.49,24.892,M,36.997,M,1.1,3107*49
$GPGGA,204148.20,3542.290904992,N,13943.266858996,E,5,10,1.49,24.886,M,36.997,M,1.2,3107*4F
$GPGGA,204148.30,3542.290872970,N,13943.266864046,E,5,10,1.49,24.887,M,36.997,M,1.3,3107*49
$GPGGA,204148.40,3542.290842932,N,13943.266869492,E,5,10,1.49,24.891,M,36.997,M,1.4,3107*4B
$GPGGA,204148.50,3542.290806670,N,13943.266876458,E,5,10,1.49,24.882,M,36.997,M,1.5,3107*48
$GPGGA,204148.60,3542.290769456,N,13943.266888469,E,5,10,1.49,24.868,M,36.996,M,1.6,3107*4E
$GPGGA,204148.70,3542.290739669,N,13943.266896415,E,5,10,1.49,24.870,M,36.996,M,1.7,3107*48
$GPGGA,204148.80,3542.290709478,N,13943.266902747,E,5,10,1.49,24.864,M,36.996,M,1.8,3107*44
$GPGGA,204148.90,3542.290672063,N,13943.266915133,E,5,10,1.49,24.866,M,36.996,M,1.9,3107*46
$GPGGA,204149.00,3542.290641685,N,13943.266925078,E,5,10,1.49,24.857,M,36.996,M,2.0,3107*45
$GPGGA,204149.10,3542.290602454,N,13943.266933819,E,5,10,1.49,24.845,M,36.996,M,2.1,3107*47
$GPGGA,204149.20,3542.290565293,N,13943.266945641,E,5,10,1.49,24.857,M,36.996,M,2.2,3107*49
$GPGGA,204149.30,3542.290526515,N,13943.266955186,E,5,10,1.49,24.843,M,36.996,M,2.3,3107*4F
$GPGGA,204149.40,3542.290490947,N,13943.266962846,E,5,10,1.49,24.819,M,36.996,M,2.4,3107*46
$GPGGA,204149.50,3542.290447890,N,13943.266989597,E,5,10,1.49,24.812,M,36.996,M,2.5,3107*48
$GPGGA,204149.60,3542.290395461,N,13943.267011967,E,5,10,1.49,24.820,M,36.996,M,2.6,3107*49
$GPGGA,204149.70,3542.290341272,N,13943.267014346,E,5,10,1.49,24.838,M,36.996,M,2.7,3107*41
$GPGGA,204149.80,3542.290290845,N,13943.267036416,E,5,10,1.49,24.915,M,36.996,M,2.8,3107*4E
$GPGGA,204149.90,3542.290229036,N,13943.267066784,E,5,10,1.49,24.896,M,36.996,M,2.9,3107*47
$GPGGA,204150.00,3542.290169661,N,13943.267089109,E,5,10,1.49,24.868,M,36.996,M,3.0,3107*4E
$GPGGA,204150.10,3542.290112918,N,13943.267104541,E,5,10,1.49,24.889,M,36.996,M,3.1,3107*40
$GPGGA,204150.20,3542.290055391,N,13943.267129582,E,5,10,1.49,24.894,M,36.996,M,3.2,3107*45
$GPGGA,204150.30,3542.290003972,N,13943.267157406,E,5,10,1.49,24.853,M,36.996,M,3.3,3107*4E
$GPGGA,204150.40,3542.289961823,N,13943.267186332,E,5,10,1.49,24.866,M,36.996,M,3.4,3107*44
$GPGGA,204150.50,3542.289911016,N,13943.267209485,E,5,10,1.49,24.880,M,36.996,M,3.5,3107*4A
$GPGGA,204150.60,3542.289867608,N,13943.267226069,E,5,10,1.49,24.891,M,36.996,M,3.6,3107*48
$GPGGA,204150.70,3542.289831788,N,13943.267251589,E,5,10,1.49,24.891,M,36.996,M,3.7,3107*49
$GPGGA,204150.80,3542.289803538,N,13943.267278558,E,5,09,1.73,24.871,M,36.996,M,3.8,3107*49
$GPGGA,204150.90,3542.289759543,N,13943.267291020,E,5,08,3.03,24.904,M,36.996,M,3.9,3107*4F
$GPGGA,204151.00,3542.289707452,N,13943.267299158,E,5,10,1.49,24.930,M,36.996,M,4.0,3107*47
$GPGGA,204151.10,3542.289666348,N,13943.267324389,E,5,10,1.49,24.908,M,36.996,M,4.1,3107*4F
$GPGGA,204151.20,3542.289614473,N,13943.267351180,E,5,09,1.58,24.918,M,36.996,M,4.2,3107*45
$GPGGA,204151.30,3542.289557639,N,13943.267350744,E,5,10,1.49,24.914,M,36.996,M,4.3,3107*46
$GPGGA,204151.40,3542.289493342,N,13943.267353423,E,5,10,1.49,24.961,M,36.996,M,4.4,3107*45
$GPGGA,204151.50,3542.289435606,N,13943.267366695,E,5,10,1.49,24.914,M,36.996,M,4.5,3107*47
$GPGGA,204151.60,3542.289379853,N,13943.267383107,E,5,10,1.49,24.928,M,36.996,M,4.6,3107*4E
$GPGGA,204151.70,3542.289322158,N,13943.267381567,E,5,10,1.49,24.945,M,36.996,M,4.7,3107*49
$GPGGA,204151.80,3542.289252458,N,13943.267363657,E,5,10,1.49,24.950,M,36.996,M,4.8,3107*42
$GPGGA,204151.90,3542.289190877,N,13943.267374187,E,5,10,1.49,24.933,M,36.996,M,4.9,3107*47
$GPGGA,204152.00,3542.289126944,N,13943.267385156,E,5,09,1.58,24.922,M,36.996,M,5.0,3107*43
$GPGGA,204152.10,3542.289055357,N,13943.267385812,E,5,10,1.49,24.885,M,36.996,M,5.1,3107*43
$GPGGA,204152.20,3542.288989856,N,13943.267390048,E,5,09,1.56,24.883,M,36.996,M,5.2,3107*43
$GPGGA,204152.30,3542.288924465,N,13943.267386852,E,5,10,1.49,24.934,M,36.996,M,5.3,3107*47
$GPGGA,204152.40,3542.288864707,N,13943.267384883,E,5,10,1.49,24.944,M,36.996,M,5.4,3107*4C
$GPGGA,204152.50,3542.288797596,N,13943.267384708,E,5,09,1.58,24.957,M,36.996,M,5.5,3107*43
$GPGGA,204152.60,3542.288731747,N,13943.267379829,E,5,08,1.92,24.975,M,36.996,M,5.6,3107*48
$GPGGA,204152.70,3542.288661079,N,13943.267364016,E,5,09,1.73,24.974,M,36.996,M,5.7,3107*41
$GPGGA,204152.80,3542.288582318,N,13943.267365559,E,5,08,1.80,25.020,M,36.996,M,5.8,3107*40
$GPGGA,204152.90,3542.288506206,N,13943.267369663,E,5,10,1.49,25.041,M,36.996,M,5.9,3107*4F
$GPGGA,204153.00,3542.288430712,N,13943.267358570,E,5,10,1.49,25.052,M,36.996,M,6.0,3107*48
$GPGGA,204153.10,3542.288357788,N,13943.267349772,E,5,09,1.73,25.059,M,36.996,M,1.1,3107*40
$GPGGA,204153.20,3542.288291365,N,13943.267323429,E,5,09,1.73,25.090,M,36.996,M,1.2,3107*48
$GPGGA,204153.30,3542.288224969,N,13943.267298597,E,5,09,1.58,25.085,M,36.996,M,1.3,3107*48
$GPGGA,204153.40,3542.288157757,N,13943.267269022,E,5,09,1.58,25.071,M,36.996,M,1.4,3107*42
$GPGGA,204153.50,3542.288095493,N,13943.267225645,E,5,08,3.03,25.086,M,36.996,M,1.5,3107*4C
$GPGGA,204153.60,3542.288016043,N,13943.267202905,E,5,08,1.61,25.082,M,36.996,M,1.6,3107*42
$GPGGA,204153.70,3542.287940022,N,13943.267178580,E,5,08,1.57,25.077,M,36.996,M,1.7,3107*40
$GPGGA,204153.80,3542.287874228,N,13943.267152167,E,5,08,3.03,25.059,M,36.996,M,1.8,3107*44
$GPGGA,204153.90,3542.287802478,N,13943.267122875,E,5,09,1.51,25.063,M,36.996,M,1.9,3107*46
$GPGGA,204154.00,3542.287722693,N,13943.267112584,E,5,08,3.03,25.106,M,36.996,M,2.0,3107*4E
$GPGGA,204154.10,3542.287650875,N,13943.267097342,E,5,08,3.03,25.090,M,36.996,M,2.1,3107*42
$GPGGA,204154.20,3542.287570814,N,13943.267087486,E,5,08,3.03,25.090,M,36.996,M,2.2,3107*4A
$GPGGA,204154.30,3542.287492262,N,13943.267074701,E,5,07,3.04,25.056,M,36.996,M,2.3,3107*4E
$GPGGA,204154.40,3542.287415293,N,13943.267054738,E,5,07,3.04,25.077,M,36.996,M,2.4,3107*44
$GPGGA,204154.50,3542.287341129,N,13943.267029387,E,5,07,3.04,25.072,M,36.996,M,2.5,3107*4F
$GPGGA,204154.60,3542.287268078,N,13943.267000395,E,5,08,3.03,25.079,M,36.996,M,2.6,3107*4B
$GPGGA,204154.70,3542.287192920,N,13943.267001863,E,5,08,1.58,25.057,M,36.996,M,2.7,3107*4A
$GPGGA,204154.80,3542.287122843,N,13943.267000293,E,5,07,3.05,25.071,M,36.996,M,2.8,3107*40
$GPGGA,204154.90,3542.287061499,N,13943.266986070,E,5,06,3.05,25.060,M,36.996,M,2.9,3107*45
$GPGGA,204155.00,3542.286978696,N,13943.266991736,E,5,06,3.05,25.059,M,36.996,M,3.0,3107*41
$GPGGA,204155.10,3542.286900295,N,13943.266990916,E,5,05,3.79,25.034,M,36.996,M,3.1,3107*47
$GPGGA,204155.20,3542.286830158,N,13943.266984437,E,5,05,3.79,24.980,M,36.996,M,3.2,3107*4B
$GPGGA,204155.30,3542.286763030,N,13943.266984175,E,5,06,3.05,24.939,M,36.996,M,3.3,3107*44
$GPGGA,204155.40,3542.286708618,N,13943.266987400,E,5,06,3.05,24.899,M,36.996,M,3.4,3107*4A
$GPGGA,204155.50,3542.286660890,N,13943.267006981,E,5,05,4.24,24.871,M,36.996,M,3.5,3107*4F
$GPGGA,204155.60,3542.286597057,N,13943.267003776,E,5,05,4.24,24.826,M,36.996,M,3.6,3107*46
$GPGGA,204155.70,3542.286546365,N,13943.266998831,E,5,07,3.04,24.761,M,36.996,M,3.7,3107*45
$GPGGA,204155.80,3542.286510464,N,13943.267028035,E,5,07,3.04,24.791,M,36.996,M,3.8,3107*40
$GPGGA,204155.90,3542.286480158,N,13943.267052240,E,5,07,3.04,24.876,M,36.996,M,3.9,3107*49
$GPGGA,204156.00,3542.286450662,N,13943.267060905,E,5,07,3.04,24.931,M,36.996,M,4.0,3107*47
$GPGGA,204156.10,3542.286419885,N,13943.267050266,E,5,06,3.05,24.922,M,36.996,M,4.1,3107*42
$GPGGA,204156.20,3542.286376576,N,13943.267042690,E,5,06,3.05,24.912,M,36.996,M,4.2,3107*40
$GPGGA,204156.30,3542.286319317,N,13943.267039679,E,5,07,3.05,24.925,M,36.996,M,4.3,3107*46
$GPGGA,204156.40,3542.286262841,N,13943.267025289,E,5,07,3.05,24.936,M,36.996,M,4.4,3107*47
$GPGGA,204156.50,3542.286198676,N,13943.267021687,E,5,07,3.05,24.957,M,36.996,M,4.5,3107*42
$GPGGA,204156.60,3542.286129275,N,13943.267020192,E,5,07,3.05,24.942,M,36.996,M,4.6,3107*49
$GPGGA,204156.70,3542.286062423,N,13943.267021256,E,5,08,3.03,24.958,M,36.996,M,4.7,3107*4A
$GPGGA,204156.80,3542.285988033,N,13943.267024811,E,5,08,3.03,24.962,M,36.996,M,4.8,3107*44
$GPGGA,204156.90,3542.285917436,N,13943.267043850,E,5,08,3.03,24.954,M,36.996,M,4.9,3107*42
$GPGGA,204157.00,3542.285843968,N,13943.267041285,E,5,07,3.04,24.968,M,36.996,M,5.0,3107*43
$GPGGA,204157.10,3542.285783770,N,13943.267026115,E,5,06,4.16,24.956,M,36.996,M,5.1,3107*44
$GPGGA,204157.20,3542.285725802,N,13943.267034441,E,5,06,4.16,24.978,M,36.996,M,5.2,3107*49
$GPGGA,204157.30,3542.285674567,N,13943.267035957,E,5,06,4.16,24.990,M,36.996,M,5.3,3107*4F
$GPGGA,204157.40,3542.285623395,N,13943.267024405,E,5,05,7.80,24.990,M,36.996,M,5.4,3107*43
$GPGGA,204157.50,3542.285567075,N,13943.267023287,E,5,05,7.80,25.005,M,36.996,M,5.5,3107*42
$GPGGA,204157.60,3542.285520473,N,13943.267013406,E,5,05,7.80,25.022,M,36.996,M,5.6,3107*4A
$GPGGA,204157.70,3542.285465206,N,13943.267008143,E,5,05,7.80,25.050,M,36.996,M,5.7,3107*45
$GPGGA,204157.80,3542.285413938,N,13943.266992390,E,5,05,7.80,25.045,M,36.996,M,5.8,3107*41
$GPGGA,204157.90,3542.285365298,N,13943.266969043,E,5,05,7.80,25.069,M,36.996,M,5.9,3107*41
$GPGGA,204158.00,3542.285302256,N,13943.266941615,E,5,05,7.80,25.065,M,36.996,M,6.0,3107*4D
$GPGGA,204158.10,3542.285241921,N,13943.266919275,E,5,05,7.80,25.057,M,36.996,M,1.1,3107*49
$GPGGA,204158.20,3542.285186428,N,13943.266909959,E,5,06,3.34,25.045,M,36.996,M,1.2,3107*4A
$GPGGA,204158.30,3542.285161059,N,13943.266797860,E,5,07,3.04,24.995,M,36.996,M,1.3,3107*44
$GPGGA,204158.40,3542.285119272,N,13943.266734920,E,5,07,3.04,25.018,M,36.996,M,1.4,3107*41
$GPGGA,204158.50,3542.285063389,N,13943.266666762,E,5,07,3.04,24.956,M,36.996,M,1.5,3107*44
$GPGGA,204158.60,3542.285009486,N,13943.266623185,E,5,07,3.04,24.932,M,36.996,M,1.6,3107*4C
$GPGGA,204158.70,3542.284947754,N,13943.266606019,E,5,06,4.16,24.952,M,36.996,M,1.7,3107*42
$GPGGA,204158.80,3542.284890946,N,13943.266575305,E,5,06,4.16,24.915,M,36.996,M,1.8,3107*4E
$GPGGA,204158.90,3542.284839638,N,13943.266552871,E,5,06,4.16,24.898,M,36.996,M,1.9,3107*42
$GPGGA,204159.00,3542.284784322,N,13943.266535902,E,5,07,3.04,24.877,M,36.996,M,2.0,3107*47
$GPGGA,204159.10,3542.284717165,N,13943.266561734,E,5,07,3.04,24.887,M,36.996,M,2.1,3107*49
$GPGGA,204159.20,3542.284664587,N,13943.266581645,E,5,07,3.04,24.901,M,36.996,M,2.2,3107*42
$GPGGA,204159.30,3542.284611496,N,13943.266570168,E,5,07,3.04,24.899,M,36.996,M,2.3,3107*47
$GPGGA,204159.40,3542.284558622,N,13943.266562273,E,5,07,3.04,24.952,M,36.996,M,2.4,3107*48
$GPGGA,204159.50,3542.284505006,N,13943.266564434,E,5,07,3.04,24.955,M,36.996,M,2.5,3107*44
$GPGGA,204159.60,3542.284465821,N,13943.266556743,E,5,07,3.04,24.950,M,36.996,M,2.6,3107*49
$GPGGA,204159.70,3542.284410351,N,13943.266563908,E,5,07,3.04,25.003,M,36.996,M,2.7,3107*4E
$GPGGA,204159.80,3542.284354720,N,13943.266575833,E,5,07,3.04,25.022,M,36.996,M,2.8,3107*46
$GPGGA,204159.90,3542.284310047,N,13943.266569845,E,5,07,3.04,24.999,M,36.996,M,2.9,3107*44
$GPGGA,204200.00,3542.284261848,N,13943.266578097,E,5,07,3.04,25.005,M,36.996,M,3.0,3107*40
$GPGGA,204200.10,3542.284216563,N,13943.266584668,E,5,05,4.81,25.042,M,36.996,M,3.1,3107*4A
$GPGGA,204200.20,3542.284161561,N,13943.266591477,E,5,06,3.34,25.085,M,36.996,M,3.2,3107*42
$GPGGA,204200.30,3542.284104234,N,13943.266583245,E,5,07,3.04,25.112,M,36.996,M,3.3,3107*4F
$GPGGA,204200.40,3542.284058430,N,13943.266573227,E,5,06,3.34,25.163,M,36.996,M,3.4,3107*4A
$GPGGA,204200.50,3542.283994214,N,13943.266569998,E,5,06,3.34,25.177,M,36.996,M,3.5,3107*45
$GPGGA,204200.60,3542.283930026,N,13943.266577541,E,5,06,3.34,25.232,M,36.996,M,3.6,3107*4D
$GPGGA,204200.70,3542.283872204,N,13943.266575853,E,5,07,1.95,25.238,M,36.996,M,3.7,3107*46
$GPGGA,204200.80,3542.283808165,N,13943.266575510,E,5,08,1.80,25.243,M,36.996,M,3.8,3107*42
$GPGGA,204200.90,3542.283756271,N,13943.266580826,E,5,08,1.80,25.243,M,36.996,M,3.9,3107*42
$GPGGA,204201.00,3542.283705280,N,13943.266596402,E,5,08,1.80,25.233,M,36.996,M,4.0,3107*46
$GPGGA,204201.10,3542.283652467,N,13943.266597683,E,5,08,1.80,25.239,M,36.996,M,4.1,3107*4A
$GPGGA,204201.20,3542.283604473,N,13943.266580753,E,5,08,1.80,25.243,M,36.996,M,4.2,3107*4B
$GPGGA,204201.30,3542.283557234,N,13943.266555178,E,5,08,1.80,25.246,M,36.996,M,4.3,3107*49
$GPGGA,204201.40,3542.283502831,N,13943.266535181,E,5,08,1.80,25.246,M,36.996,M,4.4,3107*46
$GPGGA,204201.50,3542.283448347,N,13943.266506046,E,5,08,1.80,25.262,M,36.996,M,4.5,3107*4F
$GPGGA,204201.60,3542.283387709,N,13943.266488358,E,5,08,1.80,25.245,M,36.996,M,4.6,3107*4B
$GPGGA,204201.70,3542.283328275,N,13943.266479661,E,5,07,2.18,25.282,M,36.996,M,4.7,3107*47
$GPGGA,204201.80,3542.283257146,N,13943.266475968,E,5,08,1.80,25.282,M,36.996,M,4.8,3107*4A
$GPGGA,204201.90,3542.283194433,N,13943.266484713,E,5,08,1.80,25.275,M,36.996,M,4.9,3107*45
$GPGGA,204202.00,3542.283129301,N,13943.266489779,E,5,08,1.80,25.257,M,36.996,M,5.0,3107*46
$GPGGA,204202.10,3542.283066021,N,13943.266473897,E,5,08,1.80,25.268,M,36.996,M,5.1,3107*4B
$GPGGA,204202.20,3542.283002639,N,13943.266468538,E,5,08,1.80,25.262,M,36.996,M,5.2,3107*4E
$GPGGA,204202.30,3542.282938656,N,13943.266477406,E,5,08,1.80,25.260,M,36.996,M,5.3,3107*46
$GPGGA,204202.40,3542.282875172,N,13943.266473987,E,5,08,1.80,25.268,M,36.996,M,5.4,3107*47
$GPGGA,204202.50,3542.282804943,N,13943.266479949,E,5,08,1.80,25.232,M,36.996,M,5.5,3107*4C
$GPGGA,204202.60,3542.282747695,N,13943.266485096,E,5,08,1.80,25.232,M,36.996,M,5.6,3107*48
$GPGGA,204202.70,3542.282694715,N,13943.266512543,E,5,08,1.80,25.220,M,36.996,M,5.7,3107*4F
$GPGGA,204202.80,3542.282636589,N,13943.266523966,E,5,08,1.80,25.216,M,36.996,M,5.8,3107*4C
$GPGGA,204202.90,3542.282587103,N,13943.266532636,E,5,08,1.80,25.234,M,36.996,M,5.9,3107*49
$GPGGA,204203.00,3542.282544747,N,13943.266549859,E,5,08,1.80,25.247,M,36.996,M,6.0,3107*4D
$GPGGA,204203.10,3542.282488844,N,13943.266568315,E,5,07,3.28,25.250,M,36.996,M,1.1,3107*4E
$GPGGA,204203.20,3542.282437825,N,13943.266560209,E,5,08,1.80,25.238,M,36.996,M,1.2,3107*48
$GPGGA,204203.30,3542.282389822,N,13943.266556331,E,5,07,3.28,25.219,M,36.996,M,1.3,3107*4E
$GPGGA,204203.40,3542.282340476,N,13943.266554687,E,5,07,3.28,25.249,M,36.996,M,1.4,3107*49
$GPGGA,204203.50,3542.282280327,N,13943.266558587,E,5,07,3.28,25.250,M,36.996,M,1.5,3107*40
$GPGGA,204203.60,3542.282223306,N,13943.266547272,E,5,07,3.28,25.253,M,36.996,M,1.6,3107*4A
$GPGGA,204203.70,3542.282166857,N,13943.266537012,E,5,08,1.89,25.259,M,36.996,M,1.7,3107*48
$GPGGA,204203.80,3542.282102655,N,13943.266536888,E,5,08,1.89,25.281,M,36.995,M,1.8,3107*4A
$GPGGA,204203.90,3542.282021179,N,13943.266549841,E,5,08,1.89,25.289,M,36.995,M,1.9,3107*46
$GPGGA,204204.00,3542.281958667,N,13943.266535196,E,5,07,3.28,25.280,M,36.995,M,2.0,3107*49
$GPGGA,204204.10,3542.281898587,N,13943.266514585,E,5,07,3.28,25.262,M,36.995,M,2.1,3107*40
$GPGGA,204204.20,3542.281831859,N,13943.266502907,E,5,08,1.89,25.273,M,36.995,M,2.2,3107*4A
$GPGGA,204204.30,3542.281757882,N,13943.266491963,E,5,08,1.89,25.272,M,36.995,M,2.3,3107*4B
$GPGGA,204204.40,3542.281688634,N,13943.266484792,E,5,08,1.89,25.232,M,36.995,M,2.4,3107*4B
$GPGGA,204204.50,3542.281635176,N,13943.266450412,E,5,08,1.89,25.212,M,36.995,M,2.5,3107*4C
$GPGGA,204204.60,3542.281570750,N,13943.266419655,E,5,08,1.89,25.206,M,36.995,M,2.6,3107*45
$GPGGA,204204.70,3542.281504894,N,13943.266401559,E,5,08,1.89,25.214,M,36.995,M,2.7,3107*44
$GPGGA,204204.80,3542.281440346,N,13943.266384780,E,5,08,1.89,25.193,M,36.995,M,2.8,3107*41
$GPGGA,204204.90,3542.281366990,N,13943.266386957,E,5,08,1.89,25.194,M,36.995,M,2.9,3107*42
$GPGGA,204205.00,3542.281289731,N,13943.266369299,E,5,08,1.89,25.193,M,36.995,M,3.0,3107*48
$GPGGA,204205.10,3542.281222013,N,13943.266344733,E,5,08,1.89,25.192,M,36.995,M,3.1,3107*45
$GPGGA,204205.20,3542.281147263,N,13943.266340512,E,5,08,1.89,25.183,M,36.995,M,3.2,3107*45
$GPGGA,204205.30,3542.281075785,N,13943.266328333,E,5,08,1.89,25.180,M,36.995,M,3.3,3107*40
$GPGGA,204205.40,3542.280999466,N,13943.266314710,E,5,08,1.89,25.178,M,36.995,M,3.4,3107*49
$GPGGA,204205.50,3542.280930918,N,13943.266295652,E,5,08,1.89,25.213,M,36.995,M,3.5,3107*4F
$GPGGA,204205.60,3542.280877289,N,13943.266262694,E,5,07,3.10,25.241,M,36.995,M,3.6,3107*46
$GPGGA,204205.70,3542.280818320,N,13943.266231541,E,5,07,3.10,25.253,M,36.995,M,3.7,3107*43
$GPGGA,204205.80,3542.280771041,N,13943.266191785,E,5,07,2.15,25.268,M,36.995,M,3.8,3107*48
$GPGGA,204205.90,3542.280741098,N,13943.266132110,E,5,08,1.89,25.278,M,36.995,M,3.9,3107*44
$GPGGA,204206.00,3542.280697025,N,13943.266079363,E,5,08,1.89,25.260,M,36.995,M,4.0,3107*4D
$GPGGA,204206.10,3542.280640989,N,13943.266040199,E,5,08,1.89,25.248,M,36.995,M,4.1,3107*4F
$GPGGA,204206.20,3542.280589819,N,13943.265999719,E,5,08,1.89,25.246,M,36.995,M,4.2,3107*4F
$GPGGA,204206.30,3542.280530988,N,13943.265969875,E,5,08,1.89,25.230,M,36.995,M,4.3,3107*4F
$GPGGA,204206.40,3542.280465635,N,13943.265943038,E,5,08,1.89,25.257,M,36.995,M,4.4,3107*4F
$GPGGA,204206.50,3542.280414463,N,13943.265905990,E,5,08,1.89,25.243,M,36.995,M,4.5,3107*44
$GPGGA,204206.60,3542.280370689,N,13943.265868850,E,5,08,1.89,25.243,M,36.995,M,4.6,3107*40
$GPGGA,204206.70,3542.280315721,N,13943.265837151,E,5,08,1.89,25.252,M,36.995,M,4.7,3107*42
$GPGGA,204206.80,3542.280272010,N,13943.265799831,E,5,07,3.28,25.256,M,36.995,M,4.8,3107*41
$GPGGA,204206.90,3542.280218055,N,13943.265782746,E,5,07,3.28,25.253,M,36.995,M,4.9,3107*4C
$GPGGA,204207.00,3542.280158212,N,13943.265765735,E,5,08,1.89,25.253,M,36.995,M,5.0,3107*41
$GPGGA,204207.10,3542.280093399,N,13943.265756446,E,5,08,1.89,25.252,M,36.995,M,5.1,3107*43
$GPGGA,204207.20,3542.280044174,N,13943.265739666,E,5,08,1.89,25.237,M,36.995,M,5.2,3107*42
$GPGGA,204207.30,3542.279989729,N,13943.265716410,E,5,08,1.89,25.243,M,36.995,M,5.3,3107*4F
$GPGGA,204207.40,3542.279926117,N,13943.265701616,E,5,08,1.89,25.270,M,36.995,M,5.4,3107*43
$GPGGA,204207.50,3542.279872988,N,13943.265670846,E,5,07,3.11,25.270,M,36.995,M,5.5,3107*4D
$GPGGA,204207.60,3542.279821317,N,13943.265646075,E,5,08,1.89,25.248,M,36.995,M,5.6,3107*4D
$GPGGA,204207.70,3542.279783115,N,13943.265627459,E,5,08,1.89,25.277,M,36.995,M,5.7,3107*4B
$GPGGA,204207.80,3542.279734387,N,13943.265608972,E,5,07,3.11,25.283,M,36.995,M,5.8,3107*40
$GPGGA,204207.90,3542.279701109,N,13943.265589458,E,5,08,1.89,25.271,M,36.995,M,5.9,3107*4C
$GPGGA,204208.00,3542.279656480,N,13943.265569377,E,5,07,3.11,25.275,M,36.995,M,6.0,3107*4B
$GPGGA,204208.10,3542.279611958,N,13943.265554366,E,5,08,1.89,25.270,M,36.995,M,1.1,3107*40
$GPGGA,204208.20,3542.279568216,N,13943.265548656,E,5,08,1.89,25.269,M,36.995,M,1.2,3107*4F
$GPGGA,204208.30,3542.279535834,N,13943.265522554,E,5,07,3.28,25.259,M,36.995,M,1.3,3107*45
$GPGGA,204208.40,3542.279488433,N,13943.265512779,E,5,07,3.28,25.262,M,36.995,M,1.4,3107*4F
$GPGGA,204208.50,3542.279445995,N,13943.265500126,E,5,08,1.89,25.261,M,36.995,M,1.5,3107*45
$GPGGA,204208.60,3542.279398964,N,13943.265500476,E,5,08,1.89,25.233,M,36.995,M,1.6,3107*4B
$GPGGA,204208.70,3542.279342318,N,13943.265517143,E,5,08,1.89,25.236,M,36.995,M,1.7,3107*4D
$GPGGA,204208.80,3542.279283157,N,13943.265497589,E,5,08,1.89,25.262,M,36.995,M,1.8,3107*42
$GPGGA,204208.90,3542.279229919,N,13943.265493255,E,5,07,3.28,25.229,M,36.995,M,1.9,3107*4B
$GPGGA,204209.00,3542.279171917,N,13943.265493134,E,5,07,3.28,25.224,M,36.995,M,2.0,3107*40
$GPGGA,204209.10,3542.279123998,N,13943.265475459,E,5,08,1.89,25.232,M,36.995,M,2.1,3107*47
$GPGGA,204209.20,3542.279078247,N,13943.265459157,E,5,08,1.89,25.223,M,36.995,M,2.2,3107*44
$GPGGA,204209.30,3542.279025730,N,13943.265457630,E,5,08,1.89,25.205,M,36.995,M,2.3,3107*45
$GPGGA,204209.40,3542.278967153,N,13943.265472502,E,5,08,1.89,25.206,M,36.995,M,2.4,3107*4E
$GPGGA,204209.50,3542.278908755,N,13943.265471285,E,5,08,1.89,25.194,M,36.995,M,2.5,3107*44
$GPGGA,204209.60,3542.278851099,N,13943.265471525,E,5,08,1.89,25.186,M,36.995,M,2.6,3107*40
$GPGGA,204209.70,3542.278807790,N,13943.265475259,E,5,08,1.89,25.188,M,36.995,M,2.7,3107*4B
$GPGGA,204209.80,3542.278760750,N,13943.265477702,E,5,08,1.89,25.184,M,36.995,M,2.8,3107*4C
$GPGGA,204209.90,3542.278719416,N,13943.265478149,E,5,08,1.89,25.185,M,36.995,M,2.9,3107*44
$GPGGA,204210.00,3542.278683421,N,13943.265477312,E,5,08,1.89,25.172,M,36.995,M,3.0,3107*40
$GPGGA,204210.10,3542.278640247,N,13943.265479859,E,5,08,1.89,25.153,M,36.995,M,3.1,3107*40
$GPGGA,204210.20,3542.278606254,N,13943.265486558,E,5,08,1.89,25.137,M,36.995,M,3.2,3107*4E
$GPGGA,204210.30,3542.278571402,N,13943.265485545,E,5,08,1.89,25.136,M,36.995,M,3.3,3107*46
$GPGGA,204210.40,3542.278522991,N,13943.265493548,E,5,08,1.89,25.137,M,36.995,M,3.4,3107*4C
$GPGGA,204210.50,3542.278465240,N,13943.265483859,E,5,08,1.89,25.086,M,36.995,M,3.5,3107*4E
$GPGGA,204210.60,3542.278423998,N,13943.265485994,E,5,08,1.89,25.064,M,36.995,M,3.6,3107*48
$GPGGA,204210.70,3542.278377987,N,13943.265479072,E,5,08,1.89,25.060,M,36.995,M,3.7,3107*46
$GPGGA,204210.80,3542.278349774,N,13943.265431743,E,5,08,1.89,25.061,M,36.995,M,3.8,3107*41
$GPGGA,204210.90,3542.278310282,N,13943.265397237,E,5,08,1.89,25.059,M,36.995,M,3.9,3107*47
$GPGGA,204211.00,3542.278244795,N,13943.265393445,E,5,08,1.89,25.056,M,36.995,M,4.0,3107*4A
$GPGGA,204211.10,3542.278166696,N,13943.265388141,E,5,08,1.89,25.066,M,36.995,M,4.1,3107*43
$GPGGA,204211.20,3542.278085983,N,13943.265406991,E,5,08,1.89,25.043,M,36.995,M,4.2,3107*47
$GPGGA,204211.30,3542.278012685,N,13943.265400761,E,5,08,1.89,25.080,M,36.995,M,4.3,3107*48
$GPGGA,204211.40,3542.277960563,N,13943.265366907,E,5,08,1.89,25.104,M,36.995,M,4.4,3107*44
$GPGGA,204211.50,3542.277909016,N,13943.265329064,E,5,08,1.89,25.085,M,36.995,M,4.5,3107*43
$GPGGA,204211.60,3542.277854343,N,13943.265304423,E,5,08,1.89,25.099,M,36.995,M,4.6,3107*4C
$GPGGA,204211.70,3542.277802527,N,13943.265263989,E,5,08,1.89,25.088,M,36.995,M,4.7,3107*46
$GPGGA,204211.80,3542.277750990,N,13943.265215233,E,5,08,1.89,25.096,M,36.995,M,4.8,3107*4A
$GPGGA,204211.90,3542.277699653,N,13943.265169236,E,5,08,1.89,25.092,M,36.995,M,4.9,3107*47
$GPGGA,204212.00,3542.277634302,N,13943.265145067,E,5,08,1.89,25.096,M,36.995,M,5.0,3107*4F
$GPGGA,204212.10,3542.277575186,N,13943.265111854,E,5,08,1.89,25.100,M,36.995,M,5.1,3107*40
$GPGGA,204212.20,3542.277518175,N,13943.265073125,E,5,08,1.89,25.081,M,36.995,M,5.2,3107*45
$GPGGA,204212.30,3542.277444383,N,13943.265046508,E,5,08,1.89,25.059,M,36.995,M,5.3,3107*4E
$GPGGA,204212.40,3542.277374107,N,13943.265020450,E,4,07,4.48,25.040,M,36.995,M,5.4,3107*46
$GPGGA,204212.50,3542.277305804,N,13943.264993812,E,5,07,2.15,25.056,M,36.995,M,5.5,3107*48
$GPGGA,204212.60,3542.277239158,N,13943.264980741,E,5,07,2.15,25.041,M,36.995,M,5.6,3107*4B
$GPGGA,204212.70,3542.277185192,N,13943.264966959,E,5,06,2.23,25.059,M,36.995,M,5.7,3107*4B
$GPGGA,204212.80,3542.277128997,N,13943.264969814,E,5,05,12.94,25.077,M,36.995,M,5.8,3107*74
$GPGGA,204212.90,3542.277058208,N,13943.264957151,E,5,05,12.94,25.094,M,36.995,M,5.9,3107*77
$GPGGA,204213.00,3542.276999620,N,13943.264952704,E,5,07,2.15,25.130,M,36.995,M,6.0,3107*48
$GPGGA,204213.10,3542.276923483,N,13943.264940444,E,4,10,1.86,25.139,M,36.995,M,6.1,3107*41
$GPGGA,204213.20,3542.276828766,N,13943.264922457,E,4,10,1.86,25.222,M,36.995,M,6.2,3107*4C
$GPGGA,204213.30,3542.276772621,N,13943.264942451,E,5,06,3.35,25.201,M,36.995,M,6.3,3107*43
$GPGGA,204213.40,3542.276733020,N,13943.264968739,E,5,07,2.15,25.236,M,36.995,M,6.4,3107*42
$GPGGA,204213.50,3542.276669273,N,13943.264976606,E,5,07,2.15,25.245,M,36.995,M,6.5,3107*4E
$GPGGA,204213.60,3542.276608524,N,13943.264987350,E,5,07,2.15,25.257,M,36.995,M,6.6,3107*47
$GPGGA,204213.70,3542.276563652,N,13943.265002988,E,5,07,2.15,25.253,M,36.995,M,6.7,3107*45
$GPGGA,204213.80,3542.276516239,N,13943.265012769,E,5,07,2.15,25.243,M,36.995,M,6.8,3107*4F
$GPGGA,204213.90,3542.276470589,N,13943.265021423,E,5,07,2.15,25.241,M,36.995,M,6.9,3107*4D
$GPGGA,204214.00,3542.276418880,N,13943.265035496,E,5,07,2.15,25.243,M,36.995,M,7.0,3107*48
$GPGGA,204214.10,3542.276385352,N,13943.265052127,E,5,07,2.15,25.222,M,36.995,M,2.1,3107*43
$GPGGA,204214.20,3542.276340693,N,13943.265046619,E,5,07,2.15,25.267,M,36.995,M,2.2,3107*4C
$GPGGA,204214.30,3542.276297466,N,13943.265016072,E,5,07,2.15,25.281,M,36.995,M,2.3,3107*49
$GPGGA,204214.40,3542.276248392,N,13943.265027702,E,5,07,2.15,25.260,M,36.995,M,2.4,3107*4A
$GPGGA,204214.50,3542.276194999,N,13943.265018925,E,5,07,2.15,25.251,M,36.995,M,2.5,3107*4C
$GPGGA,204214.60,3542.276155270,N,13943.264984474,E,5,07,2.15,25.266,M,36.995,M,2.6,3107*4D
$GPGGA,204214.70,3542.276112405,N,13943.264965245,E,5,07,2.15,25.252,M,36.995,M,2.7,3107*46
$GPGGA,204214.80,3542.276055230,N,13943.264955542,E,5,07,2.15,25.240,M,36.995,M,2.8,3107*44
$GPGGA,204214.90,3542.275989398,N,13943.264951462,E,5,07,2.15,25.233,M,36.995,M,2.9,3107*4F
$GPGGA,204215.00,3542.275926351,N,13943.264956764,E,5,07,2.15,25.221,M,36.995,M,3.0,3107*4E
$GPGGA,204215.10,3542.275875217,N,13943.264936087,E,5,07,2.15,25.231,M,36.995,M,3.1,3107*47
$GPGGA,204215.20,3542.275819586,N,13943.264899934,E,5,07,2.15,25.245,M,36.995,M,3.2,3107*44
$GPGGA,204215.30,3542.275762607,N,13943.264868855,E,5,06,2.23,25.248,M,36.995,M,3.3,3107*4C
$GPGGA,204215.40,3542.275708872,N,13943.264844933,E,5,06,2.23,25.223,M,36.995,M,3.4,3107*4E
$GPGGA,204215.50,3542.275646547,N,13943.264826449,E,5,06,2.23,25.211,M,36.995,M,3.5,3107*4B
$GPGGA,204215.60,3542.275581756,N,13943.264792909,E,5,06,2.23,25.192,M,36.995,M,3.6,3107*40
$GPGGA,204215.70,3542.275526218,N,13943.264778416,E,5,07,2.15,25.166,M,36.995,M,3.7,3107*4A
$GPGGA,204215.80,3542.275459206,N,13943.264769547,E,5,07,2.15,25.147,M,36.995,M,3.8,3107*4A
$GPGGA,204215.90,3542.275394129,N,13943.264751659,E,5,07,2.15,25.135,M,36.995,M,3.9,3107*40
$GPGGA,204216.00,3542.275331977,N,13943.264727918,E,5,07,2.15,25.147,M,36.995,M,4.0,3107*46
$GPGGA,204216.10,3542.275268347,N,13943.264716059,E,5,07,2.15,25.146,M,36.995,M,4.1,3107*4D
$GPGGA,204216.20,3542.275200799,N,13943.264700851,E,5,07,2.15,25.162,M,36.995,M,4.2,3107*45
$GPGGA,204216.30,3542.275132255,N,13943.264681805,E,5,07,2.15,25.167,M,36.995,M,4.3,3107*4E
$GPGGA,204216.40,3542.275045355,N,13943.264672823,E,5,07,2.15,25.194,M,36.995,M,4.4,3107*4A
$GPGGA,204216.50,3542.274968962,N,13943.264666018,E,5,07,2.15,25.183,M,36.995,M,4.5,3107*40
$GPGGA,204216.60,3542.274885579,N,13943.264657108,E,5,07,2.15,25.191,M,36.995,M,4.6,3107*45
$GPGGA,204216.70,3542.274804406,N,13943.264619375,E,5,07,2.15,25.216,M,36.995,M,4.7,3107*4B
$GPGGA,204216.80,3542.274722901,N,13943.264587275,E,5,06,3.93,25.225,M,36.995,M,4.8,3107*41
$GPGGA,204216.90,3542.274644390,N,13943.264589842,E,5,05,7.87,25.226,M,36.995,M,4.9,3107*43
$GPGGA,204217.00,3542.274560332,N,13943.264585055,E,5,03,99.90,25.186,M,36.995,M,5.0,3107*72
$GPGGA,204217.10,3542.274474626,N,13943.264583230,E,5,02,99.90,25.223,M,36.995,M,5.1,3107*7C
$GPGGA,204217.20,3542.274383145,N,13943.264581694,E,5,02,99.90,25.252,M,36.995,M,5.2,3107*7F
$GPGGA,204217.30,3542.274292565,N,13943.264591212,E,5,02,99.90,25.295,M,36.995,M,5.3,3107*78
$GPGGA,204217.40,3542.274207425,N,13943.264610094,E,5,02,99.90,25.348,M,36.995,M,5.4,3107*76
$GPGGA,204217.50,3542.274128355,N,13943.264617036,E,5,02,99.90,25.401,M,36.995,M,5.5,3107*7D
$GPGGA,204217.60,3542.274049992,N,13943.264626582,E,5,02,99.90,25.446,M,36.995,M,5.6,3107*71
$GPGGA,204217.70,3542.273980371,N,13943.264641335,E,5,02,99.90,25.495,M,36.995,M,5.7,3107*78
$GPGGA,204217.80,3542.273921501,N,13943.264658141,E,5,03,99.90,25.608,M,36.995,M,5.8,3107*7C
$GPGGA,204217.90,3542.273861297,N,13943.264675579,E,5,03,99.90,25.613,M,36.995,M,5.9,3107*7B
$GPGGA,204218.00,3542.273800082,N,13943.264677807,E,5,02,99.90,25.628,M,36.995,M,6.0,3107*79
$GPGGA,204218.10,3542.273740530,N,13943.264689206,E,5,02,99.90,25.621,M,36.995,M,1.1,3107*7A
$GPGGA,204218.20,3542.273674686,N,13943.264680313,E,5,02,99.90,25.652,M,36.995,M,1.2,3107*7A
$GPGGA,204218.30,3542.273622469,N,13943.264655572,E,5,03,99.90,25.688,M,36.995,M,1.3,3107*75
$GPGGA,204218.40,3542.273560533,N,13943.264656147,E,5,03,99.90,25.673,M,36.995,M,1.4,3107*7B
$GPGGA,204218.50,3542.273498419,N,13943.264658788,E,5,02,99.90,25.663,M,36.995,M,1.5,3107*7F
$GPGGA,204218.60,3542.273435484,N,13943.264661275,E,5,02,99.90,25.689,M,36.995,M,1.6,3107*75
$GPGGA,204218.70,3542.273374676,N,13943.264656088,E,5,03,99.90,25.627,M,36.995,M,1.7,3107*79
$GPGGA,204218.80,3542.273316865,N,13943.264626920,E,5,03,99.90,25.589,M,36.995,M,1.8,3107*7A
$GPGGA,204218.90,3542.273248674,N,13943.264616285,E,5,03,99.90,25.607,M,36.995,M,1.9,3107*7C
$GPGGA,204219.00,3542.273185837,N,13943.264575950,E,5,03,99.90,25.603,M,36.995,M,2.0,3107*74
$GPGGA,204219.10,3542.273123673,N,13943.264537086,E,5,03,99.90,25.608,M,36.995,M,2.1,3107*79
$GPGGA,204219.20,3542.273056957,N,13943.264506528,E,5,02,99.90,25.631,M,36.995,M,2.2,3107*7B
$GPGGA,204219.30,3542.272997197,N,13943.264488003,E,5,02,99.90,25.647,M,36.995,M,2.3,3107*70
$GPGGA,204219.40,3542.272920815,N,13943.264459695,E,5,02,99.90,25.678,M,36.995,M,2.4,3107*76
$GPGGA,204219.50,3542.272856190,N,13943.264427476,E,5,02,99.90,25.685,M,36.995,M,2.5,3107*76
$GPGGA,204219.60,3542.272787729,N,13943.264402610,E,5,02,99.90,25.704,M,36.995,M,2.6,3107*7C
$GPGGA,204219.70,3542.272719844,N,13943.264383286,E,5,02,99.90,25.730,M,36.995,M,2.7,3107*7D
$GPGGA,204219.80,3542.272665813,N,13943.264339742,E,5,02,99.90,25.757,M,36.995,M,2.8,3107*78
$GPGGA,204219.90,3542.272598595,N,13943.264307611,E,5,02,99.90,25.760,M,36.995,M,2.9,3107*74
$GPGGA,204220.00,3542.272543276,N,13943.264255074,E,5,02,99.90,25.734,M,36.995,M,3.0,3107*71
$GPGGA,204220.10,3542.272470654,N,13943.264209380,E,5,02,99.90,25.735,M,36.994,M,3.1,3107*75
$GPGGA,204220.20,3542.272406294,N,13943.264166098,E,5,03,99.90,25.749,M,36.994,M,3.2,3107*76
$GPGGA,204220.30,3542.272339747,N,13943.264123951,E,5,03,99.90,25.716,M,36.994,M,3.3,3107*71
$GPGGA,204220.40,3542.272265378,N,13943.264090444,E,5,03,99.90,25.680,M,36.994,M,3.4,3107*7F
$GPGGA,204220.50,3542.272186977,N,13943.264082532,E,5,03,99.90,25.701,M,36.994,M,3.5,3107*7F
$GPGGA,204220.60,3542.272117273,N,13943.264048277,E,5,03,99.90,25.711,M,36.994,M,3.6,3107*79
$GPGGA,204220.70,3542.272049262,N,13943.264013536,E,5,04,16.24,25.716,M,36.994,M,3.7,3107*77
$GPGGA,204220.80,3542.271979683,N,13943.263979347,E,5,04,16.24,25.701,M,36.994,M,3.8,3107*71
$GPGGA,204220.90,3542.271899298,N,13943.263940605,E,5,04,16.24,25.657,M,36.994,M,3.9,3107*7B
$GPGGA,204221.00,3542.271823687,N,13943.263911641,E,5,03,99.90,25.676,M,36.994,M,4.0,3107*7E
$GPGGA,204221.10,3542.271743874,N,13943.263886560,E,5,03,99.90,25.736,M,36.994,M,4.1,3107*7F
$GPGGA,204221.20,3542.271663172,N,13943.263851833,E,5,02,99.90,25.774,M,36.994,M,4.2,3107*75
$GPGGA,204221.30,3542.271587257,N,13943.263818048,E,5,03,99.90,25.827,M,36.994,M,4.3,3107*79
$GPGGA,204221.40,3542.271523767,N,13943.263783585,E,5,03,99.90,25.870,M,36.994,M,4.4,3107*7A
$GPGGA,204221.50,3542.271452333,N,13943.263767057,E,5,03,99.90,25.888,M,36.994,M,4.5,3107*7F
$GPGGA,204221.60,3542.271378667,N,13943.263741228,E,5,02,99.90,25.940,M,36.994,M,4.6,3107*7E
$GPGGA,204221.70,3542.271303692,N,13943.263713927,E,5,02,99.90,25.973,M,36.994,M,4.7,3107*7B
$GPGGA,204221.80,3542.271239235,N,13943.263667702,E,5,03,99.90,25.978,M,36.994,M,4.8,3107*7B
$GPGGA,204221.90,3542.271164421,N,13943.263649853,E,5,02,99.90,25.974,M,36.994,M,4.9,3107*79
$GPGGA,204222.00,3542.271103441,N,13943.263637599,E,5,02,99.90,25.918,M,36.994,M,5.0,3107*74
$GPGGA,204222.10,3542.271031250,N,13943.263643856,E,5,02,99.90,25.921,M,36.994,M,5.1,3107*75
$GPGGA,204222.20,3542.270968557,N,13943.263630115,E,5,02,99.90,25.920,M,36.994,M,5.2,3107*7A
$GPGGA,204222.30,3542.270900187,N,13943.263626299,E,5,02,99.90,25.916,M,36.994,M,5.3,3107*78
$GPGGA,204222.40,3542.270840649,N,13943.263614274,E,5,02,99.90,25.913,M,36.994,M,5.4,3107*7F
$GPGGA,204222.50,3542.270776415,N,13943.263609834,E,5,03,99.90,25.910,M,36.994,M,5.5,3107*7E
$GPGGA,204222.60,3542.270721200,N,13943.263596463,E,5,02,99.90,25.916,M,36.994,M,5.6,3107*72
$GPGGA,204222.70,3542.270650436,N,13943.263586345,E,5,03,99.90,25.906,M,36.994,M,5.7,3107*74
$GPGGA,204222.80,3542.270584174,N,13943.263573194,E,5,01,99.90,25.897,M,36.994,M,5.8,3107*72
$GPGGA,204222.90,3542.270500689,N,13943.263548115,E,5,01,99.90,25.952,M,36.994,M,5.9,3107*72
$GPGGA,204223.00,3542.270435812,N,13943.263532930,E,5,02,99.90,25.952,M,36.994,M,6.0,3107*7A
$GPGGA,204223.10,3542.270368609,N,13943.263515356,E,5,02,99.90,25.957,M,36.994,M,6.1,3107*7B
$GPGGA,204223.20,3542.270326716,N,13943.263483352,E,5,02,99.90,25.943,M,36.994,M,6.2,3107*71
$GPGGA,204223.30,3542.270272276,N,13943.263460171,E,5,02,99.90,25.880,M,36.994,M,6.3,3107*72
$GPGGA,204223.40,3542.270210460,N,13943.263449503,E,5,02,99.90,25.874,M,36.994,M,6.4,3107*76
$GPGGA,204223.50,3542.270144971,N,13943.263450656,E,5,02,99.90,25.870,M,36.994,M,6.5,3107*76
$GPGGA,204223.60,3542.270090445,N,13943.263446017,E,5,02,99.90,25.895,M,36.994,M,6.6,3107*7B
$GPGGA,204223.70,3542.270019702,N,13943.263459149,E,5,02,99.90,25.917,M,36.994,M,6.7,3107*75
$GPGGA,204223.80,3542.269964317,N,13943.263452395,E,5,01,99.90,25.918,M,36.994,M,6.8,3107*7A
$GPGGA,204223.90,3542.269918165,N,13943.263443524,E,5,01,99.90,25.911,M,36.994,M,6.9,3107*73
$GPGGA,204224.00,3542.269850893,N,13943.263447420,E,5,01,99.90,25.912,M,36.994,M,7.0,3107*7A
$GPGGA,204224.10,3542.269790542,N,13943.263434773,E,5,01,99.90,25.908,M,36.994,M,7.1,3107*72
$GPGGA,204224.20,3542.269724229,N,13943.263430489,E,5,02,99.90,25.896,M,36.994,M,7.2,3107*70
$GPGGA,204224.30,3542.269667732,N,13943.263416031,E,5,02,99.90,25.852,M,36.994,M,7.3,3107*72
$GPGGA,204224.40,3542.269592027,N,13943.263420588,E,5,02,99.90,25.829,M,36.994,M,7.4,3107*76
$GPGGA,204224.50,3542.269518683,N,13943.263424268,E,5,02,99.90,25.812,M,36.994,M,7.5,3107*79
$GPGGA,204224.60,3542.269442524,N,13943.263310653,E,5,02,99.90,25.849,M,36.994,M,7.6,3107*7B
$GPGGA,204224.70,3542.269382132,N,13943.263230906,E,5,01,99.90,25.852,M,36.994,M,7.7,3107*76
$GPGGA,204224.80,3542.269338998,N,13943.263136257,E,5,02,99.90,25.787,M,36.994,M,7.8,3107*71
$GPGGA,204224.90,3542.269268334,N,13943.263132115,E,5,02,99.90,25.769,M,36.994,M,7.9,3107*78
$GPGGA,204225.00,3542.269199464,N,13943.263093994,E,5,02,99.90,25.777,M,36.994,M,8.0,3107*7D
$GPGGA,204225.10,3542.269138952,N,13943.263073816,E,5,01,99.90,25.777,M,36.994,M,8.1,3107*78
$GPGGA,204225.20,3542.269078693,N,13943.263047550,E,5,02,99.90,25.765,M,36.994,M,8.2,3107*77
$GPGGA,204225.30,3542.269014439,N,13943.263023270,E,5,02,99.90,25.763,M,36.994,M,8.3,3107*7E
$GPGGA,204225.40,3542.268945819,N,13943.263000239,E,5,01,99.90,25.754,M,36.994,M,8.4,3107*77
$GPGGA,204225.50,3542.268863241,N,13943.262993959,E,5,03,99.90,25.733,M,36.994,M,8.5,3107*79
$GPGGA,204225.60,3542.268786606,N,13943.262979284,E,5,01,99.90,25.730,M,36.994,M,8.6,3107*74
$GPGGA,204225.70,3542.268719349,N,13943.262954293,E,5,01,99.90,25.715,M,36.994,M,8.7,3107*72
$GPGGA,204225.80,3542.268655864,N,13943.262930517,E,5,02,99.90,25.685,M,36.994,M,8.8,3107*7D
$GPGGA,204225.90,3542.268579600,N,13943.262912041,E,5,02,99.90,25.672,M,36.994,M,8.9,3107*72
$GPGGA,204226.00,3542.268520942,N,13943.262892864,E,5,01,99.90,25.674,M,36.994,M,9.0,3107*76
$GPGGA,204226.10,3542.268450590,N,13943.262864590,E,5,01,99.90,25.665,M,36.994,M,9.1,3107*7C
$GPGGA,204226.20,3542.268377128,N,13943.262826261,E,5,01,99.90,25.651,M,36.994,M,9.2,3107*71
$GPGGA,204226.30,3542.268296417,N,13943.262786544,E,5,01,99.90,25.657,M,36.994,M,9.3,3107*75
$GPGGA,204226.40,3542.268216194,N,13943.262729196,E,5,01,99.90,25.651,M,36.994,M,9.4,3107*7B
$GPGGA,204226.50,3542.268132142,N,13943.262671969,E,5,01,99.90,25.642,M,36.994,M,9.5,3107*73
$GPGGA,204226.60,3542.268043054,N,13943.262648565,E,5,01,99.90,25.628,M,36.994,M,9.6,3107*74
$GPGGA,204226.70,3542.267978428,N,13943.262615038,E,5,03,99.90,25.614,M,36.994,M,9.7,3107*7D
$GPGGA,204226.80,3542.267900217,N,13943.262507686,E,5,03,99.90,25.621,M,36.994,M,9.8,3107*7D
$GPGGA,204226.90,3542.267835594,N,13943.262457887,E,5,03,99.90,25.599,M,36.994,M,9.9,3107*7D
$GPGGA,204227.00,3542.267777718,N,13943.262385995,E,5,03,99.90,25.573,M,36.994,M,10.0,3107*45
$GPGGA,204227.10,3542.267721218,N,13943.262319057,E,5,03,99.90,25.550,M,36.994,M,5.1,3107*74
$GPGGA,204227.20,3542.267660748,N,13943.262260416,E,5,03,99.90,25.532,M,36.994,M,5.2,3107*7A
$GPGGA,204227.30,3542.267595396,N,13943.262198911,E,5,03,99.90,25.523,M,36.994,M,5.3,3107*7A
$GPGGA,204227.40,3542.267515561,N,13943.262147733,E,5,03,99.90,25.528,M,36.994,M,5.4,3107*7B
$GPGGA,204227.50,3542.267440526,N,13943.262094632,E,5,03,99.90,25.513,M,36.994,M,5.5,3107*7E
