$GPGGA,090205.80,3542.296515764,N,13943.272252301,E,4,11,1.05,23.589,M,36.997,M,3.8,2107*48
$PMSBATV,090205.80,2,2,-0.35869,0.55299,29.26631,0.000,0.000,0.000,41.11267,0.000*68,,,
$GPGGA,090205.90,3542.296515804,N,13943.272252361,E,4,10,1.11,23.589,M,36.997,M,3.9,2107*43
$PMSBATV,090205.90,2,2,-0.35608,0.55116,29.26401,0.000,0.000,0.000,41.11267,0.000*65,,,
$GPGGA,090206.00,3542.296515755,N,13943.272252342,E,4,10,1.11,23.589,M,36.997,M,4.0,2107*4D
$PMSBATV,090206.00,2,2,-0.34886,0.55084,29.26449,0.000,-0.000,0.000,41.11267,0.000*4D,,,
$GPGGA,090206.10,3542.296515755,N,13943.272252428,E,4,10,1.11,23.589,M,36.997,M,4.1,2107*46
$PMSBATV,090206.10,2,2,-0.34680,0.54170,29.26354,-0.000,-0.000,0.000,41.11267,0.000*69,,,
$GPGGA,090206.20,3542.296515773,N,13943.272252545,E,4,11,1.05,23.589,M,36.997,M,4.2,2107*4C
$PMSBATV,090206.20,2,2,-0.34956,0.54888,29.26358,-0.000,-0.000,-0.000,41.11267,0.000*41,,,
$GPGGA,090206.30,3542.296515731,N,13943.272252445,E,4,11,1.05,23.588,M,36.997,M,4.3,2107*4A
$PMSBATV,090206.30,2,2,-0.34474,0.54953,29.26369,0.000,0.000,0.000,41.11267,0.000*65,,,
$GPGGA,090206.40,3542.296515755,N,13943.272252487,E,4,11,1.05,23.588,M,36.997,M,4.4,2107*46
$PMSBATV,090206.40,2,2,-0.33641,0.55590,29.26271,0.000,0.000,-0.000,41.11267,0.000*46,,,
$GPGGA,090206.50,3542.296515821,N,13943.272252538,E,4,11,1.05,23.588,M,36.997,M,4.5,2107*4F
$PMSBATV,090206.50,2,2,-0.34112,0.54926,29.26241,0.000,0.000,-0.000,41.11267,0.000*42,,,
$GPGGA,090206.60,3542.296515812,N,13943.272252382,E,4,11,1.05,23.588,M,36.997,M,4.6,2107*48
$PMSBATV,090206.60,2,2,-0.34697,0.54841,29.26015,-0.000,0.000,0.000,41.11267,0.000*48,,,
$GPGGA,090206.70,3542.296515141,N,13943.272250417,E,4,11,1.05,23.590,M,36.997,M,4.7,2107*47
$PMSBATV,090206.70,2,2,-0.34396,0.54295,29.26130,0.000,0.000,0.000,41.11267,0.000*65,,,
$GPGGA,090206.80,3542.296515416,N,13943.272250428,E,4,11,1.05,23.591,M,36.997,M,4.8,2107*4D
$PMSBATV,090206.80,2,2,-0.34086,0.54883,29.25912,-0.000,-0.000,-0.000,41.11267,0.000*43,,,
$GPGGA,090206.90,3542.296515310,N,13943.272250194,E,4,11,1.05,23.591,M,36.997,M,4.9,2107*4E
$PMSBATV,090206.90,2,2,-0.34463,0.54944,29.26057,-0.000,0.000,0.000,41.11267,0.000*4C,,,
$GPGGA,090207.00,3542.296515295,N,13943.272250197,E,4,11,1.05,23.591,M,36.997,M,5.0,2107*41
$PMSBATV,090207.00,2,2,-0.33664,0.55894,29.25715,-0.000,-0.000,0.000,41.11267,0.000*64,,,
$GPGGA,090207.10,3542.296515331,N,13943.272250095,E,4,11,1.05,23.591,M,36.997,M,5.1,2107*4D
$PMSBATV,090207.10,2,2,-0.32418,0.55754,29.25987,-0.000,-0.000,-0.000,41.11267,0.000*46,,,
$GPGGA,090207.20,3542.296515163,N,13943.272250055,E,4,11,1.05,23.591,M,36.997,M,5.2,2107*44
$PMSBATV,090207.20,2,2,-0.33494,0.55347,29.25976,-0.000,-0.000,0.000,41.11267,0.000*65,,,
$GPGGA,090207.30,3542.296515124,N,13943.272250087,E,4,11,1.05,23.590,M,36.997,M,5.3,2107*49
$PMSBATV,090207.30,2,2,-0.34051,0.55241,29.26263,0.000,-0.000,0.000,41.11267,0.000*48,,,
$GPGGA,090207.40,3542.296515226,N,13943.272250044,E,4,11,1.05,23.590,M,36.997,M,5.4,2107*47
$PMSBATV,090207.40,2,2,-0.34028,0.55460,29.26270,0.000,0.000,-0.000,41.11267,0.000*46,,,
$GPGGA,090207.50,3542.296515426,N,13943.272250187,E,4,11,1.05,23.590,M,36.997,M,5.5,2107*4F
$PMSBATV,090207.50,2,2,-0.33645,0.55597,29.26249,-0.000,0.000,-0.000,41.11267,0.000*63,,,
$GPGGA,090207.60,3542.296515471,N,13943.272250230,E,4,11,1.05,23.590,M,36.997,M,5.6,2107*42
$PMSBATV,090207.60,2,2,-0.34165,0.55181,29.26175,0.000,0.000,-0.000,41.11267,0.000*40,,,
$GPGGA,090207.70,3542.296515454,N,13943.272250177,E,4,11,1.05,23.589,M,36.997,M,5.7,2107*4D
$PMSBATV,090207.70,2,2,-0.33950,0.54604,29.26163,0.000,-0.000,0.000,41.11267,0.000*44,,,
$GPGGA,090207.80,3542.296515571,N,13943.272250198,E,4,11,1.05,23.589,M,36.997,M,5.8,2107*4A
$PMSBATV,090207.80,2,2,-0.33629,0.54900,29.26109,-0.000,0.000,0.000,41.11267,0.000*4D,,,
$GPGGA,090207.90,3542.296515667,N,13943.272250226,E,4,11,1.05,23.589,M,36.997,M,5.9,2107*48
$PMSBATV,090207.90,2,2,-0.33661,0.54686,29.26327,0.000,-0.000,0.000,41.11267,0.000*4F,,,
$GPGGA,090208.00,3542.296515511,N,13943.272250084,E,4,11,1.05,23.589,M,36.997,M,6.0,2107*4C
$PMSBATV,090208.00,2,2,-0.34006,0.54294,29.26101,0.000,0.000,0.000,41.11267,0.000*65,,,
$GPGGA,090208.10,3542.296515615,N,13943.272250182,E,4,11,1.05,23.589,M,36.997,M,1.1,2107*4B
$PMSBATV,090208.10,2,2,-0.33608,0.54296,29.26113,0.000,0.000,-0.000,41.11267,0.000*47,,,
$GPGGA,090208.20,3542.296515740,N,13943.272250264,E,4,11,1.05,23.589,M,36.997,M,1.2,2107*41
$PMSBATV,090208.20,2,2,-0.34110,0.54032,29.25998,-0.000,0.000,0.000,41.11267,0.000*49,,,
$GPGGA,090208.30,3542.296515635,N,13943.272250239,E,4,11,1.05,23.589,M,36.997,M,1.3,2107*4A
$PMSBATV,090208.30,2,2,-0.34134,0.55019,29.25877,0.000,-0.000,0.000,41.11267,0.000*46,,,
$GPGGA,090208.40,3542.296515596,N,13943.272250203,E,4,11,1.05,23.588,M,36.997,M,1.4,2107*48
$PMSBATV,090208.40,2,2,-0.33005,0.55419,29.25815,0.000,0.000,-0.000,41.11267,0.000*45,,,
$GPGGA,090208.50,3542.296515671,N,13943.272250141,E,4,11,1.05,23.588,M,36.997,M,1.5,2107*47
$PMSBATV,090208.50,2,2,-0.33323,0.55299,29.26033,-0.000,0.000,0.000,41.11267,0.000*42,,,
$GPGGA,090208.60,3542.296515446,N,13943.272250191,E,4,11,1.05,23.588,M,36.997,M,1.6,2107*4C
$PMSBATV,090208.60,2,2,-0.34973,0.55428,29.26117,-0.000,0.000,0.000,41.11267,0.000*42,,,
$GPGGA,090208.70,3542.296515290,N,13943.272250015,E,4,11,1.05,23.588,M,36.997,M,1.7,2107*4C
$PMSBATV,090208.70,2,2,-0.35057,0.56065,29.26147,-0.000,0.000,0.000,41.11267,0.000*46,,,
$GPGGA,090208.80,3542.296515305,N,13943.272250000,E,4,11,1.05,23.588,M,36.997,M,1.8,2107*45
$PMSBATV,090208.80,2,2,-0.34308,0.55490,29.26188,-0.000,-0.000,-0.000,41.11267,0.000*4F,,,
$GPGGA,090208.90,3542.296515253,N,13943.272250012,E,4,11,1.05,23.588,M,36.997,M,1.9,2107*44
$PMSBATV,090208.90,2,2,-0.35512,0.54757,29.26188,0.000,0.000,0.000,41.11267,0.000*66,,,
$GPGGA,090209.00,3542.296515350,N,13943.272250100,E,4,11,1.05,23.588,M,36.997,M,2.0,2107*46
$PMSBATV,090209.00,2,2,-0.35184,0.54676,29.26339,-0.000,0.000,0.000,41.11267,0.000*42,,,
$GPGGA,090209.10,3542.296515305,N,13943.272250121,E,4,11,1.05,23.587,M,36.997,M,2.1,2107*4A
$PMSBATV,090209.10,2,2,-0.33518,0.55369,29.26140,0.000,-0.000,-0.000,41.11267,0.000*6F,,,
$GPGGA,090209.20,3542.296515386,N,13943.272250171,E,4,11,1.05,23.587,M,36.997,M,2.2,2107*44
$PMSBATV,090209.20,2,2,-0.34829,0.56113,29.26269,0.001,0.000,-0.000,41.11267,0.000*4C,,,
$GPGGA,090209.30,3542.296515197,N,13943.272250061,E,4,11,1.05,23.587,M,36.997,M,2.3,2107*46
$PMSBATV,090209.30,2,2,-0.35531,0.55432,29.26136,-0.000,0.000,-0.000,41.11267,0.000*68,,,
$GPGGA,090209.40,3542.296515345,N,13943.272250066,E,4,11,1.05,23.587,M,36.997,M,2.4,2107*4C
$PMSBATV,090209.40,2,2,-0.34223,0.55073,29.26385,-0.000,-0.000,-0.000,41.11267,0.000*4C,,,
$GPGGA,090209.50,3542.296515251,N,13943.272250049,E,4,11,1.05,23.586,M,36.997,M,2.5,2107*44
$PMSBATV,090209.50,2,2,-0.34041,0.55678,29.26179,0.000,-0.000,0.000,41.11267,0.000*47,,,
$GPGGA,090209.60,3542.296515286,N,13943.272250021,E,4,11,1.05,23.586,M,36.997,M,2.6,2107*40
$PMSBATV,090209.60,2,2,-0.35001,0.55984,29.26424,0.000,0.000,-0.000,41.11267,0.000*40,,,
$GPGGA,090209.70,3542.296515399,N,13943.272250146,E,4,11,1.05,23.586,M,36.997,M,2.7,2107*4F
$PMSBATV,090209.70,2,2,-0.34390,0.55189,29.26590,-0.000,-0.000,0.000,41.11267,0.000*6D,,,
$GPGGA,090209.80,3542.296515455,N,13943.272250177,E,4,11,1.05,23.586,M,36.997,M,2.8,2107*4A
$PMSBATV,090209.80,2,2,-0.34130,0.55217,29.26453,0.000,0.000,0.000,41.11267,0.000*60,,,
$GPGGA,090209.90,3542.296514515,N,13943.272246362,E,4,11,1.05,23.592,M,36.997,M,2.9,2107*4A
$PMSBATV,090209.90,2,2,-0.33798,0.55560,29.26489,0.000,-0.000,0.000,41.11267,0.000*4F,,,
$GPGGA,090210.00,3542.296514647,N,13943.272246484,E,4,11,1.05,23.592,M,36.997,M,3.0,2107*48
$PMSBATV,090210.00,2,2,-0.34113,0.55069,29.26513,-0.000,-0.000,0.000,41.11267,0.000*6F,,,
$GPGGA,090210.10,3542.296514228,N,13943.272245102,E,4,11,1.05,23.593,M,36.997,M,3.1,2107*4C
$PMSBATV,090210.10,2,2,-0.34400,0.55278,29.26541,-0.000,-0.000,0.000,41.11267,0.000*6C,,,
$GPGGA,090210.20,3542.296514195,N,13943.272245071,E,4,11,1.05,23.593,M,36.997,M,3.2,2107*4C
$PMSBATV,090210.20,2,2,-0.33316,0.55644,29.26159,0.000,0.000,0.000,41.11267,0.000*6E,,,
$GPGGA,090210.30,3542.296514297,N,13943.272245303,E,4,11,1.05,23.593,M,36.997,M,3.3,2107*4B
$PMSBATV,090210.30,2,2,-0.33617,0.56016,29.26298,0.000,0.000,0.000,41.11267,0.000*67,,,
$GPGGA,090210.40,3542.296514149,N,13943.272245186,E,4,11,1.05,23.593,M,36.997,M,3.4,2107*44
$PMSBATV,090210.40,2,2,-0.35409,0.55005,29.26243,-0.000,0.000,0.000,41.11267,0.000*41,,,
$GPGGA,090210.50,3542.296514202,N,13943.272245198,E,4,11,1.05,23.593,M,36.997,M,3.5,2107*47
$PMSBATV,090210.50,2,2,-0.36107,0.54959,29.26587,-0.000,-0.000,0.000,41.11267,0.000*6B,,,
$GPGGA,090210.60,3542.296514129,N,13943.272245253,E,4,11,1.05,23.593,M,36.997,M,3.6,2107*49
$PMSBATV,090210.60,2,2,-0.35804,0.54664,29.26097,0.000,0.000,0.000,41.11267,0.000*64,,,
$GPGGA,090210.70,3542.296514130,N,13943.272245300,E,4,11,1.05,23.592,M,36.997,M,3.7,2107*47
$PMSBATV,090210.70,2,2,-0.34902,0.55205,29.26076,0.000,-0.000,-0.000,41.11267,0.000*6E,,,
$GPGGA,090210.80,3542.296514242,N,13943.272245390,E,4,11,1.05,23.592,M,36.997,M,3.8,2107*48
$PMSBATV,090210.80,2,2,-0.35547,0.55958,29.26153,0.000,-0.000,-0.000,41.11267,0.000*68,,,
$GPGGA,090210.90,3542.296514160,N,13943.272245394,E,4,11,1.05,23.592,M,36.997,M,3.9,2107*4F
$PMSBATV,090210.90,2,2,-0.36973,0.55232,29.26242,-0.000,0.000,-0.000,41.11267,0.000*65,,,
$GPGGA,090211.00,3542.296514161,N,13943.272245355,E,4,11,1.05,23.592,M,36.997,M,4.0,2107*45
$PMSBATV,090211.00,2,2,-0.35490,0.55253,29.26346,-0.000,-0.000,0.000,41.11267,0.000*6C,,,
$GPGGA,090211.10,3542.296514158,N,13943.272245411,E,4,11,1.05,23.592,M,36.997,M,4.1,2107*48
$PMSBATV,090211.10,2,2,-0.36604,0.55308,29.26540,0.000,-0.000,0.000,41.11267,0.000*43,,,
$GPGGA,090211.20,3542.296514152,N,13943.272245506,E,4,11,1.05,23.592,M,36.997,M,4.2,2107*45
$PMSBATV,090211.20,2,2,-0.37776,0.55161,29.26807,-0.000,0.000,0.000,41.11267,0.000*46,,,
$GPGGA,090211.30,3542.296514335,N,13943.272245446,E,4,11,1.05,23.591,M,36.997,M,4.3,2107*40
$PMSBATV,090211.30,2,2,-0.36224,0.55396,29.26586,-0.001,-0.000,0.000,41.11267,0.000*66,,,
$GPGGA,090211.40,3542.296514233,N,13943.272245408,E,4,11,1.05,23.591,M,36.997,M,4.4,2107*4D
$PMSBATV,090211.40,2,2,-0.34640,0.55411,29.26622,0.000,-0.000,0.000,41.11267,0.000*4C,,,
$GPGGA,090211.50,3542.296514352,N,13943.272245667,E,4,10,1.11,23.591,M,36.997,M,4.5,2107*44
$PMSBATV,090211.50,2,2,-0.35085,0.55089,29.26591,-0.000,-0.000,-0.000,41.11267,0.000*4D,,,
$GPGGA,090211.60,3542.296514269,N,13943.272245581,E,4,10,1.11,23.591,M,36.997,M,4.6,2107*46
$PMSBATV,090211.60,2,2,-0.35201,0.54993,29.26644,0.000,0.000,0.000,41.11267,0.000*65,,,
$GPGGA,090211.70,3542.296514081,N,13943.272245582,E,4,10,1.11,23.590,M,36.997,M,4.7,2107*40
$PMSBATV,090211.70,2,2,-0.34957,0.54423,29.26281,-0.000,0.000,-0.000,41.11267,0.000*66,,,
$GPGGA,090211.80,3542.296513866,N,13943.272245378,E,4,10,1.11,23.590,M,36.997,M,4.8,2107*45
$PMSBATV,090211.80,2,2,-0.34166,0.54212,29.26311,-0.000,0.000,0.000,41.11267,0.000*42,,,
$GPGGA,090211.90,3542.296513845,N,13943.272245451,E,4,10,1.11,23.590,M,36.997,M,4.9,2107*48
$PMSBATV,090211.90,2,2,-0.34561,0.53975,29.26480,-0.000,0.000,0.000,41.11267,0.000*42,,,
$GPGGA,090212.00,3542.296514114,N,13943.272245677,E,4,10,1.11,23.590,M,36.997,M,5.0,2107*46
$PMSBATV,090212.00,2,2,-0.34532,0.53969,29.26565,0.000,0.000,0.000,41.11267,0.000*64,,,
$GPGGA,090212.10,3542.296513965,N,13943.272245493,E,4,10,1.11,23.589,M,36.997,M,5.1,2107*4F
$PMSBATV,090212.10,2,2,-0.33954,0.53137,29.26554,-0.000,-0.000,0.000,41.11267,0.000*6F,,,
$GPGGA,090212.20,3542.296513964,N,13943.272245497,E,4,10,1.11,23.589,M,36.997,M,5.2,2107*4A
$PMSBATV,090212.20,2,2,-0.33731,0.53322,29.26640,0.000,-0.000,0.000,41.11267,0.000*4C,,,
$GPGGA,090212.30,3542.296514006,N,13943.272245556,E,4,10,1.11,23.589,M,36.997,M,5.3,2107*4C
$PMSBATV,090212.30,2,2,-0.33755,0.53174,29.26917,0.000,-0.000,0.000,41.11267,0.000*43,,,
$GPGGA,090212.40,3542.296514053,N,13943.272245676,E,4,10,1.11,23.589,M,36.997,M,5.4,2107*4D
$PMSBATV,090212.40,2,2,-0.33716,0.53277,29.26904,0.000,-0.000,0.000,41.11267,0.000*41,,,
$GPGGA,090212.50,3542.296514070,N,13943.272245722,E,4,10,1.11,23.589,M,36.997,M,5.5,2107*4C
$PMSBATV,090212.50,2,2,-0.33507,0.53176,29.27260,0.000,0.000,-0.000,41.11267,0.000*48,,,
$GPGGA,090212.60,3542.296514076,N,13943.272245666,E,4,10,1.11,23.588,M,36.997,M,5.6,2107*4A
$PMSBATV,090212.60,2,2,-0.33607,0.53181,29.27164,-0.000,-0.000,-0.000,41.11267,0.000*47,,,
$GPGGA,090212.70,3542.296514162,N,13943.272245741,E,4,10,1.11,23.588,M,36.997,M,5.7,2107*4A
$PMSBATV,090212.70,2,2,-0.34634,0.53150,29.27224,0.000,-0.000,-0.000,41.11267,0.000*67,,,
$GPGGA,090212.80,3542.296514021,N,13943.272245748,E,4,10,1.11,23.588,M,36.997,M,5.8,2107*45
$PMSBATV,090212.80,2,2,-0.33851,0.52834,29.27100,-0.000,-0.000,0.000,41.11267,0.000*6D,,,
$GPGGA,090212.90,3542.296514022,N,13943.272245734,E,4,10,1.11,23.588,M,36.997,M,5.9,2107*4D
$PMSBATV,090212.90,2,2,-0.33338,0.52101,29.27139,-0.000,-0.000,0.000,41.11267,0.000*6D,,,
$GPGGA,090213.00,3542.296514007,N,13943.272245878,E,4,10,1.11,23.588,M,36.997,M,6.0,2107*4F
$PMSBATV,090213.00,2,2,-0.33877,0.52304,29.27026,-0.000,0.000,-0.000,41.11267,0.000*6D,,,
$GPGGA,090213.10,3542.296514140,N,13943.272245971,E,4,10,1.11,23.588,M,36.997,M,6.1,2107*45
$PMSBATV,090213.10,2,2,-0.34187,0.52494,29.26940,0.001,-0.000,0.000,41.11267,0.000*47,,,
$GPGGA,090213.20,3542.296513992,N,13943.272245906,E,4,10,1.11,23.587,M,36.997,M,6.2,2107*4A
$PMSBATV,090213.20,2,2,-0.34918,0.52295,29.26976,0.001,0.000,0.000,41.11267,0.000*65,,,
$GPGGA,090213.30,3542.296513711,N,13943.272245721,E,4,10,1.11,23.587,M,36.997,M,6.3,2107*44
$PMSBATV,090213.30,2,2,-0.34195,0.52254,29.26981,-0.000,0.000,0.000,41.11267,0.000*40,,,
$GPGGA,090213.40,3542.296513673,N,13943.272245690,E,4,10,1.11,23.587,M,36.997,M,6.4,2107*4A
$PMSBATV,090213.40,2,2,-0.33260,0.53000,29.26932,0.000,-0.000,0.000,41.11267,0.000*43,,,
$GPGGA,090213.50,3542.296513812,N,13943.272245866,E,4,10,1.11,23.587,M,36.997,M,6.5,2107*44
$PMSBATV,090213.50,2,2,-0.34378,0.53315,29.26804,-0.000,0.000,0.000,41.11267,0.000*4E,,,
$GPGGA,090213.60,3542.296513823,N,13943.272245783,E,4,10,1.11,23.587,M,36.997,M,6.6,2107*42
$PMSBATV,090213.60,2,2,-0.35443,0.52990,29.26910,0.000,0.000,0.000,41.11267,0.000*6C,,,
$GPGGA,090213.70,3542.296513936,N,13943.272245999,E,4,10,1.11,23.587,M,36.997,M,6.7,2107*42
$PMSBATV,090213.70,2,2,-0.34953,0.52858,29.26645,-0.000,-0.000,0.000,41.11267,0.000*6A,,,
$GPGGA,090213.80,3542.296512807,N,13943.272242774,E,4,10,1.11,23.592,M,36.997,M,6.8,2107*4E
$PMSBATV,090213.80,2,2,-0.34630,0.53076,29.26723,0.000,-0.000,-0.000,41.11267,0.000*6B,,,
$GPGGA,090213.90,3542.296512760,N,13943.272242268,E,4,10,1.11,23.593,M,36.997,M,6.9,2107*49
$PMSBATV,090213.90,2,2,-0.35307,0.53469,29.26717,0.000,0.000,0.000,41.11267,0.000*67,,,
$GPGGA,090214.00,3542.296512706,N,13943.272242372,E,4,10,1.11,23.593,M,36.997,M,7.0,2107*45
$PMSBATV,090214.00,2,2,-0.35250,0.53887,29.26643,-0.000,0.000,0.000,41.11267,0.000*4B,,,
$GPGGA,090214.10,3542.296512389,N,13943.272242008,E,4,10,1.11,23.594,M,36.997,M,2.1,2107*4A
$PMSBATV,090214.10,2,2,-0.35130,0.53672,29.26699,0.000,0.000,0.000,41.11267,0.000*61,,,
$GPGGA,090214.20,3542.296512250,N,13943.272241846,E,4,10,1.11,23.594,M,36.997,M,2.2,2107*4E
$PMSBATV,090214.20,2,2,-0.35828,0.53781,29.26600,0.000,0.000,0.000,41.11267,0.000*6F,,,
$GPGGA,090214.30,3542.296512152,N,13943.272241572,E,4,09,1.13,23.593,M,36.997,M,2.3,2107*48
$PMSBATV,090214.30,2,2,-0.35778,0.54201,29.26621,0.000,-0.000,0.000,41.11267,0.000*40,,,
$GPGGA,090214.40,3542.296512120,N,13943.272241557,E,4,09,1.13,23.594,M,36.997,M,2.4,2107*4D
$PMSBATV,090214.40,2,2,-0.34557,0.54012,29.26640,-0.000,-0.000,0.000,41.11267,0.000*63,,,
$GPGGA,090214.50,3542.296511914,N,13943.272241338,E,4,09,1.13,23.594,M,36.997,M,2.5,2107*4E
$PMSBATV,090214.50,2,2,-0.34689,0.53295,29.26700,-0.000,-0.000,-0.000,41.11267,0.000*40,,,
$GPGGA,090214.60,3542.296511842,N,13943.272241326,E,4,09,1.13,23.594,M,36.997,M,2.6,2107*43
$PMSBATV,090214.60,2,2,-0.35321,0.53754,29.26656,0.000,-0.000,-0.000,41.11267,0.000*62,,,
$GPGGA,090214.70,3542.296511799,N,13943.272241140,E,4,09,1.13,23.594,M,36.997,M,2.7,2107*48
$PMSBATV,090214.70,2,2,-0.34978,0.54042,29.26650,0.000,0.000,0.000,41.11267,0.000*65,,,
$GPGGA,090214.80,3542.296511851,N,13943.272241074,E,4,09,1.13,23.595,M,36.997,M,2.8,2107*44
$PMSBATV,090214.80,2,2,-0.34785,0.53594,29.26583,-0.000,-0.000,0.000,41.11267,0.000*62,,,
$GPGGA,090214.90,3542.296511909,N,13943.272241192,E,4,09,1.13,23.595,M,36.997,M,2.9,2107*41
$PMSBATV,090214.90,2,2,-0.34881,0.53461,29.26571,-0.000,-0.000,-0.000,41.11267,0.000*43,,,
$GPGGA,090215.00,3542.296511816,N,13943.272241101,E,4,09,1.13,23.595,M,36.997,M,3.0,2107*44
$PMSBATV,090215.00,2,2,-0.35282,0.54051,29.26510,0.000,-0.000,0.000,41.11267,0.000*44,,,
$GPGGA,090215.10,3542.296511888,N,13943.272240938,E,4,09,1.13,23.595,M,36.997,M,3.1,2107*40
$PMSBATV,090215.10,2,2,-0.34658,0.53728,29.26709,0.000,-0.000,0.000,41.11267,0.000*43,,,
$GPGGA,090215.20,3542.296511928,N,13943.272241050,E,4,09,1.13,23.595,M,36.997,M,3.2,2107*4D
$PMSBATV,090215.20,2,2,-0.34571,0.53336,29.26660,-0.000,0.000,0.000,41.11267,0.000*4D,,,
$GPGGA,090215.30,3542.296511891,N,13943.272240915,E,4,09,1.13,23.596,M,36.997,M,3.3,2107*44
$PMSBATV,090215.30,2,2,-0.35293,0.53309,29.26618,0.000,0.000,0.000,41.11267,0.000*68,,,
$GPGGA,090215.40,3542.296511765,N,13943.272240740,E,4,09,1.13,23.596,M,36.997,M,3.4,2107*4E
$PMSBATV,090215.40,2,2,-0.34963,0.53229,29.26552,0.000,-0.000,0.000,41.11267,0.000*49,,,
$GPGGA,090215.50,3542.296511728,N,13943.272240724,E,4,09,1.13,23.596,M,36.997,M,3.5,2107*45
$PMSBATV,090215.50,2,2,-0.34789,0.52492,29.26582,-0.000,0.000,0.000,41.11267,0.000*48,,,
$GPGGA,090215.60,3542.296511558,N,13943.272240707,E,4,09,1.13,23.597,M,36.997,M,3.6,2107*40
$PMSBATV,090215.60,2,2,-0.35513,0.52360,29.26537,-0.000,0.000,0.000,41.11267,0.000*4F,,,
$GPGGA,090215.70,3542.296511637,N,13943.272240770,E,4,09,1.13,23.597,M,36.997,M,3.7,2107*4A
$PMSBATV,090215.70,2,2,-0.35753,0.52953,29.26561,-0.000,-0.000,0.000,41.11267,0.000*6C,,,
$GPGGA,090215.80,3542.296511305,N,13943.272240624,E,4,09,1.13,23.597,M,36.997,M,3.8,2107*4E
$PMSBATV,090215.80,2,2,-0.35273,0.53107,29.26420,-0.000,-0.000,-0.000,41.11267,0.000*45,,,
$GPGGA,090215.90,3542.296511327,N,13943.272240503,E,4,09,1.13,23.598,M,36.997,M,3.9,2107*47
$PMSBATV,090215.90,2,2,-0.36120,0.52755,29.26513,-0.000,-0.000,-0.000,41.11267,0.000*43,,,
$GPGGA,090216.00,3542.296511268,N,13943.272240426,E,4,09,1.13,23.598,M,36.997,M,4.0,2107*4F
$PMSBATV,090216.00,2,2,-0.36149,0.52506,29.26501,0.000,-0.000,0.000,41.11267,0.000*41,,,
$GPGGA,090216.10,3542.296511193,N,13943.272240422,E,4,09,1.13,23.598,M,36.997,M,4.1,2107*4C
$PMSBATV,090216.10,2,2,-0.35379,0.53068,29.26807,0.001,-0.000,0.000,41.11267,0.000*44,,,
$GPGGA,090216.20,3542.296511081,N,13943.272240495,E,4,09,1.13,23.598,M,36.997,M,4.2,2107*42
$PMSBATV,090216.20,2,2,-0.35971,0.53192,29.26996,-0.000,0.000,0.000,41.11267,0.000*49,,,
$GPGGA,090216.30,3542.296511045,N,13943.272240443,E,4,09,1.13,23.598,M,36.997,M,4.3,2107*41
$PMSBATV,090216.30,2,2,-0.36052,0.53390,29.26990,-0.000,-0.000,0.000,41.11267,0.000*68,,,
$GPGGA,090216.40,3542.296510992,N,13943.272240294,E,4,09,1.13,23.598,M,36.997,M,4.4,2107*4F
$PMSBATV,090216.40,2,2,-0.35251,0.53761,29.27102,-0.000,-0.000,-0.000,41.11267,0.000*48,,,
$GPGGA,090216.50,3542.296511042,N,13943.272240314,E,4,09,1.13,23.598,M,36.997,M,4.5,2107*43
$PMSBATV,090216.50,2,2,-0.34939,0.54019,29.27110,-0.000,-0.000,0.000,41.11267,0.000*6C,,,
$GPGGA,090216.60,3542.296510744,N,13943.272240287,E,4,09,1.13,23.599,M,36.997,M,4.6,2107*49
$PMSBATV,090216.60,2,2,-0.34955,0.54208,29.27054,0.000,0.000,-0.000,41.11267,0.000*4B,,,
$GPGGA,090216.70,3542.296510418,N,13943.272240151,E,4,09,1.13,23.599,M,36.997,M,4.7,2107*4B
$PMSBATV,090216.70,2,2,-0.35010,0.53725,29.27166,-0.000,-0.000,0.000,41.11267,0.000*63,,,
$GPGGA,090216.80,3542.296510379,N,13943.272240187,E,4,09,1.13,23.599,M,36.997,M,4.8,2107*40
$PMSBATV,090216.80,2,2,-0.35566,0.54014,29.27383,-0.000,-0.000,0.000,41.11267,0.000*63,,,
$GPGGA,090216.90,3542.296510309,N,13943.272240215,E,4,09,1.13,23.599,M,36.997,M,4.9,2107*4F
$PMSBATV,090216.90,2,2,-0.36092,0.54412,29.27148,0.000,0.000,0.000,41.11267,0.000*68,,,
$GPGGA,090217.00,3542.296510347,N,13943.272240320,E,4,09,1.13,23.599,M,36.997,M,5.0,2107*42
$PMSBATV,090217.00,2,2,-0.36591,0.54841,29.26969,0.000,0.000,0.000,41.11267,0.000*66,,,
$GPGGA,090217.10,3542.296510194,N,13943.272240196,E,4,09,1.13,23.599,M,36.997,M,5.1,2107*41
$PMSBATV,090217.10,2,2,-0.36803,0.54639,29.26846,-0.000,0.000,-0.000,41.11267,0.000*6C,,,
$GPGGA,090217.20,3542.296510023,N,13943.272240114,E,4,09,1.13,23.599,M,36.997,M,5.2,2107*46
$PMSBATV,090217.20,2,2,-0.36555,0.54674,29.26612,-0.000,-0.000,0.000,41.11267,0.000*67,,,
$GPGGA,090217.30,3542.296510075,N,13943.272240145,E,4,09,1.13,23.599,M,36.997,M,5.3,2107*41
$PMSBATV,090217.30,2,2,-0.36716,0.55111,29.26641,0.000,0.000,0.000,41.11267,0.000*60,,,
$GPGGA,090217.40,3542.296510099,N,13943.272240236,E,4,09,1.13,23.600,M,36.997,M,5.4,2107*47
$PMSBATV,090217.40,2,2,-0.36011,0.55215,29.26501,0.000,0.000,0.000,41.11267,0.000*67,,,
$GPGGA,090217.50,3542.296510149,N,13943.272240331,E,4,09,1.13,23.600,M,36.997,M,5.5,2107*4D
$PMSBATV,090217.50,2,2,-0.35495,0.55098,29.26474,-0.000,0.000,0.000,41.11267,0.000*44,,,
$GPGGA,090217.60,3542.296510051,N,13943.272240336,E,4,09,1.13,23.600,M,36.997,M,5.6,2107*42
$PMSBATV,090217.60,2,2,-0.35360,0.55351,29.26632,-0.000,0.000,0.000,41.11267,0.000*4C,,,
$GPGGA,090217.70,3542.296510013,N,13943.272240492,E,4,09,1.13,23.600,M,36.997,M,5.7,2107*4D
$PMSBATV,090217.70,2,2,-0.35461,0.55553,29.26695,-0.000,0.000,0.000,41.11267,0.000*42,,,
$GPGGA,090217.80,3542.296510028,N,13943.272240496,E,4,09,1.13,23.600,M,36.997,M,5.8,2107*41
$PMSBATV,090217.80,2,2,-0.34934,0.55275,29.26545,-0.000,-0.000,0.000,41.11267,0.000*61,,,
$GPGGA,090217.90,3542.296509912,N,13943.272240418,E,4,09,1.13,23.601,M,36.997,M,5.9,2107*4E
$PMSBATV,090217.90,2,2,-0.34364,0.54993,29.26432,-0.000,-0.000,-0.000,41.11267,0.000*41,,,
$GPGGA,090218.00,3542.296510205,N,13943.272240624,E,4,09,1.13,23.601,M,36.997,M,6.0,2107*4A
$PMSBATV,090218.00,2,2,-0.35059,0.55473,29.26491,-0.000,0.000,0.000,41.11267,0.000*40,,,
$GPGGA,090218.10,3542.296510113,N,13943.272240643,E,4,09,1.13,23.601,M,36.997,M,1.1,2107*48
$PMSBATV,090218.10,2,2,-0.35051,0.55538,29.26514,-0.000,-0.000,0.000,41.11267,0.000*66,,,
$GPGGA,090218.20,3542.296510132,N,13943.272240710,E,4,09,1.13,23.601,M,36.997,M,1.2,2107*4C
$PMSBATV,090218.20,2,2,-0.35144,0.55987,29.26207,0.000,-0.000,0.000,41.11267,0.000*40,,,
$GPGGA,090218.30,3542.296510032,N,13943.272240874,E,4,09,1.13,23.601,M,36.997,M,1.3,2107*40
$PMSBATV,090218.30,2,2,-0.36007,0.55824,29.26464,0.000,-0.000,0.000,41.11267,0.000*4F,,,
$GPGGA,090218.40,3542.296509980,N,13943.272240750,E,4,09,1.13,23.602,M,36.997,M,1.4,2107*42
$PMSBATV,090218.40,2,2,-0.36117,0.56277,29.26413,-0.000,-0.000,0.000,41.11267,0.000*6A,,,
$GPGGA,090218.50,3542.296509858,N,13943.272240751,E,4,09,1.13,23.602,M,36.997,M,1.5,2107*47
$PMSBATV,090218.50,2,2,-0.34922,0.55896,29.26442,-0.000,-0.000,0.000,41.11267,0.000*65,,,
$GPGGA,090218.60,3542.296509973,N,13943.272241006,E,4,09,1.13,23.602,M,36.997,M,1.6,2107*4B
$PMSBATV,090218.60,2,2,-0.35274,0.55513,29.26677,-0.000,-0.000,-0.000,41.11267,0.000*46,,,
$GPGGA,090218.70,3542.296509885,N,13943.272240878,E,4,09,1.13,23.602,M,36.997,M,1.7,2107*43
$PMSBATV,090218.70,2,2,-0.35445,0.55688,29.26742,-0.000,0.000,0.000,41.11267,0.000*45,,,
$GPGGA,090218.80,3542.296509789,N,13943.272240954,E,4,09,1.13,23.602,M,36.997,M,1.8,2107*4F
$PMSBATV,090218.80,2,2,-0.35469,0.55992,29.26804,-0.000,-0.000,0.000,41.11267,0.000*60,,,
$GPGGA,090218.90,3542.296509768,N,13943.272240847,E,4,09,1.13,23.602,M,36.997,M,1.9,2107*43
$PMSBATV,090218.90,2,2,-0.35679,0.55858,29.26704,-0.000,0.000,-0.000,41.11267,0.000*6A,,,
$GPGGA,090219.00,3542.296509744,N,13943.272240885,E,4,09,1.13,23.602,M,36.997,M,2.0,2107*41
$PMSBATV,090219.00,2,2,-0.36340,0.56583,29.26811,0.000,0.000,0.000,41.11267,0.000*6D,,,
$GPGGA,090219.10,3542.296509669,N,13943.272240896,E,4,09,1.13,23.602,M,36.997,M,2.1,2107*4D
$PMSBATV,090219.10,2,2,-0.36245,0.56850,29.26892,-0.000,-0.000,0.000,41.11267,0.000*60,,,
$GPGGA,090219.20,3542.296509819,N,13943.272240886,E,4,09,1.13,23.602,M,36.997,M,2.2,2107*45
$PMSBATV,090219.20,2,2,-0.36325,0.56484,29.26891,-0.000,-0.000,0.000,41.11267,0.000*62,,,
$GPGGA,090219.30,3542.296509575,N,13943.272240716,E,4,09,1.13,23.602,M,36.997,M,2.3,2107*44
$PMSBATV,090219.30,2,2,-0.36610,0.56190,29.26975,-0.000,0.000,0.000,41.11267,0.000*46,,,
$GPGGA,090219.40,3542.296509580,N,13943.272240691,E,4,09,1.13,23.602,M,36.997,M,2.4,2107*40
$PMSBATV,090219.40,2,2,-0.37415,0.56418,29.26809,0.000,0.000,0.000,41.11267,0.000*65,,,
$GPGGA,090219.50,3542.296509682,N,13943.272240845,E,4,09,1.13,23.602,M,36.997,M,2.5,2107*46
$PMSBATV,090219.50,2,2,-0.37684,0.56135,29.26895,0.000,-0.000,-0.000,41.11267,0.000*61,,,
$GPGGA,090219.60,3542.296509712,N,13943.272240860,E,4,09,1.13,23.603,M,36.997,M,2.6,2107*48
$PMSBATV,090219.60,2,2,-0.37791,0.56601,29.26745,-0.000,-0.000,0.000,41.11267,0.000*65,,,
$GPGGA,090219.70,3542.296509495,N,13943.272240868,E,4,09,1.13,23.602,M,36.997,M,2.7,2107*4D
$PMSBATV,090219.70,2,2,-0.37315,0.57114,29.26932,-0.000,-0.000,0.000,41.11267,0.000*60,,,
$GPGGA,090219.80,3542.296509596,N,13943.272240905,E,4,09,1.13,23.602,M,36.997,M,2.8,2107*45
$PMSBATV,090219.80,2,2,-0.37437,0.57633,29.26729,-0.000,-0.000,0.000,41.11267,0.000*6E,,,
$GPGGA,090219.90,3542.296509575,N,13943.272240990,E,4,09,1.13,23.603,M,36.997,M,2.9,2107*45
$PMSBATV,090219.90,2,2,-0.37522,0.57291,29.27000,-0.000,-0.000,0.000,41.11267,0.000*6B,,,
$GPGGA,090220.00,3542.296509604,N,13943.272241084,E,4,09,1.13,23.603,M,36.997,M,3.0,2107*46
$PMSBATV,090220.00,2,2,-0.37709,0.57309,29.27020,-0.000,0.000,0.000,41.11267,0.000*4C,,,
$GPGGA,090220.10,3542.296509454,N,13943.272240897,E,4,09,1.13,23.603,M,36.997,M,3.1,2107*4A
$PMSBATV,090220.10,2,2,-0.37418,0.57340,29.27017,0.000,0.000,0.000,41.11267,0.000*6A,,,
$GPGGA,090220.20,3542.296509727,N,13943.272241064,E,4,09,1.13,23.603,M,36.997,M,3.2,2107*48
$PMSBATV,090220.20,2,2,-0.38199,0.57095,29.27054,0.000,-0.000,0.000,41.11267,0.000*4B,,,
$GPGGA,090220.30,3542.296509702,N,13943.272241153,E,4,09,1.13,23.603,M,36.997,M,3.3,2107*4A
$PMSBATV,090220.30,2,2,-0.37568,0.56698,29.27045,-0.000,0.000,0.000,41.11267,0.000*45,,,
$GPGGA,090220.40,3542.296509607,N,13943.272241262,E,4,09,1.13,23.603,M,36.997,M,3.4,2107*4F
$PMSBATV,090220.40,2,2,-0.37756,0.56407,29.27116,-0.000,0.000,-0.000,41.11267,0.000*63,,,
$GPGGA,090220.50,3542.296509578,N,13943.272241243,E,4,09,1.13,23.603,M,36.997,M,3.5,2107*47
$PMSBATV,090220.50,2,2,-0.37855,0.56635,29.27196,-0.000,0.000,0.000,41.11267,0.000*48,,,
$GPGGA,090220.60,3542.296509629,N,13943.272241251,E,4,09,1.13,23.603,M,36.997,M,3.6,2107*43
$PMSBATV,090220.60,2,2,-0.38139,0.56436,29.27290,0.000,0.000,0.000,41.11267,0.000*6E,,,
$GPGGA,090220.70,3542.296509408,N,13943.272241292,E,4,09,1.13,23.604,M,36.997,M,3.7,2107*4A
$PMSBATV,090220.70,2,2,-0.37169,0.55986,29.27422,-0.000,-0.000,0.000,41.11267,0.000*6F,,,
$GPGGA,090220.80,3542.296509345,N,13943.272241279,E,4,09,1.13,23.604,M,36.997,M,3.8,2107*41
$PMSBATV,090220.80,2,2,-0.37026,0.56536,29.27184,0.000,-0.000,0.000,41.11267,0.000*4A,,,
$GPGGA,090220.90,3542.296509499,N,13943.272241545,E,4,09,1.13,23.604,M,36.997,M,3.9,2107*4F
$PMSBATV,090220.90,2,2,-0.37699,0.56830,29.27210,-0.000,0.000,0.000,41.11267,0.000*4C,,,
$GPGGA,090221.00,3542.296509473,N,13943.272241637,E,4,09,1.13,23.604,M,36.997,M,4.0,2107*4B
$PMSBATV,090221.00,2,2,-0.36816,0.57398,29.27035,0.000,-0.000,0.000,41.11267,0.000*41,,,
$GPGGA,090221.10,3542.296509561,N,13943.272241748,E,4,09,1.13,23.604,M,36.997,M,4.1,2107*40
$PMSBATV,090221.10,2,2,-0.36435,0.56831,29.27143,-0.000,-0.000,0.000,41.11267,0.000*69,,,
$GPGGA,090221.20,3542.296509604,N,13943.272241734,E,4,09,1.13,23.604,M,36.997,M,4.2,2107*4B
$PMSBATV,090221.20,2,2,-0.37399,0.57060,29.27002,-0.000,0.000,0.000,41.11267,0.000*4E,,,
$GPGGA,090221.30,3542.296509351,N,13943.272241679,E,4,09,1.13,23.604,M,36.997,M,4.3,2107*46
$PMSBATV,090221.30,2,2,-0.37503,0.56740,29.27183,0.000,0.000,0.000,41.11267,0.000*6B,,,
$GPGGA,090221.40,3542.296509288,N,13943.272241602,E,4,09,1.13,23.604,M,36.997,M,4.4,2107*4F
$PMSBATV,090221.40,2,2,-0.36778,0.56599,29.26883,-0.000,-0.000,0.000,41.11267,0.000*6D,,,
$GPGGA,090221.50,3542.296509514,N,13943.272241818,E,4,09,1.13,23.605,M,36.997,M,4.5,2107*49
$PMSBATV,090221.50,2,2,-0.36957,0.56719,29.27375,0.000,0.000,0.000,41.11267,0.000*66,,,
$GPGGA,090221.60,3542.296509424,N,13943.272241867,E,4,09,1.13,23.605,M,36.997,M,4.6,2107*43
$PMSBATV,090221.60,2,2,-0.37664,0.57107,29.27380,-0.000,0.000,0.000,41.11267,0.000*44,,,
$GPGGA,090221.70,3542.296509385,N,13943.272241871,E,4,09,1.13,23.605,M,36.997,M,4.7,2107*48
$PMSBATV,090221.70,2,2,-0.37077,0.57033,29.27460,0.000,0.000,0.000,41.11267,0.000*63,,,
$GPGGA,090221.80,3542.296509298,N,13943.272241737,E,4,09,1.13,23.605,M,36.997,M,4.8,2107*48
$PMSBATV,090221.80,2,2,-0.37698,0.56799,29.27493,-0.000,0.000,0.000,41.11267,0.000*4C,,,
$GPGGA,090221.90,3542.296509307,N,13943.272241857,E,4,09,1.13,23.605,M,36.997,M,4.9,2107*46
$PMSBATV,090221.90,2,2,-0.37932,0.56906,29.27459,0.000,-0.000,0.000,41.11267,0.000*4C,,,
$GPGGA,090222.00,3542.296509486,N,13943.272242014,E,4,09,1.13,23.605,M,36.997,M,5.0,2107*46
$PMSBATV,090222.00,2,2,-0.37971,0.57099,29.27208,-0.000,-0.000,0.000,41.11267,0.000*60,,,
$GPGGA,090222.10,3542.296509625,N,13943.272242136,E,4,09,1.13,23.605,M,36.997,M,5.1,2107*4C
$PMSBATV,090222.10,2,2,-0.37996,0.56996,29.27243,-0.000,-0.000,0.000,41.11267,0.000*60,,,
$GPGGA,090222.20,3542.296509522,N,13943.272241967,E,4,09,1.13,23.605,M,36.997,M,5.2,2107*47
$PMSBATV,090222.20,2,2,-0.38017,0.57149,29.27045,-0.000,-0.000,0.000,41.11267,0.000*63,,,
$GPGGA,090222.30,3542.296509498,N,13943.272241961,E,4,09,1.13,23.605,M,36.997,M,5.3,2107*41
$PMSBATV,090222.30,2,2,-0.38165,0.57533,29.26917,0.000,0.000,0.000,41.11267,0.000*60,,,
$GPGGA,090222.40,3542.296509546,N,13943.272241950,E,4,09,1.13,23.606,M,36.997,M,5.4,2107*42
$PMSBATV,090222.40,2,2,-0.37807,0.57041,29.26867,-0.000,-0.000,0.000,41.11267,0.000*63,,,
$GPGGA,090222.50,3542.296509495,N,13943.272241888,E,4,09,1.13,23.606,M,36.997,M,5.5,2107*49
$PMSBATV,090222.50,2,2,-0.37485,0.56504,29.26922,-0.001,-0.000,0.000,41.11267,0.000*60,,,
$GPGGA,090222.60,3542.296509431,N,13943.272241885,E,4,09,1.13,23.606,M,36.997,M,5.6,2107*4A
$PMSBATV,090222.60,2,2,-0.37437,0.56356,29.26960,-0.000,-0.000,0.000,41.11267,0.000*6C,,,
$GPGGA,090222.70,3542.296509402,N,13943.272242028,E,4,09,1.13,23.606,M,36.997,M,5.7,2107*46
$PMSBATV,090222.70,2,2,-0.37740,0.56786,29.27132,-0.000,0.000,-0.000,41.11267,0.000*69,,,
$GPGGA,090222.80,3542.296509440,N,13943.272242114,E,4,09,1.13,23.606,M,36.997,M,5.8,2107*4E
$PMSBATV,090222.80,2,2,-0.36643,0.56182,29.27027,-0.000,-0.000,0.000,41.11267,0.000*62,,,
$GPGGA,090222.90,3542.296509310,N,13943.272242053,E,4,09,1.13,23.606,M,36.997,M,5.9,2107*4E
$PMSBATV,090222.90,2,2,-0.36878,0.55494,29.27075,-0.000,0.000,-0.000,41.11267,0.000*63,,,
$GPGGA,090223.00,3542.296509401,N,13943.272242123,E,4,09,1.13,23.607,M,36.997,M,6.0,2107*4C
$PMSBATV,090223.00,2,2,-0.36703,0.56341,29.27022,-0.000,0.000,0.000,41.11267,0.000*4B,,,
$GPGGA,090223.10,3542.296509176,N,13943.272242048,E,4,09,1.13,23.607,M,36.997,M,1.1,2107*42
$PMSBATV,090223.10,2,2,-0.36543,0.55898,29.27126,-0.000,0.000,0.000,41.11267,0.000*45,,,
$GPGGA,090223.20,3542.296509160,N,13943.272242090,E,4,09,1.13,23.607,M,36.997,M,1.2,2107*40
$PMSBATV,090223.20,2,2,-0.36208,0.55408,29.27082,-0.000,-0.000,-0.000,41.11267,0.000*44,,,
$GPGGA,090223.30,3542.296509288,N,13943.272242167,E,4,09,1.13,23.607,M,36.997,M,1.3,2107*4C
$PMSBATV,090223.30,2,2,-0.36664,0.55029,29.27186,-0.000,0.000,0.000,41.11267,0.000*49,,,
$GPGGA,090223.40,3542.296509347,N,13943.272242285,E,4,09,1.13,23.607,M,36.997,M,1.4,2107*41
$PMSBATV,090223.40,2,2,-0.36517,0.54985,29.27162,0.000,-0.000,0.000,41.11267,0.000*4D,,,
$GPGGA,090223.50,3542.296509198,N,13943.272242377,E,4,09,1.13,23.608,M,36.997,M,1.5,2107*42
$PMSBATV,090223.50,2,2,-0.36556,0.54938,29.27583,-0.000,-0.000,0.000,41.11267,0.000*69,,,
$GPGGA,090223.60,3542.296509202,N,13943.272242475,E,4,09,1.13,23.608,M,36.997,M,1.6,2107*47
$PMSBATV,090223.60,2,2,-0.36638,0.55142,29.27771,0.000,0.000,-0.000,41.11267,0.000*47,,,
$GPGGA,090223.70,3542.296509319,N,13943.272242527,E,4,10,1.07,23.608,M,36.997,M,1.7,2107*47
$PMSBATV,090223.70,2,2,-0.36561,0.55571,29.27786,-0.000,-0.000,0.000,41.11267,0.000*68,,,
$GPGGA,090223.80,3542.296509179,N,13943.272242591,E,4,10,1.07,23.608,M,36.997,M,1.8,2107*4E
$PMSBATV,090223.80,2,2,-0.36437,0.55737,29.27795,0.000,0.000,0.000,41.11267,0.000*67,,,
$GPGGA,090223.90,3542.296509241,N,13943.272242756,E,4,10,1.07,23.608,M,36.997,M,1.9,2107*4F
$PMSBATV,090223.90,2,2,-0.36096,0.55754,29.27749,-0.000,-0.000,-0.000,41.11267,0.000*40,,,
$GPGGA,090224.00,3542.296509140,N,13943.272242720,E,4,09,1.13,23.609,M,36.997,M,2.0,2107*44
$PMSBATV,090224.00,2,2,-0.35943,0.56192,29.27526,-0.000,-0.000,0.000,41.11267,0.000*65,,,
$GPGGA,090224.10,3542.296509124,N,13943.272242755,E,4,10,1.07,23.609,M,36.997,M,2.1,2107*49
$PMSBATV,090224.10,2,2,-0.35291,0.56388,29.27290,0.000,0.000,0.000,41.11267,0.000*63,,,
$GPGGA,090224.20,3542.296509248,N,13943.272242923,E,4,10,1.07,23.609,M,36.997,M,2.2,2107*4F
$PMSBATV,090224.20,2,2,-0.35107,0.56077,29.27490,-0.000,-0.000,-0.000,41.11267,0.000*44,,,
$GPGGA,090224.30,3542.296509273,N,13943.272242834,E,4,10,1.07,23.609,M,36.997,M,2.3,2107*40
$PMSBATV,090224.30,2,2,-0.35674,0.55702,29.27351,0.000,0.000,-0.000,41.11267,0.000*4A,,,
$GPGGA,090224.40,3542.296509214,N,13943.272242892,E,4,10,1.07,23.609,M,36.997,M,2.4,2107*4D
$PMSBATV,090224.40,2,2,-0.36011,0.55982,29.27581,0.000,-0.000,0.000,41.11267,0.000*46,,,
$GPGGA,090224.50,3542.296509217,N,13943.272242965,E,4,10,1.07,23.609,M,36.997,M,2.5,2107*47
$PMSBATV,090224.50,2,2,-0.35977,0.56115,29.27606,0.000,0.000,0.000,41.11267,0.000*69,,,
$GPGGA,090224.60,3542.296509277,N,13943.272242908,E,4,10,1.07,23.610,M,36.997,M,2.6,2107*42
$PMSBATV,090224.60,2,2,-0.36045,0.55011,29.27530,-0.000,0.000,0.000,41.11267,0.000*4C,,,
$GPGGA,090224.70,3542.296509383,N,13943.272243144,E,4,10,1.07,23.610,M,36.997,M,2.7,2107*49
$PMSBATV,090224.70,2,2,-0.35939,0.54967,29.27498,-0.000,0.000,0.000,41.11267,0.000*46,,,
$GPGGA,090224.80,3542.296509298,N,13943.272243062,E,4,10,1.07,23.610,M,36.997,M,2.8,2107*47
$PMSBATV,090224.80,2,2,-0.35258,0.54911,29.27429,0.000,-0.000,0.000,41.11267,0.000*4E,,,
$GPGGA,090224.90,3542.296509374,N,13943.272242989,E,4,10,1.07,23.611,M,36.997,M,2.9,2107*48
$PMSBATV,090224.90,2,2,-0.35692,0.55466,29.27521,-0.000,0.000,0.000,41.11267,0.000*48,,,
$GPGGA,090225.00,3542.296509122,N,13943.272243081,E,4,10,1.07,23.611,M,36.997,M,3.0,2107*49
$PMSBATV,090225.00,2,2,-0.36292,0.55387,29.27402,-0.000,-0.000,0.000,41.11267,0.000*62,,,
$GPGGA,090225.10,3542.296509148,N,13943.272243080,E,4,10,1.07,23.611,M,36.997,M,3.1,2107*44
$PMSBATV,090225.10,2,2,-0.36405,0.55500,29.27096,0.000,0.000,0.000,41.11267,0.000*6B,,,
$GPGGA,090225.20,3542.296509141,N,13943.272243270,E,4,10,1.07,23.611,M,36.997,M,3.2,2107*40
$PMSBATV,090225.20,2,2,-0.36351,0.55571,29.27024,-0.000,0.000,0.000,41.11267,0.000*4C,,,
$GPGGA,090225.30,3542.296509165,N,13943.272243364,E,4,10,1.07,23.611,M,36.997,M,3.3,2107*42
$PMSBATV,090225.30,2,2,-0.37176,0.55364,29.27043,-0.000,0.000,0.000,41.11267,0.000*48,,,
$GPGGA,090225.40,3542.296509176,N,13943.272243528,E,4,10,1.07,23.612,M,36.997,M,3.4,2107*4D
$PMSBATV,090225.40,2,2,-0.37516,0.55081,29.27328,0.000,0.000,0.000,41.11267,0.000*66,,,
$GPGGA,090225.50,3542.296509055,N,13943.272243589,E,4,10,1.07,23.612,M,36.997,M,3.5,2107*46
$PMSBATV,090225.50,2,2,-0.37231,0.54662,29.27285,0.000,-0.000,0.000,41.11267,0.000*44,,,
$GPGGA,090225.60,3542.296509060,N,13943.272243784,E,4,10,1.07,23.612,M,36.997,M,3.6,2107*4F
$PMSBATV,090225.60,2,2,-0.37383,0.55151,29.27375,0.000,0.000,0.000,41.11267,0.000*6A,,,
$GPGGA,090225.70,3542.296509308,N,13943.272243977,E,4,10,1.07,23.612,M,36.997,M,3.7,2107*40
$PMSBATV,090225.70,2,2,-0.37489,0.54948,29.27307,-0.000,0.000,-0.000,41.11267,0.000*62,,,
$GPGGA,090225.80,3542.296509240,N,13943.272244017,E,4,10,1.07,23.613,M,36.997,M,3.8,2107*44
$PMSBATV,090225.80,2,2,-0.37605,0.55040,29.27138,0.000,0.000,0.000,41.11267,0.000*65,,,
$GPGGA,090225.90,3542.296509175,N,13943.272244215,E,4,09,1.13,23.613,M,36.997,M,3.9,2107*4C
$PMSBATV,090225.90,2,2,-0.37952,0.54670,29.27260,-0.000,0.000,0.000,41.11267,0.000*4E,,,
$GPGGA,090226.00,3542.296509124,N,13943.272244319,E,4,09,1.13,23.613,M,36.997,M,4.0,2107*41
$PMSBATV,090226.00,2,2,-0.38022,0.54243,29.27177,-0.000,-0.000,0.000,41.11267,0.000*69,,,
$GPGGA,090226.10,3542.296509174,N,13943.272244428,E,4,09,1.13,23.613,M,36.997,M,4.1,2107*41
$PMSBATV,090226.10,2,2,-0.37413,0.54171,29.27211,0.000,0.000,0.000,41.11267,0.000*60,,,
$GPGGA,090226.20,3542.296509105,N,13943.272244533,E,4,09,1.13,23.614,M,36.997,M,4.2,2107*4B
$PMSBATV,090226.20,2,2,-0.36119,0.53942,29.26961,0.000,0.000,0.000,41.11267,0.000*6F,,,
$GPGGA,090226.30,3542.296509180,N,13943.272244800,E,4,09,1.13,23.614,M,36.997,M,4.3,2107*4B
$PMSBATV,090226.30,2,2,-0.36225,0.54223,29.27284,0.000,0.000,0.000,41.11267,0.000*68,,,
$GPGGA,090226.40,3542.296509243,N,13943.272244974,E,4,09,1.13,23.614,M,36.997,M,4.4,2107*45
$PMSBATV,090226.40,2,2,-0.36095,0.54870,29.27210,0.000,0.000,0.000,41.11267,0.000*67,,,
$GPGGA,090226.50,3542.296509287,N,13943.272245116,E,4,09,1.13,23.614,M,36.997,M,4.5,2107*40
$PMSBATV,090226.50,2,2,-0.34995,0.54761,29.27278,0.000,-0.000,-0.000,41.11267,0.000*6C,,,
$GPGGA,090226.60,3542.296509442,N,13943.272245336,E,4,09,1.13,23.615,M,36.997,M,4.6,2107*4E
$PMSBATV,090226.60,2,2,-0.34950,0.55050,29.27316,-0.000,-0.000,-0.000,41.11267,0.000*46,,,
$GPGGA,090226.70,3542.296509492,N,13943.272245564,E,4,09,1.13,23.615,M,36.997,M,4.7,2107*42
$PMSBATV,090226.70,2,2,-0.35220,0.54831,29.27286,0.000,-0.000,-0.000,41.11267,0.000*61,,,
$GPGGA,090226.80,3542.296509560,N,13943.272243292,E,4,09,1.13,23.621,M,36.997,M,4.8,2107*41
$PMSBATV,090226.80,2,2,-0.34415,0.55104,29.27156,0.000,-0.000,0.000,41.11267,0.000*42,,,
$GPGGA,090226.90,3542.296509387,N,13943.272241947,E,4,09,1.13,23.624,M,36.997,M,4.9,2107*4A
$PMSBATV,090226.90,2,2,-0.34233,0.55005,29.27449,0.000,0.000,-0.000,41.11267,0.000*4A,,,
$GPGGA,090227.00,3542.296509344,N,13943.272240997,E,4,09,1.13,23.626,M,36.997,M,5.0,2107*4B
$PMSBATV,090227.00,2,2,-0.34812,0.54722,29.27405,-0.000,0.000,0.000,41.11267,0.000*40,,,
$GPGGA,090227.10,3542.296509260,N,13943.272240201,E,4,09,1.13,23.628,M,36.997,M,5.1,2107*46
$PMSBATV,090227.10,2,2,-0.34630,0.54947,29.27470,-0.000,0.000,0.000,41.11267,0.000*40,,,
$GPGGA,090227.20,3542.296509181,N,13943.272239516,E,4,09,1.13,23.630,M,36.997,M,5.2,2107*4C
$PMSBATV,090227.20,2,2,-0.35087,0.54526,29.27541,0.000,-0.000,-0.000,41.11267,0.000*6D,,,
$GPGGA,090227.30,3542.296509201,N,13943.272239104,E,4,09,1.13,23.631,M,36.997,M,5.3,2107*41
$PMSBATV,090227.30,2,2,-0.35411,0.54905,29.27488,0.000,-0.000,0.000,41.11267,0.000*43,,,
$GPGGA,090227.40,3542.296509179,N,13943.272238676,E,4,09,1.13,23.632,M,36.997,M,5.4,2107*4D
$PMSBATV,090227.40,2,2,-0.34633,0.54470,29.27698,0.000,-0.000,0.000,41.11267,0.000*4B,,,
$GPGGA,090227.50,3542.296509304,N,13943.272238578,E,4,09,1.13,23.633,M,36.997,M,5.5,2107*49
$PMSBATV,090227.50,2,2,-0.34311,0.54512,29.27687,0.000,-0.000,0.000,41.11267,0.000*44,,,
$GPGGA,090227.60,3542.296509502,N,13943.272238406,E,4,09,1.13,23.634,M,36.997,M,5.6,2107*46
$PMSBATV,090227.60,2,2,-0.33785,0.53879,29.27842,-0.000,-0.000,0.000,41.11267,0.000*64,,,
$GPGGA,090227.70,3542.296509228,N,13943.272238145,E,4,09,1.13,23.634,M,36.997,M,5.7,2107*4B
$PMSBATV,090227.70,2,2,-0.33876,0.53768,29.27935,0.000,0.000,0.000,41.11267,0.000*68,,,
$GPGGA,090227.80,3542.296509336,N,13943.272238048,E,4,09,1.13,23.635,M,36.997,M,5.8,2107*48
$PMSBATV,090227.80,2,2,-0.33666,0.53764,29.27780,-0.000,-0.000,0.000,41.11267,0.000*64,,,
$GPGGA,090227.90,3542.296509240,N,13943.272237885,E,4,09,1.13,23.636,M,36.997,M,5.9,2107*4D
$PMSBATV,090227.90,2,2,-0.33791,0.53637,29.27754,-0.000,-0.000,0.000,41.11267,0.000*62,,,
$GPGGA,090228.00,3542.296509318,N,13943.272238095,E,4,09,1.13,23.636,M,36.997,M,6.0,2107*4B
$PMSBATV,090228.00,2,2,-0.34099,0.54093,29.27776,-0.000,-0.000,0.000,41.11267,0.000*63,,,
$GPGGA,090228.10,3542.296509298,N,13943.272238166,E,4,09,1.13,23.637,M,36.997,M,1.1,2107*49
$PMSBATV,090228.10,2,2,-0.34272,0.54058,29.27598,0.000,-0.000,0.000,41.11267,0.000*4D,,,
$GPGGA,090228.20,3542.296509280,N,13943.272238315,E,4,09,1.13,23.637,M,36.997,M,1.2,2107*46
$PMSBATV,090228.20,2,2,-0.34806,0.53966,29.27470,0.000,0.000,0.000,41.11267,0.000*6E,,,
$GPGGA,090228.30,3542.296509409,N,13943.272238335,E,4,09,1.13,23.637,M,36.997,M,1.3,2107*43
$PMSBATV,090228.30,2,2,-0.34571,0.53488,29.27329,-0.000,0.000,0.000,41.11267,0.000*49,,,
$GPGGA,090228.40,3542.296509392,N,13943.272238411,E,4,09,1.13,23.638,M,36.997,M,1.4,2107*48
$PMSBATV,090228.40,2,2,-0.34724,0.53796,29.27485,0.000,0.000,0.000,41.11267,0.000*6C,,,
$GPGGA,090228.50,3542.296509388,N,13943.272238724,E,4,09,1.13,23.638,M,36.997,M,1.5,2107*46
$PMSBATV,090228.50,2,2,-0.34821,0.53546,29.27316,-0.000,-0.000,-0.000,41.11267,0.000*48,,,
$GPGGA,090228.60,3542.296509278,N,13943.272238761,E,4,09,1.13,23.638,M,36.997,M,1.6,2107*49
$PMSBATV,090228.60,2,2,-0.35440,0.53361,29.27224,-0.000,-0.000,-0.000,41.11267,0.000*42,,,
$GPGGA,090228.70,3542.296508936,N,13943.272238417,E,4,09,1.13,23.638,M,36.997,M,1.7,2107*4B
$PMSBATV,090228.70,2,2,-0.34821,0.53581,29.27209,-0.000,0.000,0.000,41.11267,0.000*4E,,,
$GPGGA,090228.80,3542.296508790,N,13943.272238301,E,4,09,1.13,23.639,M,36.997,M,1.8,2107*48
$PMSBATV,090228.80,2,2,-0.33608,0.53382,29.27187,-0.000,-0.000,0.000,41.11267,0.000*6E,,,
$GPGGA,090228.90,3542.296508679,N,13943.272238123,E,4,09,1.13,23.640,M,36.997,M,1.9,2107*42
$PMSBATV,090228.90,2,2,-0.33961,0.53471,29.27169,0.000,0.000,-0.000,41.11267,0.000*49,,,
$GPGGA,090229.00,3542.296508901,N,13943.272238441,E,4,09,1.13,23.640,M,36.997,M,2.0,2107*41
$PMSBATV,090229.00,2,2,-0.34396,0.53189,29.27294,-0.000,0.000,0.000,41.11267,0.000*47,,,
$GPGGA,090229.10,3542.296508749,N,13943.272238267,E,4,09,1.13,23.640,M,36.997,M,2.1,2107*41
$PMSBATV,090229.10,2,2,-0.33714,0.53533,29.27151,0.000,-0.000,0.000,41.11267,0.000*40,,,
$GPGGA,090229.20,3542.296508668,N,13943.272238626,E,4,09,1.13,23.641,M,36.997,M,2.2,2107*43
$PMSBATV,090229.20,2,2,-0.33535,0.53646,29.26988,0.000,0.000,0.000,41.11267,0.000*63,,,
$GPGGA,090229.30,3542.296508790,N,13943.272238818,E,4,09,1.13,23.641,M,36.997,M,2.3,2107*46
$PMSBATV,090229.30,2,2,-0.34142,0.53536,29.26831,-0.000,0.000,0.000,41.11267,0.000*4B,,,
$GPGGA,090229.40,3542.296508647,N,13943.272239035,E,4,09,1.13,23.641,M,36.997,M,2.4,2107*4B
$PMSBATV,090229.40,2,2,-0.34552,0.53471,29.26862,-0.000,0.000,0.000,41.11267,0.000*4D,,,
$GPGGA,090229.50,3542.296508383,N,13943.272238708,E,4,09,1.13,23.641,M,36.997,M,2.5,2107*4E
$PMSBATV,090229.50,2,2,-0.34174,0.53195,29.26942,-0.000,-0.000,0.000,41.11267,0.000*6D,,,
$GPGGA,090229.60,3542.296508187,N,13943.272238530,E,4,09,1.13,23.642,M,36.997,M,2.6,2107*42
$PMSBATV,090229.60,2,2,-0.34197,0.52994,29.26706,-0.000,0.000,0.000,41.11267,0.000*48,,,
$GPGGA,090229.70,3542.296508243,N,13943.272238622,E,4,09,1.13,23.642,M,36.997,M,2.7,2107*49
$PMSBATV,090229.70,2,2,-0.34393,0.53276,29.26641,0.000,-0.000,0.000,41.11267,0.000*4B,,,
$GPGGA,090229.80,3542.296508119,N,13943.272238534,E,4,09,1.13,23.642,M,36.997,M,2.8,2107*41
$PMSBATV,090229.80,2,2,-0.34483,0.52811,29.26483,-0.000,-0.000,0.000,41.11267,0.000*69,,,
$GPGGA,090229.90,3542.296508039,N,13943.272238725,E,4,09,1.13,23.643,M,36.997,M,2.9,2107*41
$PMSBATV,090229.90,2,2,-0.34288,0.52785,29.26660,0.000,0.000,0.000,41.11267,0.000*68,,,
$GPGGA,090230.00,3542.296507815,N,13943.272238760,E,4,09,1.13,23.643,M,36.997,M,3.0,2107*40
$PMSBATV,090230.00,2,2,-0.34668,0.53053,29.26768,-0.000,0.000,0.000,41.11267,0.000*4A,,,
$GPGGA,090230.10,3542.296507654,N,13943.272238573,E,4,09,1.13,23.643,M,36.997,M,3.1,2107*4B
$PMSBATV,090230.10,2,2,-0.34469,0.52892,29.26658,0.000,-0.000,0.000,41.11267,0.000*4E,,,
$GPGGA,090230.20,3542.296507893,N,13943.272238563,E,4,09,1.13,23.643,M,36.997,M,3.2,2107*4F
$PMSBATV,090230.20,2,2,-0.34802,0.52648,29.26895,0.000,0.000,0.000,41.11267,0.000*67,,,
$GPGGA,090230.30,3542.296507748,N,13943.272238371,E,4,09,1.13,23.643,M,36.997,M,3.3,2107*43
$PMSBATV,090230.30,2,2,-0.34873,0.53194,29.26911,0.000,0.000,0.000,41.11267,0.000*6A,,,
$GPGGA,090230.40,3542.296507680,N,13943.272238286,E,4,09,1.13,23.642,M,36.997,M,3.4,2107*4E
$PMSBATV,090230.40,2,2,-0.34803,0.53167,29.26688,-0.000,0.000,0.000,41.11267,0.000*44,,,
$GPGGA,090230.50,3542.296507642,N,13943.272238298,E,4,09,1.13,23.642,M,36.997,M,3.5,2107*4F
$PMSBATV,090230.50,2,2,-0.34659,0.53177,29.26666,0.000,-0.000,0.000,41.11267,0.000*45,,,
$GPGGA,090230.60,3542.296507714,N,13943.272238272,E,4,09,1.13,23.642,M,36.997,M,3.6,2107*49
$PMSBATV,090230.60,2,2,-0.34771,0.53546,29.26548,0.000,-0.000,-0.000,41.11267,0.000*69,,,
$GPGGA,090230.70,3542.296507625,N,13943.272238099,E,4,09,1.13,23.641,M,36.997,M,3.7,2107*4E
$PMSBATV,090230.70,2,2,-0.34081,0.53349,29.26416,-0.000,-0.000,0.000,41.11267,0.000*63,,,
$GPGGA,090230.80,3542.296507587,N,13943.272238115,E,4,09,1.13,23.641,M,36.997,M,3.8,2107*40
$PMSBATV,090230.80,2,2,-0.33911,0.53542,29.26288,0.000,0.000,0.000,41.11267,0.000*67,,,
$GPGGA,090230.90,3542.296507733,N,13943.272238193,E,4,09,1.13,23.641,M,36.997,M,3.9,2107*43
$PMSBATV,090230.90,2,2,-0.33874,0.53448,29.26123,0.000,0.000,0.000,41.11267,0.000*6D,,,
$GPGGA,090231.00,3542.296507746,N,13943.272238423,E,4,09,1.13,23.640,M,36.997,M,4.0,2107*48
$PMSBATV,090231.00,2,2,-0.33598,0.53584,29.26585,0.000,-0.000,0.000,41.11267,0.000*4E,,,
$GPGGA,090231.10,3542.296507707,N,13943.272238500,E,4,09,1.13,23.640,M,36.997,M,4.1,2107*4D
$PMSBATV,090231.10,2,2,-0.33990,0.53873,29.26618,0.000,-0.000,0.000,41.11267,0.000*49,,,
$GPGGA,090231.20,3542.296507749,N,13943.272238607,E,4,09,1.13,23.640,M,36.997,M,4.2,2107*43
$PMSBATV,090231.20,2,2,-0.34159,0.54435,29.26778,0.000,0.000,-0.000,41.11267,0.000*4E,,,
$GPGGA,090231.30,3542.296507560,N,13943.272238727,E,4,09,1.13,23.640,M,36.997,M,4.3,2107*49
$PMSBATV,090231.30,2,2,-0.33645,0.54579,29.26738,0.000,0.000,0.000,41.11267,0.000*62,,,
$GPGGA,090231.40,3542.296507604,N,13943.272238884,E,4,09,1.13,23.640,M,36.997,M,4.4,2107*4E
$PMSBATV,090231.40,2,2,-0.33689,0.54875,29.26713,-0.000,-0.000,0.000,41.11267,0.000*6D,,,
$GPGGA,090231.50,3542.296507458,N,13943.272238904,E,4,09,1.13,23.640,M,36.997,M,4.5,2107*4C
$PMSBATV,090231.50,2,2,-0.33396,0.55499,29.26816,-0.000,0.000,0.000,41.11267,0.000*4F,,,
$GPGGA,090231.60,3542.296507202,N,13943.272238874,E,4,09,1.13,23.640,M,36.997,M,4.6,2107*43
$PMSBATV,090231.60,2,2,-0.33363,0.55698,29.26650,-0.000,0.000,0.000,41.11267,0.000*49,,,
$GPGGA,090231.70,3542.296507171,N,13943.272238938,E,4,09,1.13,23.640,M,36.997,M,4.7,2107*4D
$PMSBATV,090231.70,2,2,-0.33741,0.55124,29.26667,0.000,-0.000,0.000,41.11267,0.000*48,,,
$GPGGA,090231.80,3542.296507266,N,13943.272239209,E,4,09,1.13,23.640,M,36.997,M,4.8,2107*40
$PMSBATV,090231.80,2,2,-0.33255,0.54857,29.26526,0.000,-0.000,0.000,41.11267,0.000*4D,,,
$GPGGA,090231.90,3542.296507203,N,13943.272239280,E,4,09,1.13,23.640,M,36.997,M,4.9,2107*42
$PMSBATV,090231.90,2,2,-0.33330,0.54763,29.26470,0.000,-0.000,0.000,41.11267,0.000*44,,,
$GPGGA,090232.00,3542.296507116,N,13943.272239262,E,4,09,1.13,23.640,M,36.997,M,5.0,2107*4B
$PMSBATV,090232.00,2,2,-0.33350,0.54529,29.26446,-0.000,-0.000,0.000,41.11267,0.000*6C,,,
$GPGGA,090232.10,3542.296507067,N,13943.272239396,E,4,09,1.13,23.640,M,36.997,M,5.1,2107*46
$PMSBATV,090232.10,2,2,-0.33550,0.54310,29.26519,-0.000,0.000,0.000,41.11267,0.000*41,,,
$GPGGA,090232.20,3542.296507074,N,13943.272239334,E,4,09,1.13,23.640,M,36.997,M,5.2,2107*4C
$PMSBATV,090232.20,2,2,-0.34245,0.53991,29.26474,0.000,0.000,0.000,41.11267,0.000*65,,,
$GPGGA,090232.30,3542.296507054,N,13943.272239672,E,4,09,1.13,23.640,M,36.997,M,5.3,2107*49
$PMSBATV,090232.30,2,2,-0.34372,0.53775,29.26306,-0.000,-0.000,-0.000,41.11267,0.000*4A,,,
$GPGGA,090232.40,3542.296506767,N,13943.272239622,E,4,09,1.13,23.640,M,36.997,M,5.4,2107*4A
$PMSBATV,090232.40,2,2,-0.34369,0.54124,29.26385,0.000,-0.000,-0.000,41.11267,0.000*64,,,
$GPGGA,090232.50,3542.296506675,N,13943.272239541,E,4,09,1.13,23.640,M,36.997,M,5.5,2107*4E
$PMSBATV,090232.50,2,2,-0.34792,0.54133,29.26516,-0.000,-0.000,0.000,41.11267,0.000*6F,,,
$GPGGA,090232.60,3542.296506501,N,13943.272239446,E,4,09,1.13,23.640,M,36.997,M,5.6,2107*48
$PMSBATV,090232.60,2,2,-0.35180,0.53752,29.26587,-0.000,-0.000,0.000,41.11267,0.000*66,,,
$GPGGA,090232.70,3542.296506314,N,13943.272239201,E,4,09,1.13,23.640,M,36.997,M,5.7,2107*4F
$PMSBATV,090232.70,2,2,-0.35270,0.53677,29.26491,0.000,-0.000,0.000,41.11267,0.000*46,,,
$GPGGA,090232.80,3542.296506055,N,13943.272239053,E,4,09,1.13,23.640,M,36.997,M,5.8,2107*4C
$PMSBATV,090232.80,2,2,-0.35551,0.53508,29.26580,-0.000,-0.000,0.000,41.11267,0.000*6A,,,
$GPGGA,090232.90,3542.296505906,N,13943.272238960,E,4,09,1.13,23.640,M,36.997,M,5.9,2107*48
$PMSBATV,090232.90,2,2,-0.35416,0.53659,29.26554,-0.000,-0.000,0.000,41.11267,0.000*67,,,
$GPGGA,090233.00,3542.296505643,N,13943.272238805,E,4,09,1.13,23.640,M,36.997,M,6.0,2107*46
$PMSBATV,090233.00,2,2,-0.35728,0.53676,29.26542,-0.000,0.000,0.000,41.11267,0.000*46,,,
$GPGGA,090233.10,3542.296505557,N,13943.272238767,E,4,09,1.13,23.640,M,36.997,M,1.1,2107*4C
$PMSBATV,090233.10,2,2,-0.35684,0.54101,29.26576,0.000,0.000,0.000,41.11267,0.000*6A,,,
$GPGGA,090233.20,3542.296505496,N,13943.272238867,E,4,09,1.13,23.640,M,36.997,M,1.2,2107*4F
$PMSBATV,090233.20,2,2,-0.36025,0.53885,29.26544,-0.000,0.000,-0.000,41.11267,0.000*64,,,
$GPGGA,090233.30,3542.296505184,N,13943.272238692,E,4,09,1.13,23.640,M,36.997,M,1.3,2107*4D
$PMSBATV,090233.30,2,2,-0.35557,0.54091,29.26348,-0.000,0.000,-0.000,41.11267,0.000*66,,,
$GPGGA,090233.40,3542.296505171,N,13943.272238663,E,4,09,1.13,23.640,M,36.997,M,1.4,2107*49
$PMSBATV,090233.40,2,2,-0.36044,0.53712,29.26236,-0.000,-0.000,0.000,41.11267,0.000*66,,,
$GPGGA,090233.50,3542.296504939,N,13943.272238604,E,4,09,1.13,23.640,M,36.997,M,1.5,2107*4D
$PMSBATV,090233.50,2,2,-0.36181,0.54142,29.26202,0.000,0.000,0.000,41.11267,0.000*6C,,,
$GPGGA,090233.60,3542.296504857,N,13943.272238634,E,4,09,1.13,23.640,M,36.997,M,1.6,2107*47
$PMSBATV,090233.60,2,2,-0.35474,0.54354,29.26260,-0.000,-0.000,0.000,41.11267,0.000*62,,,
$GPGGA,090233.70,3542.296504705,N,13943.272238306,E,4,09,1.13,23.640,M,36.997,M,1.7,2107*4B
$PMSBATV,090233.70,2,2,-0.35572,0.53654,29.26431,-0.000,-0.000,0.000,41.11267,0.000*64,,,
$GPGGA,090233.80,3542.296504621,N,13943.272238359,E,4,09,1.13,23.640,M,36.997,M,1.8,2107*46
$PMSBATV,090233.80,2,2,-0.35581,0.53619,29.26494,-0.000,0.000,-0.000,41.11267,0.000*61,,,
$GPGGA,090233.90,3542.296504525,N,13943.272238130,E,4,09,1.13,23.640,M,36.997,M,1.9,2107*4C
$PMSBATV,090233.90,2,2,-0.35131,0.53609,29.26705,-0.000,-0.000,0.000,41.11267,0.000*65,,,
$GPGGA,090234.00,3542.296504358,N,13943.272238114,E,4,09,1.13,23.640,M,36.997,M,2.0,2107*42
$PMSBATV,090234.00,2,2,-0.35597,0.53453,29.26833,0.000,-0.000,0.000,41.11267,0.000*49,,,
$GPGGA,090234.10,3542.296504341,N,13943.272238003,E,4,09,1.13,23.640,M,36.997,M,2.1,2107*4D
$PMSBATV,090234.10,2,2,-0.35971,0.53248,29.26960,0.000,-0.000,0.000,41.11267,0.000*47,,,
$GPGGA,090234.20,3542.296504125,N,13943.272237869,E,4,09,1.13,23.640,M,36.997,M,2.2,2107*46
$PMSBATV,090234.20,2,2,-0.35877,0.53638,29.26704,-0.000,0.000,0.000,41.11267,0.000*4C,,,
$GPGGA,090234.30,3542.296503680,N,13943.272237761,E,4,09,1.13,23.640,M,36.997,M,2.3,2107*4E
$PMSBATV,090234.30,2,2,-0.36531,0.53463,29.26644,-0.000,0.000,0.000,41.11267,0.000*48,,,
$GPGGA,090234.40,3542.296503591,N,13943.272237656,E,4,09,1.13,23.640,M,36.997,M,2.4,2107*48
$PMSBATV,090234.40,2,2,-0.36089,0.53835,29.26666,-0.000,-0.000,0.000,41.11267,0.000*6B,,,
$GPGGA,090234.50,3542.296503320,N,13943.272237538,E,4,09,1.13,23.640,M,36.997,M,2.5,2107*4F
$PMSBATV,090234.50,2,2,-0.36070,0.53517,29.26698,-0.000,0.000,0.000,41.11267,0.000*4D,,,
$GPGGA,090234.60,3542.296503083,N,13943.272237544,E,4,09,1.13,23.641,M,36.997,M,2.6,2107*4F
$PMSBATV,090234.60,2,2,-0.35592,0.53319,29.26679,-0.000,0.000,-0.000,41.11267,0.000*6E,,,
$GPGGA,090234.70,3542.296503132,N,13943.272237561,E,4,09,1.13,23.641,M,36.997,M,2.7,2107*43
$PMSBATV,090234.70,2,2,-0.35650,0.52818,29.26521,-0.000,-0.000,0.000,41.11267,0.000*67,,,
$GPGGA,090234.80,3542.296503119,N,13943.272237622,E,4,09,1.13,23.641,M,36.997,M,2.8,2107*4E
$PMSBATV,090234.80,2,2,-0.36103,0.53215,29.26578,-0.000,-0.000,0.000,41.11267,0.000*60,,,
$GPGGA,090234.90,3542.296502968,N,13943.272237692,E,4,09,1.13,23.641,M,36.997,M,2.9,2107*4A
$PMSBATV,090234.90,2,2,-0.35802,0.52854,29.26526,-0.000,-0.000,0.000,41.11267,0.000*6F,,,
$GPGGA,090235.00,3542.296502909,N,13943.272237604,E,4,09,1.13,23.641,M,36.997,M,3.0,2107*42
$PMSBATV,090235.00,2,2,-0.35608,0.52924,29.26537,0.000,-0.000,-0.000,41.11267,0.000*65,,,
$GPGGA,090235.10,3542.296502817,N,13943.272237624,E,4,09,1.13,23.641,M,36.997,M,3.1,2107*4E
$PMSBATV,090235.10,2,2,-0.35364,0.53055,29.26512,-0.000,-0.000,0.000,41.11267,0.000*62,,,
$GPGGA,090235.20,3542.296502544,N,13943.272237594,E,4,09,1.13,23.641,M,36.997,M,3.2,2107*4D
$PMSBATV,090235.20,2,2,-0.35728,0.53511,29.26784,-0.000,0.000,0.000,41.11267,0.000*48,,,
$GPGGA,090235.30,3542.296502392,N,13943.272237574,E,4,09,1.13,23.641,M,36.997,M,3.3,2107*4E
$PMSBATV,090235.30,2,2,-0.36584,0.53353,29.26697,-0.000,-0.000,0.000,41.11267,0.000*60,,,
$GPGGA,090235.40,3542.296502417,N,13943.272237798,E,4,09,1.13,23.641,M,36.997,M,3.4,2107*44
$PMSBATV,090235.40,2,2,-0.36619,0.53209,29.26689,0.000,-0.000,0.000,41.11267,0.000*4C,,,
$GPGGA,090235.50,3542.296502368,N,13943.272237701,E,4,09,1.13,23.641,M,36.997,M,3.5,2107*4B
$PMSBATV,090235.50,2,2,-0.36462,0.53192,29.26639,0.000,0.000,0.000,41.11267,0.000*64,,,
$GPGGA,090235.60,3542.296502189,N,13943.272237763,E,4,09,1.13,23.641,M,36.997,M,3.6,2107*42
$PMSBATV,090235.60,2,2,-0.35756,0.52976,29.26796,-0.000,0.000,0.000,41.11267,0.000*4A,,,
$GPGGA,090235.70,3542.296501892,N,13943.272237819,E,4,09,1.13,23.641,M,36.997,M,3.7,2107*40
$PMSBATV,090235.70,2,2,-0.35542,0.52989,29.26525,-0.000,0.000,0.000,41.11267,0.000*46,,,
$GPGGA,090235.80,3542.296501663,N,13943.272237815,E,4,09,1.13,23.641,M,36.997,M,3.8,2107*4C
$PMSBATV,090235.80,2,2,-0.36602,0.53738,29.26566,-0.000,0.000,-0.000,41.11267,0.000*62,,,
$GPGGA,090235.90,3542.296501580,N,13943.272237810,E,4,09,1.13,23.641,M,36.997,M,3.9,2107*47
$PMSBATV,090235.90,2,2,-0.36804,0.53687,29.26554,0.000,-0.000,0.000,41.11267,0.000*42,,,
$GPGGA,090236.00,3542.296501545,N,13943.272237959,E,4,09,1.13,23.641,M,36.997,M,4.0,2107*46
$PMSBATV,090236.00,2,2,-0.36169,0.54027,29.26715,0.000,-0.000,0.000,41.11267,0.000*46,,,
$GPGGA,090236.10,3542.296501445,N,13943.272237955,E,4,09,1.13,23.641,M,36.997,M,4.1,2107*4B
$PMSBATV,090236.10,2,2,-0.35717,0.54212,29.26694,-0.000,-0.000,0.000,41.11267,0.000*6A,,,
$GPGGA,090236.20,3542.296501140,N,13943.272237933,E,4,09,1.13,23.641,M,36.997,M,4.2,2107*4B
$PMSBATV,090236.20,2,2,-0.35141,0.53758,29.26559,-0.000,-0.000,0.000,41.11267,0.000*62,,,
$GPGGA,090236.30,3542.296501127,N,13943.272238122,E,4,09,1.13,23.642,M,36.997,M,4.3,2107*4E
$PMSBATV,090236.30,2,2,-0.34816,0.53845,29.26820,-0.000,0.000,-0.000,41.11267,0.000*69,,,
$GPGGA,090236.40,3542.296501016,N,13943.272238183,E,4,09,1.13,23.642,M,36.997,M,4.4,2107*46
$PMSBATV,090236.40,2,2,-0.35655,0.54198,29.26897,-0.000,0.000,0.000,41.11267,0.000*49,,,
$GPGGA,090236.50,3542.296500905,N,13943.272238232,E,4,09,1.13,23.642,M,36.997,M,4.5,2107*45
$PMSBATV,090236.50,2,2,-0.34890,0.53932,29.26664,-0.000,-0.000,0.000,41.11267,0.000*6E,,,
$GPGGA,090236.60,3542.296500589,N,13943.272238192,E,4,09,1.13,23.642,M,36.997,M,4.6,2107*44
$PMSBATV,090236.60,2,2,-0.35030,0.53820,29.26624,-0.000,0.000,0.000,41.11267,0.000*45,,,
$GPGGA,090236.70,3542.296500534,N,13943.272238328,E,4,09,1.13,23.642,M,36.997,M,4.7,2107*41
$PMSBATV,090236.70,2,2,-0.35128,0.53698,29.26667,0.000,-0.000,0.000,41.11267,0.000*46,,,
$GPGGA,090236.80,3542.296500650,N,13943.272238445,E,4,09,1.13,23.642,M,36.997,M,4.8,2107*4C
$PMSBATV,090236.80,2,2,-0.36006,0.53590,29.26922,-0.000,0.000,0.000,41.11267,0.000*42,,,
$GPGGA,090236.90,3542.296500355,N,13943.272238479,E,4,09,1.13,23.642,M,36.997,M,4.9,2107*43
$PMSBATV,090236.90,2,2,-0.35819,0.53269,29.26899,-0.000,-0.000,0.000,41.11267,0.000*6B,,,
$GPGGA,090237.00,3542.296500438,N,13943.272238615,E,4,09,1.13,23.642,M,36.997,M,5.0,2107*47
$PMSBATV,090237.00,2,2,-0.35458,0.53717,29.26833,0.000,-0.000,0.000,41.11267,0.000*4B,,,
$GPGGA,090237.10,3542.296500268,N,13943.272238579,E,4,09,1.13,23.643,M,36.997,M,5.1,2107*4C
$PMSBATV,090237.10,2,2,-0.35703,0.53943,29.26937,0.000,0.000,0.000,41.11267,0.000*60,,,
$GPGGA,090237.20,3542.296500199,N,13943.272238626,E,4,09,1.13,23.643,M,36.997,M,5.2,2107*48
$PMSBATV,090237.20,2,2,-0.35208,0.54141,29.26736,-0.000,-0.000,0.000,41.11267,0.000*6F,,,
$GPGGA,090237.30,3542.296499992,N,13943.272238619,E,4,09,1.13,23.643,M,36.997,M,5.3,2107*46
$PMSBATV,090237.30,2,2,-0.35391,0.54136,29.26692,-0.000,-0.000,0.000,41.11267,0.000*60,,,
$GPGGA,090237.40,3542.296499961,N,13943.272238675,E,4,09,1.13,23.643,M,36.997,M,5.4,2107*40
$PMSBATV,090237.40,2,2,-0.35785,0.53880,29.26807,0.000,0.000,0.000,41.11267,0.000*67,,,
$GPGGA,090237.50,3542.296499808,N,13943.272238734,E,4,09,1.13,23.643,M,36.997,M,5.5,2107*4A
$PMSBATV,090237.50,2,2,-0.35131,0.53891,29.26702,-0.000,-0.000,0.000,41.11267,0.000*65,,,
$GPGGA,090237.60,3542.296499830,N,13943.272238956,E,4,09,1.13,23.643,M,36.997,M,5.6,2107*4B
$PMSBATV,090237.60,2,2,-0.34944,0.53584,29.26570,-0.000,-0.000,-0.000,41.11267,0.000*4E,,,
$GPGGA,090237.70,3542.296499686,N,13943.272239099,E,4,09,1.13,23.643,M,36.997,M,5.7,2107*43
$PMSBATV,090237.70,2,2,-0.35539,0.53867,29.26780,-0.000,-0.000,0.000,41.11267,0.000*68,,,
$GPGGA,090237.80,3542.296499553,N,13943.272239083,E,4,09,1.13,23.643,M,36.997,M,5.8,2107*43
$PMSBATV,090237.80,2,2,-0.35879,0.53853,29.26626,0.000,-0.000,0.000,41.11267,0.000*49,,,
$GPGGA,090237.90,3542.296499499,N,13943.272239109,E,4,09,1.13,23.644,M,36.997,M,5.9,2107*40
$PMSBATV,090237.90,2,2,-0.35825,0.53986,29.26701,-0.000,-0.000,0.000,41.11267,0.000*61,,,
$GPGGA,090238.00,3542.296499222,N,13943.272239018,E,4,09,1.13,23.644,M,36.997,M,6.0,2107*4B
$PMSBATV,090238.00,2,2,-0.35865,0.53633,29.26521,0.000,-0.000,0.000,41.11267,0.000*4F,,,
$GPGGA,090238.10,3542.296499269,N,13943.272239232,E,4,09,1.13,23.644,M,36.997,M,1.1,2107*49
$PMSBATV,090238.10,2,2,-0.36210,0.54069,29.26451,0.000,-0.000,0.000,41.11267,0.000*4D,,,
$GPGGA,090238.20,3542.296499140,N,13943.272239197,E,4,09,1.13,23.644,M,36.997,M,1.2,2107*4D
$PMSBATV,090238.20,2,2,-0.35724,0.53743,29.26516,-0.000,0.000,0.000,41.11267,0.000*45,,,
$GPGGA,090238.30,3542.296499148,N,13943.272239160,E,4,09,1.13,23.644,M,36.997,M,1.3,2107*4D
$PMSBATV,090238.30,2,2,-0.35200,0.54172,29.26271,0.000,-0.000,0.000,41.11267,0.000*42,,,
$GPGGA,090238.40,3542.296499028,N,13943.272239182,E,4,09,1.13,23.644,M,36.997,M,1.4,2107*46
$PMSBATV,090238.40,2,2,-0.35361,0.54269,29.26105,0.000,-0.000,0.000,41.11267,0.000*4A,,,
$GPGGA,090238.50,3542.296499082,N,13943.272239386,E,4,09,1.13,23.644,M,36.997,M,1.5,2107*40
$PMSBATV,090238.50,2,2,-0.34715,0.54829,29.26281,0.000,-0.000,0.000,41.11267,0.000*4C,,,
$GPGGA,090238.60,3542.296498925,N,13943.272239329,E,4,09,1.13,23.644,M,36.997,M,1.6,2107*40
$PMSBATV,090238.60,2,2,-0.34595,0.54857,29.26427,-0.000,0.000,-0.000,41.11267,0.000*6B,,,
$GPGGA,090238.70,3542.296498770,N,13943.272239461,E,4,09,1.13,23.644,M,36.997,M,1.7,2107*45
$PMSBATV,090238.70,2,2,-0.35259,0.54491,29.26463,-0.000,0.000,0.000,41.11267,0.000*47,,,
$GPGGA,090238.80,3542.296498670,N,13943.272239586,E,4,09,1.13,23.644,M,36.997,M,1.8,2107*4C
