$GPGGA,073348.50,3542.276239073,N,13943.266219763,E,5,02,99.90,24.643,M,36.995,M,6.5,4107*7C
$GPGGA,073348.60,3542.276239074,N,13943.266219774,E,5,02,99.90,24.643,M,36.995,M,6.6,4107*7D
$GPGGA,073348.70,3542.276239075,N,13943.266219782,E,5,02,99.90,24.643,M,36.995,M,6.7,4107*75
$GPGGA,073348.80,3542.276239079,N,13943.266219788,E,5,02,99.90,24.643,M,36.995,M,6.8,4107*73
$GPGGA,073348.90,3542.276239080,N,13943.266219797,E,5,02,99.90,24.643,M,36.995,M,6.9,4107*7B
$GPGGA,073349.00,3542.276239084,N,13943.266219807,E,5,02,99.90,24.643,M,36.995,M,7.0,4107*79
$GPGGA,073349.10,3542.276239089,N,13943.266219815,E,5,02,99.90,24.643,M,36.995,M,2.1,4107*72
$GPGGA,073349.20,3542.276239093,N,13943.266219823,E,5,02,99.90,24.643,M,36.995,M,2.2,4107*7C
$GPGGA,073349.30,3542.276239093,N,13943.266219834,E,5,02,99.90,24.643,M,36.995,M,2.3,4107*7A
$GPGGA,073349.40,3542.276239094,N,13943.266219843,E,5,02,99.90,24.643,M,36.995,M,2.4,4107*7D
$GPGGA,073349.50,3542.276239093,N,13943.266219853,E,5,02,99.90,24.643,M,36.995,M,2.5,4107*7B
$GPGGA,073349.60,3542.276239093,N,13943.266219866,E,5,02,99.90,24.643,M,36.995,M,2.6,4107*7D
$GPGGA,073349.70,3542.276239093,N,13943.266219874,E,5,02,99.90,24.643,M,36.995,M,2.7,4107*7E
$GPGGA,073349.80,3542.276239093,N,13943.266219881,E,5,02,99.90,24.643,M,36.995,M,2.8,4107*74
$GPGGA,073349.90,3542.276239091,N,13943.266219889,E,5,02,99.90,24.643,M,36.995,M,2.9,4107*7E
$GPGGA,073350.00,3542.276239092,N,13943.266219896,E,5,02,99.90,24.643,M,36.995,M,3.0,4107*7A
$GPGGA,073350.10,3542.276239090,N,13943.266219905,E,5,02,99.90,24.643,M,36.995,M,3.1,4107*73
$GPGGA,073350.20,3542.276239090,N,13943.266219912,E,5,02,99.90,24.643,M,36.995,M,3.2,4107*75
$GPGGA,073350.30,3542.276239089,N,13943.266219921,E,5,02,99.90,24.643,M,36.995,M,3.3,4107*7D
$GPGGA,073350.40,3542.276239092,N,13943.266219928,E,5,02,99.90,24.643,M,36.995,M,3.4,4107*7E
$GPGGA,073350.50,3542.276239093,N,13943.266219936,E,5,02,99.90,24.643,M,36.995,M,3.5,4107*70
$GPGGA,073350.60,3542.276239096,N,13943.266219944,E,5,02,99.90,24.643,M,36.995,M,3.6,4107*70
$GPGGA,073350.70,3542.276239098,N,13943.266219955,E,5,02,99.90,24.643,M,36.995,M,3.7,4107*7E
$GPGGA,073350.80,3542.276239100,N,13943.266219963,E,5,02,99.90,24.643,M,36.995,M,3.8,4107*7B
$GPGGA,073350.90,3542.276239102,N,13943.266219973,E,5,02,99.90,24.643,M,36.995,M,3.9,4107*78
$GPGGA,073351.00,3542.276239104,N,13943.266219980,E,5,02,99.90,24.643,M,36.995,M,4.0,4107*74
$GPGGA,073351.10,3542.276239104,N,13943.266219989,E,5,02,99.90,24.643,M,36.995,M,4.1,4107*7D
$GPGGA,073351.20,3542.276239105,N,13943.266219997,E,5,02,99.90,24.643,M,36.995,M,4.2,4107*73
$GPGGA,073351.30,3542.276239104,N,13943.266220007,E,5,02,99.90,24.643,M,36.995,M,4.3,4107*78
$GPGGA,073351.40,3542.276239106,N,13943.266220011,E,5,02,99.90,24.643,M,36.995,M,4.4,4107*7D
$GPGGA,073351.50,3542.276239106,N,13943.266220017,E,5,02,99.90,24.643,M,36.995,M,4.5,4107*7B
$GPGGA,073351.60,3542.276239107,N,13943.266220022,E,5,02,99.90,24.643,M,36.995,M,4.6,4107*7C
$GPGGA,073351.70,3542.276239109,N,13943.266220028,E,5,02,99.90,24.643,M,36.995,M,4.7,4107*78
$GPGGA,073351.80,3542.276239110,N,13943.266220033,E,5,02,99.90,24.642,M,36.995,M,4.8,4107*7B
$GPGGA,073351.90,3542.276239110,N,13943.266220040,E,5,02,99.90,24.642,M,36.995,M,4.9,4107*7F
$GPGGA,073352.00,3542.276239113,N,13943.266220044,E,5,02,99.90,24.642,M,36.995,M,5.0,4107*7A
$GPGGA,073352.10,3542.276239116,N,13943.266220048,E,5,02,99.90,24.642,M,36.995,M,5.1,4107*73
$GPGGA,073352.20,3542.276239115,N,13943.266220055,E,5,02,99.90,24.642,M,36.995,M,5.2,4107*7C
$GPGGA,073352.30,3542.276239118,N,13943.266220060,E,5,02,99.90,24.642,M,36.995,M,5.3,4107*77
$GPGGA,073352.40,3542.276239121,N,13943.266220065,E,5,02,99.90,24.642,M,36.995,M,5.4,4107*78
$GPGGA,073352.50,3542.276239119,N,13943.266220070,E,5,02,99.90,24.642,M,36.995,M,5.5,4107*77
$GPGGA,073352.60,3542.276239122,N,13943.266220074,E,5,02,99.90,24.642,M,36.995,M,5.6,4107*7B
$GPGGA,073352.70,3542.276239123,N,13943.266220081,E,5,02,99.90,24.642,M,36.995,M,5.7,4107*70
$GPGGA,073352.80,3542.276239121,N,13943.266220089,E,5,02,99.90,24.642,M,36.995,M,5.8,4107*7A
$GPGGA,073352.90,3542.276239124,N,13943.266220093,E,5,02,99.90,24.642,M,36.995,M,5.9,4107*74
$GPGGA,073353.00,3542.276239126,N,13943.266220100,E,5,02,99.90,24.642,M,36.995,M,6.0,4107*7F
$GPGGA,073353.10,3542.276239125,N,13943.266220109,E,5,02,99.90,24.642,M,36.995,M,6.1,4107*75
$GPGGA,073353.20,3542.276239128,N,13943.266220114,E,5,02,99.90,24.642,M,36.995,M,6.2,4107*74
$GPGGA,073353.30,3542.276239132,N,13943.266220121,E,5,02,99.90,24.642,M,36.995,M,6.3,4107*79
$GPGGA,073353.40,3542.276239136,N,13943.266220125,E,5,02,99.90,24.642,M,36.995,M,6.4,4107*79
$GPGGA,073353.50,3542.276239140,N,13943.266220131,E,5,02,99.90,24.642,M,36.995,M,6.5,4107*7D
$GPGGA,073353.60,3542.276239144,N,13943.266220137,E,5,02,99.90,24.642,M,36.995,M,6.6,4107*7F
$GPGGA,073353.70,3542.276239144,N,13943.266220144,E,5,02,99.90,24.642,M,36.995,M,6.7,4107*7B
$GPGGA,073353.80,3542.276239146,N,13943.266220147,E,5,02,99.90,24.642,M,36.995,M,6.8,4107*7A
$GPGGA,073353.90,3542.276239146,N,13943.266220153,E,5,02,99.90,24.642,M,36.995,M,6.9,4107*7F
$GPGGA,073354.00,3542.276239146,N,13943.266220159,E,5,02,99.90,24.642,M,36.995,M,7.0,4107*73
$GPGGA,073354.10,3542.276239149,N,13943.266220158,E,5,02,99.90,24.642,M,36.995,M,2.1,4107*78
$GPGGA,073354.20,3542.276239151,N,13943.266220162,E,5,02,99.90,24.642,M,36.995,M,2.2,4107*78
$GPGGA,073354.30,3542.276239153,N,13943.266220171,E,5,02,99.90,24.642,M,36.995,M,2.3,4107*78
$GPGGA,073354.40,3542.276239155,N,13943.266220179,E,5,02,99.90,24.642,M,36.995,M,2.4,4107*76
$GPGGA,073354.50,3542.276239160,N,13943.266220183,E,5,02,99.90,24.642,M,36.995,M,2.5,4107*75
$GPGGA,073354.60,3542.276239160,N,13943.266220189,E,5,02,99.90,24.642,M,36.995,M,2.6,4107*7F
$GPGGA,073354.70,3542.276239166,N,13943.266220192,E,5,02,99.90,24.642,M,36.995,M,2.7,4107*73
$GPGGA,073354.80,3542.276239165,N,13943.266220200,E,5,02,99.90,24.642,M,36.995,M,2.8,4107*78
$GPGGA,073354.90,3542.276239164,N,13943.266220205,E,5,02,99.90,24.642,M,36.995,M,2.9,4107*7C
$GPGGA,073355.00,3542.276239161,N,13943.266220213,E,5,02,99.90,24.642,M,36.995,M,3.0,4107*7E
$GPGGA,073355.10,3542.276239161,N,13943.266220221,E,5,02,99.90,24.642,M,36.995,M,3.1,4107*7F
$GPGGA,073355.20,3542.276239160,N,13943.266220224,E,5,02,99.90,24.642,M,36.995,M,3.2,4107*7B
$GPGGA,073355.30,3542.276239161,N,13943.266220229,E,5,02,99.90,24.641,M,36.995,M,3.3,4107*74
$GPGGA,073355.40,3542.276239159,N,13943.266220237,E,5,02,99.90,24.641,M,36.995,M,3.4,4107*70
$GPGGA,073355.50,3542.276239160,N,13943.266220240,E,5,02,99.90,24.641,M,36.995,M,3.5,4107*7A
$GPGGA,073355.60,3542.276239160,N,13943.266220244,E,5,02,99.90,24.641,M,36.995,M,3.6,4107*7E
$GPGGA,073355.70,3542.276239164,N,13943.266220250,E,5,02,99.90,24.641,M,36.995,M,3.7,4107*7F
$GPGGA,073355.80,3542.276239167,N,13943.266220256,E,5,02,99.90,24.641,M,36.995,M,3.8,4107*7A
$GPGGA,073355.90,3542.276239172,N,13943.266220262,E,5,02,99.90,24.641,M,36.995,M,3.9,4107*79
$GPGGA,073356.00,3542.276239177,N,13943.266220266,E,5,02,99.90,24.641,M,36.995,M,4.0,4107*7C
$GPGGA,073356.10,3542.276239180,N,13943.266220271,E,5,02,99.90,24.641,M,36.995,M,4.1,4107*72
$GPGGA,073356.20,3542.276239181,N,13943.266220276,E,5,02,99.90,24.641,M,36.995,M,4.2,4107*74
$GPGGA,073356.30,3542.276239180,N,13943.266220282,E,5,02,99.90,24.641,M,36.995,M,4.3,4107*7E
$GPGGA,073356.40,3542.276239180,N,13943.266220287,E,5,02,99.90,24.641,M,36.995,M,4.4,4107*7B
$GPGGA,073356.50,3542.276239184,N,13943.266220289,E,5,02,99.90,24.641,M,36.995,M,4.5,4107*71
$GPGGA,073356.60,3542.276239184,N,13943.266220295,E,5,02,99.90,24.641,M,36.995,M,4.6,4107*7C
$GPGGA,073356.70,3542.276239187,N,13943.266220298,E,5,02,99.90,24.641,M,36.995,M,4.7,4107*72
$GPGGA,073356.80,3542.276239193,N,13943.266220300,E,5,02,99.90,24.641,M,36.995,M,4.8,4107*77
$GPGGA,073356.90,3542.276239197,N,13943.266220307,E,5,02,99.90,24.641,M,36.995,M,4.9,4107*74
$GPGGA,073357.00,3542.276239202,N,13943.266220313,E,5,02,99.90,24.641,M,36.995,M,5.0,4107*7E
$GPGGA,073357.10,3542.276239207,N,13943.266220315,E,5,02,99.90,24.641,M,36.995,M,5.1,4107*7D
$GPGGA,073357.20,3542.276239210,N,13943.266220318,E,5,02,99.90,24.641,M,36.995,M,5.2,4107*76
$GPGGA,073357.30,3542.276239211,N,13943.266220323,E,5,02,99.90,24.641,M,36.995,M,5.3,4107*7F
$GPGGA,073357.40,3542.276239212,N,13943.266220329,E,5,02,99.90,24.641,M,36.995,M,5.4,4107*76
$GPGGA,073357.50,3542.276239214,N,13943.266220334,E,5,02,99.90,24.641,M,36.995,M,5.5,4107*7C
$GPGGA,073357.60,3542.276239214,N,13943.266220340,E,5,02,99.90,24.641,M,36.995,M,5.6,4107*7F
$GPGGA,073357.70,3542.276239218,N,13943.266220343,E,5,02,99.90,24.641,M,36.995,M,5.7,4107*70
$GPGGA,073357.80,3542.276239223,N,13943.266220348,E,5,02,99.90,24.641,M,36.995,M,5.8,4107*73
$GPGGA,073357.90,3542.276239226,N,13943.266220353,E,5,02,99.90,24.641,M,36.995,M,5.9,4107*7C
$GPGGA,073358.00,3542.276239231,N,13943.266220359,E,5,02,99.90,24.641,M,36.995,M,6.0,4107*7C
$GPGGA,073358.10,3542.276239236,N,13943.266220364,E,5,02,99.90,24.640,M,36.995,M,6.1,4107*74
$GPGGA,073358.20,3542.276239242,N,13943.266220366,E,5,02,99.90,24.640,M,36.995,M,6.2,4107*75
$GPGGA,073358.30,3542.276239246,N,13943.266220373,E,5,02,99.90,24.640,M,36.995,M,6.3,4107*75
$GPGGA,073358.40,3542.276239251,N,13943.266220377,E,5,02,99.90,24.640,M,36.995,M,6.4,4107*77
$GPGGA,073358.50,3542.276239254,N,13943.266220381,E,5,02,99.90,24.640,M,36.995,M,6.5,4107*7B
$GPGGA,073358.60,3542.276239261,N,13943.266220383,E,5,02,99.90,24.640,M,36.995,M,6.6,4107*7F
$GPGGA,073358.70,3542.276239264,N,13943.266220386,E,5,02,99.90,24.640,M,36.995,M,6.7,4107*7F
$GPGGA,073358.80,3542.276239265,N,13943.266220391,E,5,02,99.90,24.640,M,36.995,M,6.8,4107*78
$GPGGA,073358.90,3542.276239266,N,13943.266220395,E,5,02,99.90,24.640,M,36.995,M,6.9,4107*7F
$GPGGA,073359.00,3542.276239270,N,13943.266220396,E,5,02,99.90,24.640,M,36.995,M,7.0,4107*7B
$GPGGA,073359.10,3542.276239276,N,13943.266220398,E,5,02,99.90,24.640,M,36.995,M,2.1,4107*76
$GPGGA,073359.20,3542.276239282,N,13943.266220400,E,5,02,99.90,24.640,M,36.995,M,2.2,4107*7B
$GPGGA,073359.30,3542.276239287,N,13943.266220407,E,5,02,99.90,24.640,M,36.995,M,2.3,4107*79
$GPGGA,073359.40,3542.276239293,N,13943.266220410,E,5,02,99.90,24.640,M,36.995,M,2.4,4107*7A
$GPGGA,073359.50,3542.276239298,N,13943.266220416,E,5,02,99.90,24.640,M,36.995,M,2.5,4107*77
$GPGGA,073359.60,3542.276239302,N,13943.266220422,E,5,02,99.90,24.640,M,36.995,M,2.6,4107*72
$GPGGA,073359.70,3542.276239307,N,13943.266220428,E,5,02,99.90,24.640,M,36.995,M,2.7,4107*7D
$GPGGA,073359.80,3542.276239313,N,13943.266220431,E,5,02,99.90,24.640,M,36.995,M,2.8,4107*70
$GPGGA,073359.90,3542.276239318,N,13943.266220436,E,5,02,99.90,24.640,M,36.995,M,2.9,4107*7C
$GPGGA,073400.00,3542.276239323,N,13943.266220442,E,5,02,99.90,24.640,M,36.995,M,3.0,4107*7D
$GPGGA,073400.10,3542.276239329,N,13943.266220444,E,5,02,99.90,24.640,M,36.995,M,3.1,4107*71
$GPGGA,073400.20,3542.276239336,N,13943.266220446,E,5,02,99.90,24.640,M,36.995,M,3.2,4107*7D
$GPGGA,073400.30,3542.276239340,N,13943.266220448,E,5,02,99.90,24.640,M,36.995,M,3.3,4107*72
$GPGGA,073400.40,3542.276239344,N,13943.266220451,E,5,02,99.90,24.640,M,36.995,M,3.4,4107*7E
$GPGGA,073400.50,3542.276239350,N,13943.266220455,E,5,02,99.90,24.639,M,36.995,M,3.5,4107*71
$GPGGA,073400.60,3542.276239354,N,13943.266220459,E,5,02,99.90,24.639,M,36.995,M,3.6,4107*79
$GPGGA,073400.70,3542.276239361,N,13943.266220462,E,5,02,99.90,24.639,M,36.995,M,3.7,4107*77
$GPGGA,073400.80,3542.276239367,N,13943.266220466,E,5,02,99.90,24.639,M,36.995,M,3.8,4107*75
$GPGGA,073400.90,3542.276239373,N,13943.266220473,E,5,02,99.90,24.639,M,36.995,M,3.9,4107*74
$GPGGA,073401.00,3542.276239375,N,13943.266220479,E,5,02,99.90,24.639,M,36.995,M,4.0,4107*7E
$GPGGA,073401.10,3542.276239380,N,13943.266220484,E,5,02,99.90,24.639,M,36.995,M,4.1,4107*76
$GPGGA,073401.20,3542.276239382,N,13943.266220490,E,5,02,99.90,24.639,M,36.995,M,4.2,4107*71
$GPGGA,073401.30,3542.276239387,N,13943.266220492,E,5,02,99.90,24.639,M,36.995,M,4.3,4107*76
$GPGGA,073401.40,3542.276239393,N,13943.266220496,E,5,02,99.90,24.639,M,36.995,M,4.4,4107*77
$GPGGA,073401.50,3542.276239394,N,13943.266220503,E,5,02,99.90,24.639,M,36.995,M,4.5,4107*7D
$GPGGA,073401.60,3542.276239400,N,13943.266220507,E,5,02,99.90,24.639,M,36.995,M,4.6,4107*73
$GPGGA,073401.70,3542.276239401,N,13943.266220514,E,5,02,99.90,24.639,M,36.995,M,4.7,4107*70
$GPGGA,073401.80,3542.276239404,N,13943.266220519,E,5,02,99.90,24.639,M,36.995,M,4.8,4107*78
$GPGGA,073401.90,3542.276239407,N,13943.266220523,E,5,02,99.90,24.639,M,36.995,M,4.9,4107*72
$GPGGA,073402.00,3542.276239411,N,13943.266220529,E,5,02,99.90,24.639,M,36.995,M,5.0,4107*7D
$GPGGA,073402.10,3542.276239414,N,13943.266220534,E,5,02,99.90,24.639,M,36.995,M,5.1,4107*74
$GPGGA,073402.20,3542.276239421,N,13943.266220535,E,5,02,99.90,24.639,M,36.995,M,5.2,4107*73
$GPGGA,073402.30,3542.276239425,N,13943.266220543,E,5,02,99.90,24.639,M,36.995,M,5.3,4107*76
$GPGGA,073402.40,3542.276239426,N,13943.266220550,E,5,02,99.90,24.639,M,36.995,M,5.4,4107*77
$GPGGA,073402.50,3542.276239430,N,13943.266220553,E,5,02,99.90,24.639,M,36.995,M,5.5,4107*73
$GPGGA,073402.60,3542.276239435,N,13943.266220556,E,5,02,99.90,24.639,M,36.995,M,5.6,4107*73
$GPGGA,073402.70,3542.276239439,N,13943.266220558,E,5,02,99.90,24.639,M,36.995,M,5.7,4107*71
$GPGGA,073402.80,3542.276239441,N,13943.266220565,E,5,02,99.90,24.638,M,36.995,M,5.8,4107*71
$GPGGA,073402.90,3542.276239446,N,13943.266220566,E,5,02,99.90,24.638,M,36.995,M,5.9,4107*75
$GPGGA,073403.00,3542.276239448,N,13943.266220571,E,5,02,99.90,24.638,M,36.995,M,6.0,4107*7F
$GPGGA,073403.10,3542.276239452,N,13943.266220575,E,5,02,99.90,24.638,M,36.995,M,6.1,4107*70
$GPGGA,073403.20,3542.276239458,N,13943.266220579,E,5,02,99.90,24.638,M,36.995,M,6.2,4107*76
$GPGGA,073403.30,3542.276239460,N,13943.266220586,E,5,02,99.90,24.638,M,36.995,M,6.3,4107*7D
$GPGGA,073403.40,3542.276239465,N,13943.266220591,E,5,02,99.90,24.638,M,36.995,M,6.4,4107*7E
$GPGGA,073403.50,3542.276239472,N,13943.266220594,E,5,02,99.90,24.638,M,36.995,M,6.5,4107*7D
$GPGGA,073403.60,3542.276239476,N,13943.266220596,E,5,02,99.90,24.638,M,36.995,M,6.6,4107*7B
$GPGGA,073403.70,3542.276239480,N,13943.266220600,E,5,02,99.90,24.638,M,36.995,M,6.7,4107*7E
$GPGGA,073403.80,3542.276239485,N,13943.266220602,E,5,02,99.90,24.638,M,36.995,M,6.8,4107*79
$GPGGA,073403.90,3542.276239492,N,13943.266220601,E,5,02,99.90,24.638,M,36.995,M,6.9,4107*7C
$GPGGA,073404.00,3542.276239495,N,13943.266220603,E,5,02,99.90,24.638,M,36.995,M,7.0,4107*7F
$GPGGA,073404.10,3542.276239500,N,13943.266220606,E,5,02,99.90,24.638,M,36.995,M,2.1,4107*72
$GPGGA,073404.20,3542.276239505,N,13943.266220611,E,5,02,99.90,24.638,M,36.995,M,2.2,4107*71
$GPGGA,073404.30,3542.276239508,N,13943.266220615,E,5,02,99.90,24.638,M,36.995,M,2.3,4107*78
$GPGGA,073404.40,3542.276239513,N,13943.266220619,E,5,02,99.90,24.638,M,36.995,M,2.4,4107*7E
$GPGGA,073404.50,3542.276239517,N,13943.266220622,E,5,02,99.90,24.638,M,36.995,M,2.5,4107*72
$GPGGA,073404.60,3542.276239523,N,13943.266220624,E,5,02,99.90,24.638,M,36.995,M,2.6,4107*73
$GPGGA,073404.70,3542.276239528,N,13943.266220627,E,5,02,99.90,24.638,M,36.995,M,2.7,4107*7B
$GPGGA,073404.80,3542.276239532,N,13943.266220631,E,5,02,99.90,24.638,M,36.995,M,2.8,4107*77
$GPGGA,073404.90,3542.276239537,N,13943.266220634,E,5,02,99.90,24.638,M,36.995,M,2.9,4107*77
$GPGGA,073405.00,3542.276239541,N,13943.266220637,E,5,02,99.90,24.637,M,36.995,M,3.0,4107*7A
$GPGGA,073405.10,3542.276239544,N,13943.266220640,E,5,02,99.90,24.637,M,36.995,M,3.1,4107*7F
$GPGGA,073405.20,3542.276239547,N,13943.266220644,E,5,02,99.90,24.637,M,36.995,M,3.2,4107*78
$GPGGA,073405.30,3542.276239551,N,13943.266220647,E,5,02,99.90,24.637,M,36.995,M,3.3,4107*7C
$GPGGA,073405.40,3542.276239556,N,13943.266220651,E,5,02,99.90,24.637,M,36.995,M,3.4,4107*7C
$GPGGA,073405.50,3542.276239560,N,13943.266220653,E,5,02,99.90,24.637,M,36.995,M,3.5,4107*7B
$GPGGA,073405.60,3542.276239566,N,13943.266220656,E,5,02,99.90,24.637,M,36.995,M,3.6,4107*78
$GPGGA,073405.70,3542.276239569,N,13943.266220662,E,5,02,99.90,24.637,M,36.995,M,3.7,4107*70
$GPGGA,073405.80,3542.276239573,N,13943.266220665,E,5,02,99.90,24.637,M,36.995,M,3.8,4107*7C
$GPGGA,073405.90,3542.276239579,N,13943.266220669,E,5,02,99.90,24.637,M,36.995,M,3.9,4107*7A
$GPGGA,073406.00,3542.276239583,N,13943.266220671,E,5,02,99.90,24.637,M,36.995,M,4.0,4107*72
$GPGGA,073406.10,3542.276239587,N,13943.266220672,E,5,02,99.90,24.637,M,36.995,M,4.1,4107*75
$GPGGA,073406.20,3542.276239591,N,13943.266220675,E,5,02,99.90,24.637,M,36.995,M,4.2,4107*75
$GPGGA,073406.30,3542.276239595,N,13943.266220678,E,5,02,99.90,24.637,M,36.995,M,4.3,4107*7C
$GPGGA,073406.40,3542.276239595,N,13943.266220683,E,5,02,99.90,24.637,M,36.995,M,4.4,4107*78
$GPGGA,073406.50,3542.276239599,N,13943.266220688,E,5,02,99.90,24.637,M,36.995,M,4.5,4107*7F
$GPGGA,073406.60,3542.276239602,N,13943.266220692,E,5,02,99.90,24.637,M,36.995,M,4.6,4107*75
$GPGGA,073406.70,3542.276239603,N,13943.266220698,E,5,02,99.90,24.637,M,36.995,M,4.7,4107*7E
$GPGGA,073406.80,3542.276239605,N,13943.266220704,E,5,02,99.90,24.637,M,36.995,M,4.8,4107*7C
$GPGGA,073406.90,3542.276239609,N,13943.266220708,E,5,02,99.90,24.637,M,36.995,M,4.9,4107*7C
$GPGGA,073407.00,3542.276239610,N,13943.266220716,E,5,02,99.90,24.637,M,36.995,M,5.0,4107*7B
$GPGGA,073407.10,3542.276239613,N,13943.266220720,E,5,02,99.90,24.637,M,36.995,M,5.1,4107*7D
$GPGGA,073407.20,3542.276239617,N,13943.266220723,E,5,02,99.90,24.637,M,36.995,M,5.2,4107*7A
$GPGGA,073407.30,3542.276239620,N,13943.266220728,E,5,02,99.90,24.637,M,36.995,M,5.3,4107*75
$GPGGA,073407.40,3542.276239622,N,13943.266220730,E,5,02,99.90,24.636,M,36.995,M,5.4,4107*7F
$GPGGA,073407.50,3542.276239624,N,13943.266220733,E,5,02,99.90,24.636,M,36.995,M,5.5,4107*7A
$GPGGA,073407.60,3542.276239626,N,13943.266220737,E,5,02,99.90,24.636,M,36.995,M,5.6,4107*7C
$GPGGA,073407.70,3542.276239628,N,13943.266220744,E,5,02,99.90,24.636,M,36.995,M,5.7,4107*76
$GPGGA,073407.80,3542.276239631,N,13943.266220748,E,5,02,99.90,24.636,M,36.995,M,5.8,4107*72
$GPGGA,073407.90,3542.276239632,N,13943.266220751,E,5,02,99.90,24.636,M,36.995,M,5.9,4107*79
$GPGGA,073408.00,3542.276239637,N,13943.266220752,E,5,02,99.90,24.636,M,36.995,M,6.0,4107*73
$GPGGA,073408.10,3542.276239643,N,13943.266220754,E,5,02,99.90,24.636,M,36.995,M,6.1,4107*76
$GPGGA,073408.20,3542.276239646,N,13943.266220760,E,5,02,99.90,24.636,M,36.995,M,6.2,4107*74
$GPGGA,073408.30,3542.276239650,N,13943.266220762,E,5,02,99.90,24.636,M,36.995,M,6.3,4107*71
$GPGGA,073408.40,3542.276239653,N,13943.266220767,E,5,02,99.90,24.636,M,36.995,M,6.4,4107*77
$GPGGA,073408.50,3542.276239654,N,13943.266220772,E,5,02,99.90,24.636,M,36.995,M,6.5,4107*74
$GPGGA,073408.60,3542.276239659,N,13943.266220773,E,5,02,99.90,24.636,M,36.995,M,6.6,4107*78
$GPGGA,073408.70,3542.276239662,N,13943.266220776,E,5,02,99.90,24.636,M,36.995,M,6.7,4107*75
$GPGGA,073408.80,3542.276239662,N,13943.266220782,E,5,02,99.90,24.636,M,36.995,M,6.8,4107*7E
$GPGGA,073408.90,3542.276239663,N,13943.266220787,E,5,02,99.90,24.636,M,36.995,M,6.9,4107*7A
$GPGGA,073409.00,3542.276239666,N,13943.266220791,E,5,02,99.90,24.636,M,36.995,M,7.0,4107*78
$GPGGA,073409.10,3542.276239667,N,13943.266220798,E,5,02,99.90,24.636,M,36.995,M,2.1,4107*75
$GPGGA,073409.20,3542.276239670,N,13943.266220801,E,5,02,99.90,24.636,M,36.995,M,2.2,4107*7C
$GPGGA,073409.30,3542.276239673,N,13943.266220802,E,5,02,99.90,24.636,M,36.995,M,2.3,4107*7C
$GPGGA,073409.40,3542.276239676,N,13943.266220808,E,5,02,99.90,24.636,M,36.995,M,2.4,4107*73
$GPGGA,073409.50,3542.276239680,N,13943.266220811,E,5,02,99.90,24.636,M,36.995,M,2.5,4107*72
$GPGGA,073409.60,3542.276239684,N,13943.266220811,E,5,02,99.90,24.636,M,36.995,M,2.6,4107*76
$GPGGA,073409.70,3542.276239686,N,13943.266220816,E,5,02,99.90,24.636,M,36.995,M,2.7,4107*73
$GPGGA,073409.80,3542.276239690,N,13943.266220819,E,5,02,99.90,24.635,M,36.995,M,2.8,4107*78
$GPGGA,073409.90,3542.276239691,N,13943.266220822,E,5,02,99.90,24.635,M,36.995,M,2.9,4107*71
$GPGGA,073410.00,3542.276239691,N,13943.266220828,E,5,02,99.90,24.635,M,36.995,M,3.0,4107*72
$GPGGA,073410.10,3542.276239693,N,13943.266220833,E,5,02,99.90,24.635,M,36.995,M,3.1,4107*7A
$GPGGA,073410.20,3542.276239697,N,13943.266220834,E,5,02,99.90,24.635,M,36.995,M,3.2,4107*79
$GPGGA,073410.30,3542.276239699,N,13943.266220841,E,5,02,99.90,24.635,M,36.995,M,3.3,4107*75
$GPGGA,073410.40,3542.276239701,N,13943.266220844,E,5,02,99.90,24.635,M,36.995,M,3.4,4107*70
$GPGGA,073410.50,3542.276239705,N,13943.266220847,E,5,02,99.90,24.635,M,36.995,M,3.5,4107*77
$GPGGA,073410.60,3542.276239708,N,13943.266220853,E,5,02,99.90,24.635,M,36.995,M,3.6,4107*7F
$GPGGA,073410.70,3542.276239709,N,13943.266220859,E,5,02,99.90,24.635,M,36.995,M,3.7,4107*74
$GPGGA,073410.80,3542.276239714,N,13943.266220861,E,5,02,99.90,24.635,M,36.995,M,3.8,4107*73
$GPGGA,073410.90,3542.276239715,N,13943.266220866,E,5,02,99.90,24.635,M,36.995,M,3.9,4107*75
$GPGGA,073411.00,3542.276239720,N,13943.266220869,E,5,02,99.90,24.635,M,36.995,M,4.0,4107*7A
$GPGGA,073411.10,3542.276239724,N,13943.266220874,E,5,02,99.90,24.635,M,36.995,M,4.1,4107*72
$GPGGA,073411.20,3542.276239728,N,13943.266220877,E,5,02,99.90,24.635,M,36.995,M,4.2,4107*7D
$GPGGA,073411.30,3542.276239730,N,13943.266220881,E,5,02,99.90,24.635,M,36.995,M,4.3,4107*7D
$GPGGA,073411.40,3542.276239734,N,13943.266220885,E,5,02,99.90,24.635,M,36.995,M,4.4,4107*7D
$GPGGA,073411.50,3542.276239737,N,13943.266220889,E,5,02,99.90,24.635,M,36.995,M,4.5,4107*72
$GPGGA,073411.60,3542.276239744,N,13943.266220889,E,5,02,99.90,24.635,M,36.995,M,4.6,4107*76
$GPGGA,073411.70,3542.276239747,N,13943.266220893,E,5,02,99.90,24.635,M,36.995,M,4.7,4107*7E
$GPGGA,073411.80,3542.276239747,N,13943.266220902,E,5,02,99.90,24.635,M,36.995,M,4.8,4107*77
$GPGGA,073411.90,3542.276239750,N,13943.266220905,E,5,02,99.90,24.635,M,36.995,M,4.9,4107*76
$GPGGA,073412.00,3542.276239753,N,13943.266220909,E,5,02,99.90,24.635,M,36.995,M,5.0,4107*7B
$GPGGA,073412.10,3542.276239755,N,13943.266220914,E,5,02,99.90,24.634,M,36.995,M,5.1,4107*70
$GPGGA,073412.20,3542.276239758,N,13943.266220917,E,5,02,99.90,24.634,M,36.995,M,5.2,4107*7E
$GPGGA,073412.30,3542.276239761,N,13943.266220919,E,5,02,99.90,24.634,M,36.995,M,5.3,4107*7A
$GPGGA,073412.40,3542.276239764,N,13943.266220922,E,5,02,99.90,24.634,M,36.995,M,5.4,4107*77
$GPGGA,073412.50,3542.276239768,N,13943.266220925,E,5,02,99.90,24.634,M,36.995,M,5.5,4107*7C
$GPGGA,073412.60,3542.276239770,N,13943.266220930,E,5,02,99.90,24.634,M,36.995,M,5.6,4107*71
$GPGGA,073412.70,3542.276239773,N,13943.266220936,E,5,02,99.90,24.634,M,36.995,M,5.7,4107*74
$GPGGA,073412.80,3542.276239778,N,13943.266220938,E,5,02,99.90,24.634,M,36.995,M,5.8,4107*71
$GPGGA,073412.90,3542.276239782,N,13943.266220942,E,5,02,99.90,24.634,M,36.995,M,5.9,4107*79
$GPGGA,073413.00,3542.276239785,N,13943.266220948,E,5,02,99.90,24.634,M,36.995,M,6.0,4107*76
$GPGGA,073413.10,3542.276239786,N,13943.266220954,E,5,02,99.90,24.634,M,36.995,M,6.1,4107*78
$GPGGA,073413.20,3542.276239791,N,13943.266220959,E,5,02,99.90,24.634,M,36.995,M,6.2,4107*73
$GPGGA,073413.30,3542.276239792,N,13943.266220965,E,5,02,99.90,24.634,M,36.995,M,6.3,4107*7F
$GPGGA,073413.40,3542.276239797,N,13943.266220966,E,5,02,99.90,24.634,M,36.995,M,6.4,4107*79
$GPGGA,073413.50,3542.276239798,N,13943.266220973,E,5,02,99.90,24.634,M,36.995,M,6.5,4107*72
$GPGGA,073413.60,3542.276239802,N,13943.266220976,E,5,02,99.90,24.634,M,36.995,M,6.6,4107*7B
$GPGGA,073413.70,3542.276239804,N,13943.266220983,E,5,02,99.90,24.634,M,36.995,M,6.7,4107*77
$GPGGA,073413.80,3542.276239808,N,13943.266220992,E,5,02,99.90,24.634,M,36.995,M,6.8,4107*7B
$GPGGA,073413.90,3542.276239811,N,13943.266220996,E,5,02,99.90,24.634,M,36.995,M,6.9,4107*77
$GPGGA,073414.00,3542.276239817,N,13943.266220999,E,5,02,99.90,24.634,M,36.995,M,7.0,4107*78
$GPGGA,073414.10,3542.276239821,N,13943.266221006,E,5,02,99.90,24.634,M,36.995,M,7.1,4107*73
$GPGGA,073414.20,3542.276239828,N,13943.266221009,E,5,02,99.90,24.634,M,36.995,M,7.2,4107*75
$GPGGA,073414.30,3542.276239832,N,13943.266221015,E,5,02,99.90,24.634,M,36.995,M,7.3,4107*73
$GPGGA,073414.40,3542.276239835,N,13943.266221020,E,5,02,99.90,24.634,M,36.995,M,7.4,4107*72
$GPGGA,073414.50,3542.276239840,N,13943.266221025,E,5,02,99.90,24.634,M,36.995,M,7.5,4107*75
$GPGGA,073414.60,3542.276239844,N,13943.266221029,E,5,02,99.90,24.634,M,36.995,M,7.6,4107*7D
$GPGGA,073414.70,3542.276239846,N,13943.266221035,E,5,02,99.90,24.633,M,36.995,M,7.7,4107*75
$GPGGA,073414.80,3542.276239851,N,13943.266221038,E,5,02,99.90,24.633,M,36.995,M,7.8,4107*7E
$GPGGA,073414.90,3542.276239856,N,13943.266221042,E,5,02,99.90,24.633,M,36.995,M,7.9,4107*74
$GPGGA,073415.00,3542.276239858,N,13943.266221049,E,5,02,99.90,24.633,M,36.995,M,8.0,4107*7F
$GPGGA,073415.10,3542.276239863,N,13943.266221053,E,5,02,99.90,24.633,M,36.995,M,3.1,4107*77
$GPGGA,073415.20,3542.276239868,N,13943.266221059,E,5,02,99.90,24.633,M,36.995,M,3.2,4107*76
$GPGGA,073415.30,3542.276239874,N,13943.266221063,E,5,02,99.90,24.633,M,36.995,M,3.3,4107*72
$GPGGA,073415.40,3542.276239877,N,13943.266221067,E,5,02,99.90,24.633,M,36.995,M,3.4,4107*75
$GPGGA,073415.50,3542.276239883,N,13943.266221070,E,5,02,99.90,24.633,M,36.995,M,3.5,4107*78
$GPGGA,073415.60,3542.276239888,N,13943.266221074,E,5,02,99.90,24.633,M,36.995,M,3.6,4107*77
$GPGGA,073415.70,3542.276239889,N,13943.266221079,E,5,02,99.90,24.633,M,36.995,M,3.7,4107*7B
$GPGGA,073415.80,3542.276239892,N,13943.266221082,E,5,02,99.90,24.633,M,36.995,M,3.8,4107*75
$GPGGA,073415.90,3542.276239894,N,13943.266221087,E,5,02,99.90,24.633,M,36.995,M,3.9,4107*76
$GPGGA,073416.00,3542.276239899,N,13943.266221090,E,5,02,99.90,24.633,M,36.995,M,4.0,4107*79
$GPGGA,073416.10,3542.276239901,N,13943.266221095,E,5,02,99.90,24.633,M,36.995,M,4.1,4107*7C
$GPGGA,073416.20,3542.276239904,N,13943.266221102,E,5,02,99.90,24.633,M,36.995,M,4.2,4107*76
$GPGGA,073416.30,3542.276239908,N,13943.266221106,E,5,02,99.90,24.633,M,36.995,M,4.3,4107*7E
$GPGGA,073416.40,3542.276239913,N,13943.266221112,E,5,02,99.90,24.633,M,36.995,M,4.4,4107*71
$GPGGA,073416.50,3542.276239915,N,13943.266221119,E,5,02,99.90,24.633,M,36.995,M,4.5,4107*7C
$GPGGA,073416.60,3542.276239920,N,13943.266221123,E,5,02,99.90,24.633,M,36.995,M,4.6,4107*73
$GPGGA,073416.70,3542.276239922,N,13943.266221132,E,5,02,99.90,24.633,M,36.995,M,4.7,4107*71
$GPGGA,073416.80,3542.276239926,N,13943.266221139,E,5,02,99.90,24.633,M,36.995,M,4.8,4107*7E
$GPGGA,073416.90,3542.276239931,N,13943.266221143,E,5,02,99.90,24.633,M,36.995,M,4.9,4107*75
$GPGGA,073417.00,3542.276239935,N,13943.266221149,E,5,02,99.90,24.633,M,36.995,M,5.0,4107*7B
$GPGGA,073417.10,3542.276239937,N,13943.266221156,E,5,02,99.90,24.633,M,36.995,M,5.1,4107*77
$GPGGA,073417.20,3542.276239942,N,13943.266221160,E,5,02,99.90,24.632,M,36.995,M,5.2,4107*71
$GPGGA,073417.30,3542.276239946,N,13943.266221168,E,5,02,99.90,24.632,M,36.995,M,5.3,4107*7D
$GPGGA,073417.40,3542.276239949,N,13943.266221174,E,5,02,99.90,24.632,M,36.995,M,5.4,4107*7F
$GPGGA,073417.50,3542.276239955,N,13943.266221178,E,5,02,99.90,24.632,M,36.995,M,5.5,4107*7E
$GPGGA,073417.60,3542.276239959,N,13943.266221187,E,5,02,99.90,24.632,M,36.995,M,5.6,4107*72
$GPGGA,073417.70,3542.276239961,N,13943.266221193,E,5,02,99.90,24.632,M,36.995,M,5.7,4107*7C
$GPGGA,073417.80,3542.276239965,N,13943.266221199,E,5,02,99.90,24.632,M,36.995,M,5.8,4107*72
$GPGGA,073417.90,3542.276239967,N,13943.266221208,E,5,02,99.90,24.632,M,36.995,M,5.9,4107*7B
$GPGGA,073418.00,3542.276239972,N,13943.266221209,E,5,02,99.90,24.632,M,36.995,M,6.0,4107*72
$GPGGA,073418.10,3542.276239977,N,13943.266221210,E,5,02,99.90,24.632,M,36.995,M,6.1,4107*7F
$GPGGA,073418.20,3542.276239977,N,13943.266221219,E,5,02,99.90,24.632,M,36.995,M,6.2,4107*76
$GPGGA,073418.30,3542.276239983,N,13943.266221221,E,5,02,99.90,24.632,M,36.995,M,6.3,4107*76
$GPGGA,073418.40,3542.276239984,N,13943.266221225,E,5,02,99.90,24.632,M,36.995,M,6.4,4107*75
$GPGGA,073418.50,3542.276239992,N,13943.266221228,E,5,02,99.90,24.632,M,36.995,M,6.5,4107*7F
$GPGGA,073418.60,3542.276239993,N,13943.266221237,E,5,02,99.90,24.632,M,36.995,M,6.6,4107*70
$GPGGA,073418.70,3542.276239999,N,13943.266221240,E,5,02,99.90,24.632,M,36.995,M,6.7,4107*7A
$GPGGA,073418.80,3542.276239999,N,13943.266221248,E,5,02,99.90,24.632,M,36.995,M,6.8,4107*72
$GPGGA,073418.90,3542.276240002,N,13943.266221253,E,5,02,99.90,24.632,M,36.995,M,6.9,4107*7D
$GPGGA,073419.00,3542.276240005,N,13943.266221259,E,5,02,99.90,24.632,M,36.995,M,7.0,4107*70
$GPGGA,073419.10,3542.276240007,N,13943.266221265,E,5,02,99.90,24.632,M,36.995,M,2.1,4107*78
$GPGGA,073419.20,3542.276240010,N,13943.266221268,E,5,02,99.90,24.632,M,36.995,M,2.2,4107*73
$GPGGA,073419.30,3542.276240015,N,13943.266221270,E,5,02,99.90,24.632,M,36.995,M,2.3,4107*7F
$GPGGA,073419.40,3542.276240018,N,13943.266221275,E,5,02,99.90,24.632,M,36.995,M,2.4,4107*77
$GPGGA,073419.50,3542.276240019,N,13943.266221281,E,5,02,99.90,24.632,M,36.995,M,2.5,4107*7D
$GPGGA,073419.60,3542.276240023,N,13943.266221286,E,5,02,99.90,24.632,M,36.995,M,2.6,4107*73
$GPGGA,073419.70,3542.276240025,N,13943.266221290,E,5,02,99.90,24.631,M,36.995,M,2.7,4107*71
$GPGGA,073419.80,3542.276240030,N,13943.266221291,E,5,02,99.90,24.631,M,36.995,M,2.8,4107*74
$GPGGA,073419.90,3542.276240035,N,13943.266221293,E,5,02,99.90,24.631,M,36.995,M,2.9,4107*73
$GPGGA,073420.00,3542.276240037,N,13943.266221298,E,5,02,99.90,24.631,M,36.995,M,3.0,4107*71
$GPGGA,073420.10,3542.276240039,N,13943.266221302,E,5,02,99.90,24.631,M,36.995,M,3.1,4107*7D
$GPGGA,073420.20,3542.276240044,N,13943.266221303,E,5,02,99.90,24.631,M,36.995,M,3.2,4107*76
$GPGGA,073420.30,3542.276240044,N,13943.266221308,E,5,02,99.90,24.631,M,36.995,M,3.3,4107*7D
$GPGGA,073420.40,3542.276240047,N,13943.266221310,E,5,02,99.90,24.631,M,36.995,M,3.4,4107*77
$GPGGA,073420.50,3542.276240051,N,13943.266221312,E,5,02,99.90,24.631,M,36.995,M,3.5,4107*72
$GPGGA,073420.60,3542.276240054,N,13943.266221316,E,5,02,99.90,24.631,M,36.995,M,3.6,4107*73
$GPGGA,073420.70,3542.276240058,N,13943.266221319,E,5,02,99.90,24.631,M,36.995,M,3.7,4107*70
$GPGGA,073420.80,3542.276240060,N,13943.266221324,E,5,02,99.90,24.631,M,36.995,M,3.8,4107*75
$GPGGA,073420.90,3542.276240063,N,13943.266221329,E,5,02,99.90,24.631,M,36.995,M,3.9,4107*7B
$GPGGA,073421.00,3542.276240068,N,13943.266221330,E,5,02,99.90,24.631,M,36.995,M,4.0,4107*7E
$GPGGA,073421.10,3542.276240072,N,13943.266221333,E,5,02,99.90,24.631,M,36.995,M,4.1,4107*76
$GPGGA,073421.20,3542.276240076,N,13943.266221336,E,5,02,99.90,24.631,M,36.995,M,4.2,4107*77
$GPGGA,073421.30,3542.276240081,N,13943.266221337,E,5,02,99.90,24.631,M,36.995,M,4.3,4107*7E
$GPGGA,073421.40,3542.276240086,N,13943.266221339,E,5,02,99.90,24.631,M,36.995,M,4.4,4107*77
$GPGGA,073421.50,3542.276240088,N,13943.266221342,E,5,02,99.90,24.631,M,36.995,M,4.5,4107*75
$GPGGA,073421.60,3542.276240087,N,13943.266221349,E,5,02,99.90,24.631,M,36.995,M,4.6,4107*71
$GPGGA,073421.70,3542.276240092,N,13943.266221350,E,5,02,99.90,24.631,M,36.995,M,4.7,4107*7D
$GPGGA,073421.80,3542.276240095,N,13943.266221354,E,5,02,99.90,24.631,M,36.995,M,4.8,4107*7E
$GPGGA,073421.90,3542.276240098,N,13943.266221357,E,5,02,99.90,24.631,M,36.995,M,4.9,4107*70
$GPGGA,073422.00,3542.276240103,N,13943.266221359,E,5,02,99.90,24.631,M,36.995,M,5.0,4107*7F
$GPGGA,073422.10,3542.276240107,N,13943.266221363,E,5,02,99.90,24.631,M,36.995,M,5.1,4107*72
$GPGGA,073422.20,3542.276240110,N,13943.266221366,E,5,02,99.90,24.631,M,36.995,M,5.2,4107*71
$GPGGA,073422.30,3542.276240112,N,13943.266221370,E,5,02,99.90,24.630,M,36.995,M,5.3,4107*75
$GPGGA,073422.40,3542.276240116,N,13943.266221373,E,5,02,99.90,24.630,M,36.995,M,5.4,4107*72
$GPGGA,073422.50,3542.276240118,N,13943.266221373,E,5,02,99.90,24.630,M,36.995,M,5.5,4107*7C
$GPGGA,073422.60,3542.276240121,N,13943.266221375,E,5,02,99.90,24.630,M,36.995,M,5.6,4107*70
$GPGGA,073422.70,3542.276240122,N,13943.266221378,E,5,02,99.90,24.630,M,36.995,M,5.7,4107*7E
$GPGGA,073422.80,3542.276240125,N,13943.266221379,E,5,02,99.90,24.630,M,36.995,M,5.8,4107*78
$GPGGA,073422.90,3542.276240129,N,13943.266221380,E,5,02,99.90,24.630,M,36.995,M,5.9,4107*72
$GPGGA,073423.00,3542.276240130,N,13943.266221384,E,5,02,99.90,24.630,M,36.995,M,6.0,4107*7C
$GPGGA,073423.10,3542.276240133,N,13943.266221384,E,5,02,99.90,24.630,M,36.995,M,6.1,4107*7F
$GPGGA,073423.20,3542.276240137,N,13943.266221386,E,5,02,99.90,24.630,M,36.995,M,6.2,4107*79
$GPGGA,073423.30,3542.276240138,N,13943.266221389,E,5,02,99.90,24.630,M,36.995,M,6.3,4107*79
$GPGGA,073423.40,3542.276240142,N,13943.266221392,E,5,02,99.90,24.630,M,36.995,M,6.4,4107*7E
$GPGGA,073423.50,3542.276240145,N,13943.266221393,E,5,02,99.90,24.630,M,36.995,M,6.5,4107*78
$GPGGA,073423.60,3542.276240147,N,13943.266221394,E,5,02,99.90,24.630,M,36.995,M,6.6,4107*7D
$GPGGA,073423.70,3542.276240149,N,13943.266221397,E,5,02,99.90,24.630,M,36.995,M,6.7,4107*70
$GPGGA,073423.80,3542.276240151,N,13943.266221401,E,5,02,99.90,24.630,M,36.995,M,6.8,4107*71
$GPGGA,073423.90,3542.276240154,N,13943.266221403,E,5,02,99.90,24.630,M,36.995,M,6.9,4107*76
$GPGGA,073424.00,3542.276240155,N,13943.266221406,E,5,02,99.90,24.630,M,36.995,M,7.0,4107*74
$GPGGA,073424.10,3542.276240159,N,13943.266221406,E,5,02,99.90,24.630,M,36.995,M,2.1,4107*7D
$GPGGA,073424.20,3542.276240164,N,13943.266221409,E,5,02,99.90,24.630,M,36.995,M,2.2,4107*7C
$GPGGA,073424.30,3542.276240166,N,13943.266221410,E,5,02,99.90,24.630,M,36.995,M,2.3,4107*76
$GPGGA,073424.40,3542.276240171,N,13943.266221408,E,5,02,99.90,24.630,M,36.995,M,2.4,4107*79
$GPGGA,073424.50,3542.276240173,N,13943.266221411,E,5,02,99.90,24.630,M,36.995,M,2.5,4107*73
$GPGGA,073424.60,3542.276240177,N,13943.266221412,E,5,02,99.90,24.630,M,36.995,M,2.6,4107*74
$GPGGA,073424.70,3542.276240181,N,13943.266221414,E,5,02,99.90,24.630,M,36.995,M,2.7,4107*7B
$GPGGA,073424.80,3542.276240182,N,13943.266221417,E,5,02,99.90,24.630,M,36.995,M,2.8,4107*7B
$GPGGA,073424.90,3542.276240185,N,13943.266221420,E,5,02,99.90,24.630,M,36.995,M,2.9,4107*78
$GPGGA,073425.00,3542.276240188,N,13943.266221421,E,5,02,99.90,24.629,M,36.995,M,3.0,4107*7C
$GPGGA,073425.10,3542.276240192,N,13943.266221420,E,5,02,99.90,24.629,M,36.995,M,3.1,4107*76
$GPGGA,073425.20,3542.276240194,N,13943.266221422,E,5,02,99.90,24.629,M,36.995,M,3.2,4107*72
$GPGGA,073425.30,3542.276240197,N,13943.266221423,E,5,02,99.90,24.629,M,36.995,M,3.3,4107*70
$GPGGA,073425.40,3542.276240200,N,13943.266221424,E,5,02,99.90,24.629,M,36.995,M,3.4,4107*7A
$GPGGA,073425.50,3542.276240203,N,13943.266221428,E,5,02,99.90,24.629,M,36.995,M,3.5,4107*75
$GPGGA,073425.60,3542.276240207,N,13943.266221428,E,5,02,99.90,24.629,M,36.995,M,3.6,4107*71
$GPGGA,073425.70,3542.276240207,N,13943.266221432,E,5,02,99.90,24.629,M,36.995,M,3.7,4107*7A
$GPGGA,073425.80,3542.276240210,N,13943.266221435,E,5,02,99.90,24.629,M,36.995,M,3.8,4107*7B
$GPGGA,073425.90,3542.276240211,N,13943.266221438,E,5,02,99.90,24.629,M,36.995,M,3.9,4107*77
$GPGGA,073426.00,3542.276240212,N,13943.266221440,E,5,02,99.90,24.629,M,36.995,M,4.0,4107*7F
$GPGGA,073426.10,3542.276240214,N,13943.266221441,E,5,02,99.90,24.629,M,36.995,M,4.1,4107*78
$GPGGA,073426.20,3542.276240216,N,13943.266221445,E,5,02,99.90,24.629,M,36.995,M,4.2,4107*7E
$GPGGA,073426.30,3542.276240218,N,13943.266221447,E,5,02,99.90,24.629,M,36.995,M,4.3,4107*72
$GPGGA,073426.40,3542.276240219,N,13943.266221451,E,5,02,99.90,24.629,M,36.995,M,4.4,4107*74
$GPGGA,073426.50,3542.276240222,N,13943.266221451,E,5,02,99.90,24.629,M,36.995,M,4.5,4107*7C
$GPGGA,073426.60,3542.276240228,N,13943.266221449,E,5,02,99.90,24.629,M,36.995,M,4.6,4107*7F
$GPGGA,073426.70,3542.276240229,N,13943.266221453,E,5,02,99.90,24.629,M,36.995,M,4.7,4107*75
$GPGGA,073426.80,3542.276240230,N,13943.266221456,E,5,02,99.90,24.629,M,36.995,M,4.8,4107*78
$GPGGA,073426.90,3542.276240232,N,13943.266221456,E,5,02,99.90,24.629,M,36.995,M,4.9,4107*7A
$GPGGA,073427.00,3542.276240232,N,13943.266221458,E,5,02,99.90,24.629,M,36.995,M,5.0,4107*74
$GPGGA,073427.10,3542.276240231,N,13943.266221459,E,5,02,99.90,24.629,M,36.995,M,5.1,4107*76
$GPGGA,073427.20,3542.276240235,N,13943.266221459,E,5,02,99.90,24.629,M,36.995,M,5.2,4107*72
$GPGGA,073427.30,3542.276240237,N,13943.266221460,E,5,02,99.90,24.629,M,36.995,M,5.3,4107*7A
$GPGGA,073427.40,3542.276240238,N,13943.266221462,E,5,02,99.90,24.629,M,36.995,M,5.4,4107*77
$GPGGA,073427.50,3542.276240239,N,13943.266221464,E,5,02,99.90,24.629,M,36.995,M,5.5,4107*70
$GPGGA,073427.60,3542.276240240,N,13943.266221466,E,5,02,99.90,24.628,M,36.995,M,5.6,4107*7D
$GPGGA,073427.70,3542.276240242,N,13943.266221466,E,5,02,99.90,24.628,M,36.995,M,5.7,4107*7F
$GPGGA,073427.80,3542.276240244,N,13943.266221465,E,5,02,99.90,24.628,M,36.995,M,5.8,4107*7A
$GPGGA,073427.90,3542.276240244,N,13943.266221468,E,5,02,99.90,24.628,M,36.995,M,5.9,4107*77
$GPGGA,073428.00,3542.276240244,N,13943.266221470,E,5,02,99.90,24.628,M,36.995,M,6.0,4107*72
$GPGGA,073428.10,3542.276240244,N,13943.266221473,E,5,02,99.90,24.628,M,36.995,M,6.1,4107*71
$GPGGA,073428.20,3542.276240244,N,13943.266221477,E,5,02,99.90,24.628,M,36.995,M,6.2,4107*75
$GPGGA,073428.30,3542.276240247,N,13943.266221479,E,5,02,99.90,24.628,M,36.995,M,6.3,4107*78
$GPGGA,073428.40,3542.276240249,N,13943.266221479,E,5,02,99.90,24.628,M,36.995,M,6.4,4107*76
$GPGGA,073428.50,3542.276240252,N,13943.266221480,E,5,02,99.90,24.628,M,36.995,M,6.5,4107*7A
$GPGGA,073428.60,3542.276240257,N,13943.266221480,E,5,02,99.90,24.628,M,36.995,M,6.6,4107*7F
$GPGGA,073428.70,3542.276240258,N,13943.266221483,E,5,02,99.90,24.628,M,36.995,M,6.7,4107*73
$GPGGA,073428.80,3542.276240259,N,13943.266221483,E,5,02,99.90,24.628,M,36.995,M,6.8,4107*72
$GPGGA,073428.90,3542.276240263,N,13943.266221485,E,5,02,99.90,24.628,M,36.995,M,6.9,4107*7D
$GPGGA,073429.00,3542.276240265,N,13943.266221485,E,5,02,99.90,24.628,M,36.995,M,7.0,4107*7B
$GPGGA,073429.10,3542.276240267,N,13943.266221485,E,5,02,99.90,24.628,M,36.995,M,2.1,4107*7C
$GPGGA,073429.20,3542.276240267,N,13943.266221487,E,5,02,99.90,24.628,M,36.995,M,2.2,4107*7E
$GPGGA,073429.30,3542.276240267,N,13943.266221490,E,5,02,99.90,24.628,M,36.995,M,2.3,4107*78
$GPGGA,073429.40,3542.276240268,N,13943.266221491,E,5,02,99.90,24.628,M,36.995,M,2.4,4107*76
$GPGGA,073429.50,3542.276240272,N,13943.266221490,E,5,02,99.90,24.628,M,36.995,M,2.5,4107*7C
$GPGGA,073429.60,3542.276240272,N,13943.266221494,E,5,02,99.90,24.628,M,36.995,M,2.6,4107*78
$GPGGA,073429.70,3542.276240274,N,13943.266221497,E,5,02,99.90,24.628,M,36.995,M,2.7,4107*7D
$GPGGA,073429.80,3542.276240277,N,13943.266221500,E,5,02,99.90,24.628,M,36.995,M,2.8,4107*71
$GPGGA,073429.90,3542.276240278,N,13943.266221504,E,5,02,99.90,24.628,M,36.995,M,2.9,4107*7A
$GPGGA,073430.00,3542.276240281,N,13943.266221506,E,5,02,99.90,24.627,M,36.995,M,3.0,4107*78
$GPGGA,073430.10,3542.276240285,N,13943.266221508,E,5,02,99.90,24.627,M,36.995,M,3.1,4107*72
$GPGGA,073430.20,3542.276240286,N,13943.266221510,E,5,02,99.90,24.627,M,36.995,M,3.2,4107*78
$GPGGA,073430.30,3542.276240287,N,13943.266221513,E,5,02,99.90,24.627,M,36.995,M,3.3,4107*7A
$GPGGA,073430.40,3542.276240288,N,13943.266221516,E,5,02,99.90,24.627,M,36.995,M,3.4,4107*70
$GPGGA,073430.50,3542.276240290,N,13943.266221517,E,5,02,99.90,24.627,M,36.995,M,3.5,4107*78
$GPGGA,073430.60,3542.276240291,N,13943.266221521,E,5,02,99.90,24.627,M,36.995,M,3.6,4107*7C
$GPGGA,073430.70,3542.276240292,N,13943.266221526,E,5,02,99.90,24.627,M,36.995,M,3.7,4107*78
$GPGGA,073430.80,3542.276240294,N,13943.266221531,E,5,02,99.90,24.627,M,36.995,M,3.8,4107*78
$GPGGA,073430.90,3542.276240297,N,13943.266221535,E,5,02,99.90,24.627,M,36.995,M,3.9,4107*7F
$GPGGA,073431.00,3542.276240298,N,13943.266221539,E,5,02,99.90,24.627,M,36.995,M,4.0,4107*7A
$GPGGA,073431.10,3542.276240297,N,13943.266221544,E,5,02,99.90,24.627,M,36.995,M,4.1,4107*7F
$GPGGA,073431.20,3542.276240299,N,13943.266221548,E,5,02,99.90,24.627,M,36.995,M,4.2,4107*7D
$GPGGA,073431.30,3542.276240300,N,13943.266221552,E,5,02,99.90,24.627,M,36.995,M,4.3,4107*77
$GPGGA,073431.40,3542.276240303,N,13943.266221557,E,5,02,99.90,24.627,M,36.995,M,4.4,4107*71
$GPGGA,073431.50,3542.276240303,N,13943.266221559,E,5,02,99.90,24.627,M,36.995,M,4.5,4107*7F
$GPGGA,073431.60,3542.276240305,N,13943.266221562,E,5,02,99.90,24.627,M,36.995,M,4.6,4107*71
$GPGGA,073431.70,3542.276240306,N,13943.266221568,E,5,02,99.90,24.627,M,36.995,M,4.7,4107*78
$GPGGA,073431.80,3542.276240306,N,13943.266221571,E,5,02,99.90,24.627,M,36.995,M,4.8,4107*70
$GPGGA,073431.90,3542.276240308,N,13943.266221575,E,5,02,99.90,24.627,M,36.995,M,4.9,4107*7A
$GPGGA,073432.00,3542.276240310,N,13943.266221579,E,5,02,99.90,24.627,M,36.995,M,5.0,4107*7D
$GPGGA,073432.10,3542.276240311,N,13943.266221585,E,5,02,99.90,24.627,M,36.995,M,5.1,4107*7F
$GPGGA,073432.20,3542.276240314,N,13943.266221586,E,5,02,99.90,24.627,M,36.995,M,5.2,4107*79
$GPGGA,073432.30,3542.276240315,N,13943.266221591,E,5,02,99.90,24.627,M,36.995,M,5.3,4107*7E
$GPGGA,073432.40,3542.276240316,N,13943.266221594,E,5,02,99.90,24.627,M,36.995,M,5.4,4107*78
$GPGGA,073432.50,3542.276240319,N,13943.266221595,E,5,02,99.90,24.627,M,36.995,M,5.5,4107*76
$GPGGA,073432.60,3542.276240318,N,13943.266221599,E,5,02,99.90,24.627,M,36.995,M,5.6,4107*7B
$GPGGA,073432.70,3542.276240318,N,13943.266221601,E,5,02,99.90,24.627,M,36.995,M,5.7,4107*79
$GPGGA,073432.80,3542.276240320,N,13943.266221601,E,5,02,99.90,24.626,M,36.995,M,5.8,4107*73
$GPGGA,073432.90,3542.276240319,N,13943.266221604,E,5,02,99.90,24.626,M,36.995,M,5.9,4107*7C
$GPGGA,073433.00,3542.276240318,N,13943.266221609,E,5,02,99.90,24.626,M,36.995,M,6.0,4107*72
$GPGGA,073433.10,3542.276240318,N,13943.266221614,E,5,02,99.90,24.626,M,36.995,M,6.1,4107*7E
$GPGGA,073433.20,3542.276240317,N,13943.266221618,E,5,02,99.90,24.626,M,36.995,M,6.2,4107*7D
$GPGGA,073433.30,3542.276240316,N,13943.266221622,E,5,02,99.90,24.626,M,36.995,M,6.3,4107*75
$GPGGA,073433.40,3542.276240317,N,13943.266221626,E,5,02,99.90,24.626,M,36.995,M,6.4,4107*70
$GPGGA,073433.50,3542.276240319,N,13943.266221627,E,5,02,99.90,24.626,M,36.995,M,6.5,4107*7F
$GPGGA,073433.60,3542.276240318,N,13943.266221628,E,5,02,99.90,24.626,M,36.995,M,6.6,4107*71
$GPGGA,073433.70,3542.276240318,N,13943.266221629,E,5,02,99.90,24.626,M,36.995,M,6.7,4107*70
$GPGGA,073433.80,3542.276240320,N,13943.266221633,E,5,02,99.90,24.626,M,36.995,M,6.8,4107*70
$GPGGA,073433.90,3542.276240319,N,13943.266221638,E,5,02,99.90,24.626,M,36.995,M,6.9,4107*71
$GPGGA,073434.00,3542.276240320,N,13943.266221639,E,5,02,99.90,24.626,M,36.995,M,7.0,4107*7C
$GPGGA,073434.10,3542.276240322,N,13943.266221643,E,5,02,99.90,24.626,M,36.995,M,2.1,4107*76
$GPGGA,073434.20,3542.276240322,N,13943.266221649,E,5,02,99.90,24.626,M,36.995,M,2.2,4107*7C
$GPGGA,073434.30,3542.276240324,N,13943.266221650,E,5,02,99.90,24.626,M,36.995,M,2.3,4107*72
$GPGGA,073434.40,3542.276240324,N,13943.266221654,E,5,02,99.90,24.626,M,36.995,M,2.4,4107*76
$GPGGA,073434.50,3542.276240325,N,13943.266221661,E,5,02,99.90,24.626,M,36.995,M,2.5,4107*71
$GPGGA,073434.60,3542.276240325,N,13943.266221664,E,5,02,99.90,24.626,M,36.995,M,2.6,4107*74
$GPGGA,073434.70,3542.276240327,N,13943.266221666,E,5,02,99.90,24.626,M,36.995,M,2.7,4107*74
$GPGGA,073434.80,3542.276240326,N,13943.266221670,E,5,02,99.90,24.626,M,36.995,M,2.8,4107*72
$GPGGA,073434.90,3542.276240328,N,13943.266221672,E,5,02,99.90,24.626,M,36.995,M,2.9,4107*7E
$GPGGA,073435.00,3542.276240330,N,13943.266221669,E,5,02,99.90,24.626,M,36.995,M,3.0,4107*7D
$GPGGA,073435.10,3542.276240333,N,13943.266221673,E,5,02,99.90,24.626,M,36.995,M,3.1,4107*75
$GPGGA,073435.20,3542.276240332,N,13943.266221678,E,5,02,99.90,24.626,M,36.995,M,3.2,4107*7F
$GPGGA,073435.30,3542.276240335,N,13943.266221679,E,5,02,99.90,24.626,M,36.995,M,3.3,4107*79
$GPGGA,073435.40,3542.276240334,N,13943.266221681,E,5,02,99.90,24.626,M,36.995,M,3.4,4107*7F
$GPGGA,073435.50,3542.276240334,N,13943.266221687,E,5,02,99.90,24.626,M,36.995,M,3.5,4107*79
$GPGGA,073435.60,3542.276240334,N,13943.266221689,E,5,02,99.90,24.625,M,36.995,M,3.6,4107*74
$GPGGA,073435.70,3542.276240335,N,13943.266221690,E,5,02,99.90,24.625,M,36.995,M,3.7,4107*7D
$GPGGA,073435.80,3542.276240334,N,13943.266221690,E,5,02,99.90,24.625,M,36.995,M,3.8,4107*7C
$GPGGA,073435.90,3542.276240335,N,13943.266221693,E,5,02,99.90,24.625,M,36.995,M,3.9,4107*7E
$GPGGA,073436.00,3542.276240337,N,13943.266221693,E,5,02,99.90,24.625,M,36.995,M,4.0,4107*78
$GPGGA,073436.10,3542.276240339,N,13943.266221694,E,5,02,99.90,24.625,M,36.995,M,4.1,4107*71
$GPGGA,073436.20,3542.276240339,N,13943.266221695,E,5,02,99.90,24.625,M,36.995,M,4.2,4107*70
$GPGGA,073436.30,3542.276240342,N,13943.266221698,E,5,02,99.90,24.625,M,36.995,M,4.3,4107*71
$GPGGA,073436.40,3542.276240342,N,13943.266221704,E,5,02,99.90,24.625,M,36.995,M,4.4,4107*75
$GPGGA,073436.50,3542.276240344,N,13943.266221705,E,5,02,99.90,24.625,M,36.995,M,4.5,4107*72
$GPGGA,073436.60,3542.276240342,N,13943.266221709,E,5,02,99.90,24.625,M,36.995,M,4.6,4107*78
$GPGGA,073436.70,3542.276240340,N,13943.266221717,E,5,02,99.90,24.625,M,36.995,M,4.7,4107*75
$GPGGA,073436.80,3542.276240343,N,13943.266221718,E,5,02,99.90,24.625,M,36.995,M,4.8,4107*79
$GPGGA,073436.90,3542.276240344,N,13943.266221720,E,5,02,99.90,24.625,M,36.995,M,4.9,4107*75
$GPGGA,073437.00,3542.276240345,N,13943.266221722,E,5,02,99.90,24.625,M,36.995,M,5.0,4107*76
$GPGGA,073437.10,3542.276240343,N,13943.266221727,E,5,02,99.90,24.625,M,36.995,M,5.1,4107*75
$GPGGA,073437.20,3542.276240343,N,13943.266221731,E,5,02,99.90,24.625,M,36.995,M,5.2,4107*72
$GPGGA,073437.30,3542.276240344,N,13943.266221736,E,5,02,99.90,24.625,M,36.995,M,5.3,4107*72
$GPGGA,073437.40,3542.276240345,N,13943.266221739,E,5,02,99.90,24.625,M,36.995,M,5.4,4107*7C
$GPGGA,073437.50,3542.276240346,N,13943.266221740,E,5,02,99.90,24.625,M,36.995,M,5.5,4107*71
$GPGGA,073437.60,3542.276240347,N,13943.266221743,E,5,02,99.90,24.625,M,36.995,M,5.6,4107*73
$GPGGA,073437.70,3542.276240349,N,13943.266221745,E,5,02,99.90,24.625,M,36.995,M,5.7,4107*7B
$GPGGA,073437.80,3542.276240350,N,13943.266221747,E,5,02,99.90,24.625,M,36.995,M,5.8,4107*71
$GPGGA,073437.90,3542.276240351,N,13943.266221748,E,5,02,99.90,24.625,M,36.995,M,5.9,4107*7F
$GPGGA,073438.00,3542.276240350,N,13943.266221753,E,5,02,99.90,24.625,M,36.995,M,6.0,4107*78
$GPGGA,073438.10,3542.276240350,N,13943.266221752,E,5,02,99.90,24.625,M,36.995,M,6.1,4107*79
$GPGGA,073438.20,3542.276240350,N,13943.266221758,E,5,02,99.90,24.625,M,36.995,M,6.2,4107*73
$GPGGA,073438.30,3542.276240347,N,13943.266221765,E,5,02,99.90,24.625,M,36.995,M,6.3,4107*7B
$GPGGA,073438.40,3542.276240347,N,13943.266221767,E,5,02,99.90,24.625,M,36.995,M,6.4,4107*79
$GPGGA,073438.50,3542.276240346,N,13943.266221770,E,5,02,99.90,24.625,M,36.995,M,6.5,4107*7E
$GPGGA,073438.60,3542.276240347,N,13943.266221773,E,5,02,99.90,24.625,M,36.995,M,6.6,4107*7C
$GPGGA,073438.70,3542.276240347,N,13943.266221776,E,5,02,99.90,24.624,M,36.995,M,6.7,4107*78
$GPGGA,073438.80,3542.276240349,N,13943.266221777,E,5,02,99.90,24.624,M,36.995,M,6.8,4107*77
$GPGGA,073438.90,3542.276240349,N,13943.266221780,E,5,02,99.90,24.624,M,36.995,M,6.9,4107*7F
$GPGGA,073439.00,3542.276240351,N,13943.266221781,E,5,02,99.90,24.624,M,36.995,M,7.0,4107*77
$GPGGA,073439.10,3542.276240351,N,13943.266221783,E,5,02,99.90,24.624,M,36.995,M,2.1,4107*70
$GPGGA,073439.20,3542.276240351,N,13943.266221787,E,5,02,99.90,24.624,M,36.995,M,2.2,4107*74
$GPGGA,073439.30,3542.276240351,N,13943.266221791,E,5,02,99.90,24.624,M,36.995,M,2.3,4107*73
$GPGGA,073439.40,3542.276240353,N,13943.266221794,E,5,02,99.90,24.624,M,36.995,M,2.4,4107*74
$GPGGA,073439.50,3542.276240352,N,13943.266221798,E,5,02,99.90,24.624,M,36.995,M,2.5,4107*79
$GPGGA,073439.60,3542.276240352,N,13943.266221799,E,5,02,99.90,24.624,M,36.995,M,2.6,4107*78
$GPGGA,073439.70,3542.276240352,N,13943.266221802,E,5,02,99.90,24.624,M,36.995,M,2.7,4107*75
$GPGGA,073439.80,3542.276240354,N,13943.266221801,E,5,02,99.90,24.624,M,36.995,M,2.8,4107*70
$GPGGA,073439.90,3542.276240354,N,13943.266221801,E,5,02,99.90,24.624,M,36.995,M,2.9,4107*70
$GPGGA,073440.00,3542.276240353,N,13943.266221804,E,5,02,99.90,24.624,M,36.995,M,3.0,4107*7D
$GPGGA,073440.10,3542.276240350,N,13943.266221809,E,5,02,99.90,24.624,M,36.995,M,3.1,4107*73
$GPGGA,073440.20,3542.276240351,N,13943.266221810,E,5,02,99.90,24.624,M,36.995,M,3.2,4107*7A
$GPGGA,073440.30,3542.276240351,N,13943.266221813,E,5,02,99.90,24.624,M,36.995,M,3.3,4107*79
$GPGGA,073440.40,3542.276240351,N,13943.266221817,E,5,02,99.90,24.624,M,36.995,M,3.4,4107*7D
$GPGGA,073440.50,3542.276240349,N,13943.266221821,E,5,02,99.90,24.624,M,36.995,M,3.5,4107*71
$GPGGA,073440.60,3542.276240350,N,13943.266221822,E,5,02,99.90,24.624,M,36.995,M,3.6,4107*7A
$GPGGA,073440.70,3542.276240349,N,13943.266221825,E,5,02,99.90,24.624,M,36.995,M,3.7,4107*75
$GPGGA,073440.80,3542.276240348,N,13943.266221829,E,5,02,99.90,24.624,M,36.995,M,3.8,4107*78
$GPGGA,073440.90,3542.276240347,N,13943.266221834,E,5,02,99.90,24.624,M,36.995,M,3.9,4107*7B
$GPGGA,073441.00,3542.276240347,N,13943.266221833,E,5,02,99.90,24.624,M,36.995,M,4.0,4107*7A
$GPGGA,073441.10,3542.276240347,N,13943.266221837,E,5,02,99.90,24.624,M,36.995,M,4.1,4107*7E
$GPGGA,073441.20,3542.276240346,N,13943.266221839,E,5,02,99.90,24.624,M,36.995,M,4.2,4107*71
$GPGGA,073441.30,3542.276240344,N,13943.266221843,E,5,02,99.90,24.624,M,36.995,M,4.3,4107*7E
$GPGGA,073441.40,3542.276240343,N,13943.266221848,E,5,02,99.90,24.624,M,36.995,M,4.4,4107*72
$GPGGA,073441.50,3542.276240343,N,13943.266221851,E,5,02,99.90,24.624,M,36.995,M,4.5,4107*7A
$GPGGA,073441.60,3542.276240344,N,13943.266221856,E,5,02,99.90,24.624,M,36.995,M,4.6,4107*7A
$GPGGA,073441.70,3542.276240344,N,13943.266221860,E,5,02,99.90,24.624,M,36.995,M,4.7,4107*7F
$GPGGA,073441.80,3542.276240343,N,13943.266221866,E,5,02,99.90,24.623,M,36.995,M,4.8,4107*79
$GPGGA,073441.90,3542.276240343,N,13943.266221867,E,5,02,99.90,24.623,M,36.995,M,4.9,4107*78
$GPGGA,073442.00,3542.276240344,N,13943.266221871,E,5,02,99.90,24.623,M,36.995,M,5.0,4107*7A
$GPGGA,073442.10,3542.276240343,N,13943.266221875,E,5,02,99.90,24.623,M,36.995,M,5.1,4107*79
$GPGGA,073442.20,3542.276240343,N,13943.266221878,E,5,02,99.90,24.623,M,36.995,M,5.2,4107*74
$GPGGA,073442.30,3542.276240342,N,13943.266221883,E,5,02,99.90,24.623,M,36.995,M,5.3,4107*71
$GPGGA,073442.40,3542.276240340,N,13943.266221888,E,5,02,99.90,24.623,M,36.995,M,5.4,4107*78
$GPGGA,073442.50,3542.276240340,N,13943.266221892,E,5,02,99.90,24.623,M,36.995,M,5.5,4107*73
$GPGGA,073442.60,3542.276240338,N,13943.266221898,E,5,02,99.90,24.623,M,36.995,M,5.6,4107*76
$GPGGA,073442.70,3542.276240339,N,13943.266221903,E,5,02,99.90,24.623,M,36.995,M,5.7,4107*74
$GPGGA,073442.80,3542.276240340,N,13943.266221906,E,5,02,99.90,24.623,M,36.995,M,5.8,4107*7F
$GPGGA,073442.90,3542.276240338,N,13943.266221913,E,5,02,99.90,24.623,M,36.995,M,5.9,4107*74
$GPGGA,073443.00,3542.276240338,N,13943.266221917,E,5,02,99.90,24.623,M,36.995,M,6.0,4107*72
$GPGGA,073443.10,3542.276240340,N,13943.266221921,E,5,02,99.90,24.623,M,36.995,M,6.1,4107*78
$GPGGA,073443.20,3542.276240338,N,13943.266221925,E,5,02,99.90,24.623,M,36.995,M,6.2,4107*73
$GPGGA,073443.30,3542.276240339,N,13943.266221923,E,5,02,99.90,24.623,M,36.995,M,6.3,4107*74
$GPGGA,073443.40,3542.276240340,N,13943.266221922,E,5,02,99.90,24.623,M,36.995,M,6.4,4107*7B
$GPGGA,073443.50,3542.276240341,N,13943.266221921,E,5,02,99.90,24.623,M,36.995,M,6.5,4107*79
$GPGGA,073443.60,3542.276240342,N,13943.266221922,E,5,02,99.90,24.623,M,36.995,M,6.6,4107*79
$GPGGA,073443.70,3542.276240342,N,13943.266221923,E,5,02,99.90,24.623,M,36.995,M,6.7,4107*78
$GPGGA,073443.80,3542.276240343,N,13943.266221922,E,5,02,99.90,24.623,M,36.995,M,6.8,4107*78
$GPGGA,073443.90,3542.276240343,N,13943.266221925,E,5,02,99.90,24.623,M,36.995,M,6.9,4107*7F
$GPGGA,073444.00,3542.276240345,N,13943.266221921,E,5,02,99.90,24.623,M,36.995,M,7.0,4107*7B
$GPGGA,073444.10,3542.276240344,N,13943.266221923,E,5,02,99.90,24.623,M,36.995,M,7.1,4107*78
$GPGGA,073444.20,3542.276240342,N,13943.266221925,E,5,02,99.90,24.623,M,36.995,M,7.2,4107*78
$GPGGA,073444.30,3542.276240341,N,13943.266221928,E,5,02,99.90,24.623,M,36.995,M,7.3,4107*76
$GPGGA,073706.30,3542.276243127,N,13943.266225771,E,5,02,99.90,24.567,M,36.995,M,4.3,4107*74
$GPGGA,073706.40,3542.276243125,N,13943.266225773,E,5,02,99.90,24.567,M,36.995,M,4.4,4107*74
$GPGGA,073706.50,3542.276243122,N,13943.266225776,E,5,02,99.90,24.567,M,36.995,M,4.5,4107*76
$GPGGA,073706.60,3542.276243121,N,13943.266225777,E,5,02,99.90,24.567,M,36.995,M,4.6,4107*74
$GPGGA,073706.70,3542.276243121,N,13943.266225776,E,5,02,99.90,24.567,M,36.995,M,4.7,4107*75
$GPGGA,073706.80,3542.276243119,N,13943.266225778,E,5,02,99.90,24.567,M,36.995,M,4.8,4107*70
$GPGGA,073706.90,3542.276243116,N,13943.266225782,E,5,02,99.90,24.567,M,36.995,M,4.9,4107*7A
$GPGGA,073707.00,3542.276243114,N,13943.266225785,E,5,02,99.90,24.567,M,36.995,M,5.0,4107*7F
$GPGGA,073707.10,3542.276243118,N,13943.266225798,E,5,02,99.90,24.567,M,36.995,M,5.1,4107*7F
$GPGGA,073707.20,3542.276243123,N,13943.266225811,E,5,02,99.90,24.567,M,36.995,M,5.2,4107*79
$GPGGA,073707.30,3542.276243128,N,13943.266225823,E,5,02,99.90,24.566,M,36.995,M,5.3,4107*72
$GPGGA,073707.40,3542.276243133,N,13943.266225836,E,5,02,99.90,24.566,M,36.995,M,5.4,4107*7C
$GPGGA,073707.50,3542.276243139,N,13943.266225848,E,5,02,99.90,24.566,M,36.995,M,5.5,4107*7F
$GPGGA,073707.60,3542.276243144,N,13943.266225860,E,5,02,99.90,24.566,M,36.995,M,5.6,4107*7F
$GPGGA,073707.70,3542.276243149,N,13943.266225873,E,5,02,99.90,24.566,M,36.995,M,5.7,4107*70
$GPGGA,073707.80,3542.276243153,N,13943.266225885,E,5,02,99.90,24.566,M,36.995,M,5.8,4107*72
$GPGGA,073707.90,3542.276243158,N,13943.266225896,E,5,02,99.90,24.566,M,36.995,M,5.9,4107*7B
$GPGGA,073708.00,3542.276243163,N,13943.266225908,E,5,02,99.90,24.566,M,36.995,M,6.0,4107*79
$GPGGA,073708.10,3542.276243167,N,13943.266225921,E,5,02,99.90,24.566,M,36.995,M,6.1,4107*76
$GPGGA,073708.20,3542.276243173,N,13943.266225935,E,5,02,99.90,24.566,M,36.995,M,6.2,4107*76
$GPGGA,073708.30,3542.276243177,N,13943.266225948,E,5,02,99.90,24.566,M,36.995,M,6.3,4107*78
$GPGGA,073708.40,3542.276243179,N,13943.266225963,E,5,02,99.90,24.566,M,36.995,M,6.4,4107*7F
$GPGGA,073708.50,3542.276243185,N,13943.266225974,E,5,02,99.90,24.566,M,36.995,M,6.5,4107*7A
$GPGGA,073708.60,3542.276243189,N,13943.266225988,E,5,02,99.90,24.566,M,36.995,M,6.6,4107*75
$GPGGA,073708.70,3542.276243193,N,13943.266226003,E,5,02,99.90,24.566,M,36.995,M,6.7,4107*77
$GPGGA,073708.80,3542.276243196,N,13943.266226016,E,5,02,99.90,24.566,M,36.995,M,6.8,4107*76
$GPGGA,073708.90,3542.276243201,N,13943.266226030,E,5,02,99.90,24.566,M,36.995,M,6.9,4107*7F
$GPGGA,073709.00,3542.276243204,N,13943.266226045,E,5,02,99.90,24.566,M,36.995,M,7.0,4107*78
$GPGGA,073709.10,3542.276243210,N,13943.266226057,E,5,02,99.90,24.566,M,36.995,M,2.1,4107*7B
$GPGGA,073709.20,3542.276243208,N,13943.266226059,E,5,02,99.90,24.566,M,36.995,M,2.2,4107*7C
$GPGGA,073709.30,3542.276243207,N,13943.266226059,E,5,02,99.90,24.566,M,36.995,M,2.3,4107*73
$GPGGA,073709.40,3542.276243206,N,13943.266226060,E,5,02,99.90,24.566,M,36.995,M,2.4,4107*78
$GPGGA,073709.50,3542.276243205,N,13943.266226060,E,5,02,99.90,24.566,M,36.995,M,2.5,4107*7B
$GPGGA,073709.60,3542.276243205,N,13943.266226059,E,5,02,99.90,24.566,M,36.995,M,2.6,4107*71
$GPGGA,073709.70,3542.276243203,N,13943.266226059,E,5,02,99.90,24.566,M,36.995,M,2.7,4107*77
$GPGGA,073709.80,3542.276243201,N,13943.266226059,E,5,02,99.90,24.566,M,36.995,M,2.8,4107*75
$GPGGA,073709.90,3542.276243197,N,13943.266226063,E,5,02,99.90,24.566,M,36.995,M,2.9,4107*70
$GPGGA,073710.00,3542.276243195,N,13943.266226063,E,5,02,99.90,24.566,M,36.995,M,3.0,4107*7B
$GPGGA,073710.10,3542.276243191,N,13943.266226064,E,5,02,99.90,24.566,M,36.995,M,3.1,4107*78
$GPGGA,073710.20,3542.276243189,N,13943.266226065,E,5,02,99.90,24.566,M,36.995,M,3.2,4107*70
$GPGGA,073710.30,3542.276243186,N,13943.266226065,E,5,02,99.90,24.565,M,36.995,M,3.3,4107*7C
$GPGGA,073710.40,3542.276243185,N,13943.266226065,E,5,02,99.90,24.565,M,36.995,M,3.4,4107*7F
$GPGGA,073710.50,3542.276243187,N,13943.266226078,E,5,02,99.90,24.565,M,36.995,M,3.5,4107*71
$GPGGA,073710.60,3542.276243184,N,13943.266226079,E,5,02,99.90,24.565,M,36.995,M,3.6,4107*73
$GPGGA,073710.70,3542.276243182,N,13943.266226078,E,5,02,99.90,24.565,M,36.995,M,3.7,4107*74
$GPGGA,073710.80,3542.276243181,N,13943.266226078,E,5,02,99.90,24.565,M,36.995,M,3.8,4107*77
$GPGGA,073710.90,3542.276243180,N,13943.266226079,E,5,02,99.90,24.565,M,36.995,M,3.9,4107*77
$GPGGA,073711.00,3542.276243178,N,13943.266226079,E,5,02,99.90,24.565,M,36.995,M,4.0,4107*76
$GPGGA,073711.10,3542.276243177,N,13943.266226079,E,5,02,99.90,24.565,M,36.995,M,4.1,4107*79
$GPGGA,073711.20,3542.276243177,N,13943.266226076,E,5,02,99.90,24.565,M,36.995,M,4.2,4107*76
$GPGGA,073711.30,3542.276243177,N,13943.266226076,E,5,02,99.90,24.565,M,36.995,M,4.3,4107*76
$GPGGA,073711.40,3542.276243175,N,13943.266226076,E,5,02,99.90,24.565,M,36.995,M,4.4,4107*74
$GPGGA,073711.50,3542.276243174,N,13943.266226076,E,5,02,99.90,24.565,M,36.995,M,4.5,4107*75
$GPGGA,073711.60,3542.276243173,N,13943.266226077,E,5,02,99.90,24.565,M,36.995,M,4.6,4107*73
$GPGGA,073711.70,3542.276243172,N,13943.266226075,E,5,02,99.90,24.565,M,36.995,M,4.7,4107*70
$GPGGA,073711.80,3542.276243176,N,13943.266226087,E,5,02,99.90,24.565,M,36.995,M,4.8,4107*79
$GPGGA,073711.90,3542.276243178,N,13943.266226102,E,5,02,99.90,24.565,M,36.995,M,4.9,4107*7B
$GPGGA,073712.00,3542.276243184,N,13943.266226113,E,5,02,99.90,24.565,M,36.995,M,5.0,4107*7A
$GPGGA,073712.10,3542.276243190,N,13943.266226125,E,5,02,99.90,24.565,M,36.995,M,5.1,4107*7A
$GPGGA,073712.20,3542.276243194,N,13943.266226140,E,5,02,99.90,24.565,M,36.995,M,5.2,4107*7D
$GPGGA,073712.30,3542.276243198,N,13943.266226150,E,5,02,99.90,24.565,M,36.995,M,5.3,4107*70
$GPGGA,073712.40,3542.276243203,N,13943.266226160,E,5,02,99.90,24.565,M,36.995,M,5.4,4107*72
$GPGGA,073712.50,3542.276243207,N,13943.266226173,E,5,02,99.90,24.565,M,36.995,M,5.5,4107*74
$GPGGA,073712.60,3542.276243210,N,13943.266226186,E,5,02,99.90,24.565,M,36.995,M,5.6,4107*78
$GPGGA,073712.70,3542.276243214,N,13943.266226201,E,5,02,99.90,24.565,M,36.995,M,5.7,4107*70
$GPGGA,073712.80,3542.276243219,N,13943.266226213,E,5,02,99.90,24.565,M,36.995,M,5.8,4107*7E
$GPGGA,073712.90,3542.276243224,N,13943.266226224,E,5,02,99.90,24.565,M,36.995,M,5.9,4107*74
$GPGGA,073713.00,3542.276243228,N,13943.266226238,E,5,02,99.90,24.564,M,36.995,M,6.0,4107*76
$GPGGA,073713.10,3542.276243233,N,13943.266226252,E,5,02,99.90,24.564,M,36.995,M,6.1,4107*70
$GPGGA,073713.20,3542.276243237,N,13943.266226265,E,5,02,99.90,24.564,M,36.995,M,6.2,4107*70
$GPGGA,073713.30,3542.276243240,N,13943.266226279,E,5,02,99.90,24.564,M,36.995,M,6.3,4107*7D
$GPGGA,073713.40,3542.276243245,N,13943.266226290,E,5,02,99.90,24.564,M,36.995,M,6.4,4107*7F
$GPGGA,073713.50,3542.276243247,N,13943.266226304,E,5,02,99.90,24.564,M,36.995,M,6.5,4107*71
$GPGGA,073713.60,3542.276243253,N,13943.266226316,E,5,02,99.90,24.564,M,36.995,M,6.6,4107*77
$GPGGA,073713.70,3542.276243253,N,13943.266226328,E,5,02,99.90,24.564,M,36.995,M,6.7,4107*7A
$GPGGA,073713.80,3542.276243258,N,13943.266226340,E,5,02,99.90,24.564,M,36.995,M,6.8,4107*7F
$GPGGA,073713.90,3542.276243262,N,13943.266226351,E,5,02,99.90,24.564,M,36.995,M,6.9,4107*76
$GPGGA,073714.00,3542.276243267,N,13943.266226361,E,5,02,99.90,24.564,M,36.995,M,7.0,4107*76
$GPGGA,073714.10,3542.276243270,N,13943.266226373,E,5,02,99.90,24.564,M,36.995,M,7.1,4107*73
$GPGGA,073714.20,3542.276243275,N,13943.266226385,E,5,02,99.90,24.564,M,36.995,M,7.2,4107*7F
$GPGGA,073714.30,3542.276243278,N,13943.266226397,E,5,02,99.90,24.564,M,36.995,M,7.3,4107*71
$GPGGA,073714.40,3542.276243284,N,13943.266226407,E,5,02,99.90,24.564,M,36.995,M,7.4,4107*7C
$GPGGA,073714.50,3542.276243288,N,13943.266226419,E,5,02,99.90,24.564,M,36.995,M,7.5,4107*7F
$GPGGA,073714.60,3542.276243294,N,13943.266226430,E,5,02,99.90,24.564,M,36.995,M,7.6,4107*79
$GPGGA,073714.70,3542.276243298,N,13943.266226441,E,5,02,99.90,24.564,M,36.995,M,7.7,4107*73
$GPGGA,073714.80,3542.276243303,N,13943.266226454,E,5,02,99.90,24.564,M,36.995,M,7.8,4107*74
