Message Type,UTC Time,Latitude,Latitude Direction,Longitude,Longitude Direction,GPS Quality Indicator,Number of Satellites,Horizontal Dilution of Precision (HDOP),Altitude,Altitude Units,Geoid Separation,Geoid Separation Units,DGPS Age,DGPS Station ID,Checksum
$GPGGA,122356.20,3542.306148753,N,13943.279741884,E,5,11,1.05,24.819,M,36.998,M,4.2,7107,42
$GPGGA,122356.30,3542.306148708,N,13943.279742163,E,5,11,1.05,24.819,M,36.998,M,4.3,7107,4F
$GPGGA,122356.40,3542.306148756,N,13943.279742424,E,5,11,1.05,24.819,M,36.998,M,4.4,7107,42
$GPGGA,122356.50,3542.306148670,N,13943.279742647,E,5,11,1.05,24.819,M,36.998,M,4.5,7107,40
$GPGGA,122356.60,3542.306148584,N,13943.279742901,E,5,11,1.05,24.819,M,36.998,M,4.6,7107,45
$GPGGA,122356.70,3542.306148560,N,13943.279743129,E,5,11,1.05,24.819,M,36.998,M,4.7,7107,4C
$GPGGA,122356.80,3542.306148469,N,13943.279743307,E,5,11,1.05,24.820,M,36.998,M,4.8,7107,40
$GPGGA,122356.90,3542.306148403,N,13943.279743508,E,5,11,1.05,24.820,M,36.998,M,4.9,7107,45
$GPGGA,122357.00,3542.306148354,N,13943.279743696,E,5,11,1.05,24.820,M,36.998,M,5.0,7107,44
$GPGGA,122357.10,3542.306148242,N,13943.279743952,E,5,11,1.05,24.820,M,36.998,M,5.1,7107,45
$GPGGA,122357.20,3542.306148033,N,13943.279744401,E,5,11,1.05,24.820,M,36.998,M,5.2,7107,4D
$GPGGA,122357.30,3542.306147940,N,13943.279744661,E,5,11,1.05,24.821,M,36.998,M,5.3,7107,4A
$GPGGA,122357.40,3542.306147735,N,13943.279745044,E,5,12,0.97,24.821,M,36.998,M,5.4,7107,4F
$GPGGA,122357.50,3542.306147735,N,13943.279745277,E,5,12,0.97,24.822,M,36.998,M,5.5,7107,4E
$GPGGA,122357.60,3542.306147611,N,13943.279745730,E,5,12,0.97,24.822,M,36.998,M,5.6,7107,4F
$GPGGA,122357.70,3542.306147495,N,13943.279746009,E,5,12,0.97,24.822,M,36.998,M,5.7,7107,4F
$GPGGA,122357.80,3542.306147464,N,13943.279746325,E,5,12,0.97,24.823,M,36.998,M,5.8,7107,4D
$GPGGA,122357.90,3542.306147320,N,13943.279746652,E,5,12,0.97,24.823,M,36.998,M,5.9,7107,4F
$GPGGA,122358.00,3542.306147308,N,13943.279746959,E,5,12,0.97,24.823,M,36.998,M,6.0,7107,4D
$GPGGA,122358.10,3542.306147314,N,13943.279747085,E,5,12,0.97,24.823,M,36.998,M,1.1,7107,4E
$GPGGA,122358.20,3542.306147414,N,13943.279747141,E,5,12,0.97,24.823,M,36.998,M,1.2,7107,40
$GPGGA,122358.30,3542.306147513,N,13943.279747252,E,5,12,0.97,24.823,M,36.998,M,1.3,7107,47
$GPGGA,122358.40,3542.306147649,N,13943.279747309,E,5,12,0.97,24.823,M,36.998,M,1.4,7107,44
$GPGGA,122358.50,3542.306147741,N,13943.279747430,E,5,12,0.97,24.823,M,36.998,M,1.5,7107,40
$GPGGA,122358.60,3542.306147871,N,13943.279747482,E,5,12,0.97,24.823,M,36.998,M,1.6,7107,45
$GPGGA,122358.70,3542.306147894,N,13943.279747593,E,5,12,0.97,24.823,M,36.998,M,1.7,7107,4F
$GPGGA,122358.80,3542.306147951,N,13943.279747719,E,5,12,0.97,24.823,M,36.998,M,1.8,7107,47
$GPGGA,122358.90,3542.306148068,N,13943.279747779,E,5,12,0.97,24.823,M,36.998,M,1.9,7107,4D
$GPGGA,122359.00,3542.306144879,N,13943.279759121,E,5,12,0.97,24.837,M,36.998,M,2.0,7107,4A
$GPGGA,122359.10,3542.306143366,N,13943.279764604,E,5,12,0.97,24.843,M,36.998,M,2.1,7107,45
$GPGGA,122359.20,3542.306142273,N,13943.279768253,E,5,12,0.97,24.847,M,36.998,M,2.2,7107,4F
$GPGGA,122359.30,3542.306141501,N,13943.279770979,E,5,12,0.97,24.850,M,36.998,M,2.3,7107,42
$GPGGA,122359.40,3542.306140910,N,13943.279773173,E,5,12,0.97,24.853,M,36.998,M,2.4,7107,4D
$GPGGA,122359.50,3542.306141606,N,13943.279773862,E,5,12,0.97,24.853,M,36.998,M,2.5,7107,4D
$GPGGA,122359.60,3542.306141079,N,13943.279775501,E,5,12,0.97,24.854,M,36.998,M,2.6,7107,4A
$GPGGA,122359.70,3542.306140721,N,13943.279776888,E,5,12,0.97,24.856,M,36.998,M,2.7,7107,4C
$GPGGA,122359.80,3542.306140361,N,13943.279778064,E,5,12,0.97,24.857,M,36.998,M,2.8,7107,49
$GPGGA,122359.90,3542.306140125,N,13943.279779024,E,5,12,0.97,24.858,M,36.998,M,2.9,7107,41
$GPGGA,122400.00,3542.306139911,N,13943.279779966,E,5,12,0.97,24.859,M,36.998,M,3.0,7107,44
$GPGGA,122400.10,3542.306139680,N,13943.279780805,E,5,12,0.97,24.860,M,36.998,M,3.1,7107,4B
$GPGGA,122400.20,3542.306139909,N,13943.279780773,E,5,12,0.97,24.860,M,36.998,M,3.2,7107,4B
$GPGGA,122400.30,3542.306139743,N,13943.279780899,E,5,12,0.97,24.861,M,36.998,M,3.3,7107,41
$GPGGA,122400.40,3542.306139815,N,13943.279780980,E,5,12,0.97,24.862,M,36.998,M,3.4,7107,47
$GPGGA,122400.50,3542.306140045,N,13943.279781000,E,5,12,0.97,24.862,M,36.998,M,3.5,7107,44
$GPGGA,122400.60,3542.306140032,N,13943.279780880,E,5,12,0.97,24.862,M,36.998,M,3.6,7107,45
$GPGGA,122400.70,3542.306140074,N,13943.279780937,E,5,12,0.97,24.862,M,36.998,M,3.7,7107,4A
$GPGGA,122400.80,3542.306139996,N,13943.279781007,E,5,12,0.97,24.863,M,36.998,M,3.8,7107,4B
$GPGGA,122400.90,3542.306140023,N,13943.279781011,E,5,12,0.97,24.863,M,36.998,M,3.9,7107,45
$GPGGA,122401.00,3542.306139940,N,13943.279781077,E,5,12,0.97,24.863,M,36.998,M,4.0,7107,41
$GPGGA,122401.10,3542.306139936,N,13943.279781179,E,5,12,0.97,24.863,M,36.998,M,4.1,7107,4F
$GPGGA,122401.20,3542.306139913,N,13943.279781199,E,5,12,0.97,24.864,M,36.998,M,4.2,7107,41
$GPGGA,122401.30,3542.306139839,N,13943.279781189,E,5,12,0.97,24.864,M,36.998,M,4.3,7107,49
$GPGGA,122401.40,3542.306139802,N,13943.279781283,E,5,12,0.97,24.864,M,36.998,M,4.4,7107,48
$GPGGA,122401.50,3542.306139847,N,13943.279781275,E,5,12,0.97,24.864,M,36.998,M,4.5,7107,40
$GPGGA,122401.60,3542.306139942,N,13943.279781292,E,5,12,0.97,24.864,M,36.998,M,4.6,7107,4D
$GPGGA,122401.70,3542.306140100,N,13943.279781280,E,5,12,0.97,24.864,M,36.998,M,4.7,7107,4E
$GPGGA,122401.80,3542.306139944,N,13943.279781754,E,5,12,0.97,24.864,M,36.998,M,4.8,7107,44
$GPGGA,122401.90,3542.306139855,N,13943.279782193,E,5,12,0.97,24.865,M,36.998,M,4.9,7107,4A
$GPGGA,122402.00,3542.306139810,N,13943.279782580,E,5,12,0.97,24.865,M,36.998,M,5.0,7107,4F
$GPGGA,122402.10,3542.306139655,N,13943.279783002,E,5,12,0.97,24.865,M,36.998,M,5.1,7107,4E
$GPGGA,122402.20,3542.306139615,N,13943.279783262,E,5,12,0.97,24.866,M,36.998,M,5.2,7107,4D
$GPGGA,122402.30,3542.306139445,N,13943.279783685,E,5,12,0.97,24.866,M,36.998,M,5.3,7107,47
$GPGGA,122402.40,3542.306139374,N,13943.279784103,E,5,12,0.97,24.866,M,36.998,M,5.4,7107,4C
$GPGGA,122402.50,3542.306139350,N,13943.279784389,E,5,12,0.97,24.867,M,36.998,M,5.5,7107,4B
$GPGGA,122402.60,3542.306139245,N,13943.279784717,E,5,12,0.97,24.867,M,36.998,M,5.6,7107,4D
$GPGGA,122402.70,3542.306139169,N,13943.279784966,E,5,12,0.97,24.867,M,36.998,M,5.7,7107,48
$GPGGA,122402.80,3542.306139047,N,13943.279785308,E,5,12,0.97,24.867,M,36.998,M,5.8,7107,46
$GPGGA,122402.90,3542.306138974,N,13943.279785556,E,5,12,0.97,24.867,M,36.998,M,5.9,7107,43
$GPGGA,122403.00,3542.306138873,N,13943.279785777,E,5,12,0.97,24.868,M,36.998,M,6.0,7107,49
$GPGGA,122403.10,3542.306138850,N,13943.279786082,E,5,12,0.97,24.868,M,36.998,M,1.1,7107,41
$GPGGA,122403.20,3542.306138789,N,13943.279786128,E,5,12,0.97,24.868,M,36.998,M,1.2,7107,4B
$GPGGA,122403.30,3542.306138796,N,13943.279786218,E,5,12,0.97,24.868,M,36.998,M,1.3,7107,45
$GPGGA,122403.40,3542.306138775,N,13943.279786275,E,5,12,0.97,24.869,M,36.998,M,1.4,7107,42
$GPGGA,122403.50,3542.306138810,N,13943.279786254,E,5,12,0.97,24.869,M,36.998,M,1.5,7107,4D
$GPGGA,122403.60,3542.306138788,N,13943.279786375,E,5,12,0.97,24.869,M,36.998,M,1.6,7107,41
$GPGGA,122403.70,3542.306138735,N,13943.279786308,E,5,12,0.97,24.869,M,36.998,M,1.7,7107,4D
$GPGGA,122403.80,3542.306138722,N,13943.279786311,E,5,12,0.97,24.869,M,36.998,M,1.8,7107,43
$GPGGA,122403.90,3542.306138654,N,13943.279786308,E,5,12,0.97,24.870,M,36.998,M,1.9,7107,43
$GPGGA,122404.00,3542.306138658,N,13943.279786273,E,5,12,0.97,24.870,M,36.998,M,2.0,7107,46
$GPGGA,122404.10,3542.306137880,N,13943.279786977,E,5,12,0.97,24.881,M,36.998,M,2.1,7107,43
$GPGGA,122404.20,3542.306136586,N,13943.279792105,E,5,12,0.97,24.886,M,36.998,M,2.2,7107,46
$GPGGA,122404.30,3542.306135672,N,13943.279795304,E,5,12,0.97,24.889,M,36.998,M,2.3,7107,46
$GPGGA,122404.40,3542.306134979,N,13943.279797777,E,5,12,0.97,24.891,M,36.998,M,2.4,7107,48
$GPGGA,122404.50,3542.306134525,N,13943.279799551,E,5,12,0.97,24.893,M,36.998,M,2.5,7107,47
$GPGGA,122404.60,3542.306134086,N,13943.279801115,E,5,12,0.97,24.895,M,36.998,M,2.6,7107,47
$GPGGA,122404.70,3542.306133711,N,13943.279802386,E,5,12,0.97,24.896,M,36.998,M,2.7,7107,41
$GPGGA,122404.80,3542.306133429,N,13943.279803486,E,5,12,0.97,24.897,M,36.998,M,2.8,7107,4E
$GPGGA,122404.90,3542.306133244,N,13943.279804360,E,5,12,0.97,24.898,M,36.998,M,2.9,7107,44
$GPGGA,122405.00,3542.306133065,N,13943.279805216,E,5,12,0.97,24.899,M,36.998,M,3.0,7107,45
$GPGGA,122405.10,3542.306132927,N,13943.279805995,E,5,12,0.97,24.900,M,36.998,M,3.1,7107,4A
$GPGGA,122405.20,3542.306132662,N,13943.279806693,E,5,12,0.97,24.901,M,36.998,M,3.2,7107,4F
$GPGGA,122405.30,3542.306132459,N,13943.279807330,E,5,12,0.97,24.902,M,36.998,M,3.3,7107,4B
$GPGGA,122405.40,3542.306132218,N,13943.279807935,E,5,12,0.97,24.902,M,36.998,M,3.4,7107,47
$GPGGA,122405.50,3542.306132125,N,13943.279808477,E,5,12,0.97,24.903,M,36.998,M,3.5,7107,4F
$GPGGA,122405.60,3542.306131913,N,13943.279809052,E,5,12,0.97,24.903,M,36.998,M,3.6,7107,43
$GPGGA,122405.70,3542.306131713,N,13943.279809556,E,5,12,0.97,24.904,M,36.998,M,3.7,7107,4B
$GPGGA,122405.80,3542.306131563,N,13943.279809995,E,5,12,0.97,24.904,M,36.998,M,3.8,7107,4D
$GPGGA,122405.90,3542.306131509,N,13943.279810382,E,5,12,0.97,24.905,M,36.998,M,3.9,7107,44
$GPGGA,122406.00,3542.306131307,N,13943.279810889,E,5,12,0.97,24.905,M,36.998,M,4.0,7107,48
$GPGGA,122406.10,3542.306131151,N,13943.279811297,E,5,12,0.97,24.905,M,36.998,M,4.1,7107,4D
$GPGGA,122406.20,3542.306131096,N,13943.279811549,E,5,12,0.97,24.906,M,36.998,M,4.2,7107,40
$GPGGA,122406.30,3542.306131032,N,13943.279811845,E,5,12,0.97,24.906,M,36.998,M,4.3,7107,4F
$GPGGA,122406.40,3542.306130915,N,13943.279811796,E,5,12,0.97,24.906,M,36.998,M,4.4,7107,43
$GPGGA,122406.50,3542.306130826,N,13943.279812088,E,5,12,0.97,24.906,M,36.998,M,4.5,7107,49
$GPGGA,122406.60,3542.306130724,N,13943.279812392,E,5,12,0.97,24.907,M,36.998,M,4.6,7107,4D
$GPGGA,122406.70,3542.306130624,N,13943.279812745,E,5,12,0.97,24.907,M,36.998,M,4.7,7107,42
$GPGGA,122406.80,3542.306130521,N,13943.279813007,E,5,12,0.97,24.907,M,36.998,M,4.8,7107,44
$GPGGA,122406.90,3542.306130488,N,13943.279813155,E,5,12,0.97,24.908,M,36.998,M,4.9,7107,4F
$GPGGA,122407.00,3542.306130357,N,13943.279813446,E,5,12,0.97,24.908,M,36.998,M,5.0,7107,4D
$GPGGA,122407.10,3542.306130292,N,13943.279813523,E,5,12,0.97,24.908,M,36.998,M,5.1,7107,47
$GPGGA,122407.20,3542.306130205,N,13943.279813563,E,5,12,0.97,24.908,M,36.998,M,5.2,7107,4D
$GPGGA,122407.30,3542.306130231,N,13943.279813559,E,5,12,0.97,24.909,M,36.998,M,5.3,7107,42
$GPGGA,122407.40,3542.306130113,N,13943.279813596,E,5,12,0.97,24.909,M,36.998,M,5.4,7107,42
$GPGGA,122407.50,3542.306130087,N,13943.279813601,E,5,12,0.97,24.909,M,36.998,M,5.5,7107,43
$GPGGA,122407.60,3542.306130050,N,13943.279813752,E,5,12,0.97,24.910,M,36.998,M,5.6,7107,46
$GPGGA,122407.70,3542.306129979,N,13943.279813834,E,5,12,0.97,24.910,M,36.998,M,5.7,7107,43
$GPGGA,122407.80,3542.306129918,N,13943.279813897,E,5,12,0.97,24.910,M,36.998,M,5.8,7107,4D
$GPGGA,122407.90,3542.306129788,N,13943.279813924,E,5,12,0.97,24.910,M,36.998,M,5.9,7107,43
$GPGGA,122408.00,3542.306129778,N,13943.279813921,E,5,12,0.97,24.911,M,36.998,M,6.0,7107,44
$GPGGA,122408.10,3542.306129695,N,13943.279813987,E,5,12,0.97,24.911,M,36.998,M,1.1,7107,4D
$GPGGA,122408.20,3542.306129668,N,13943.279814015,E,5,12,0.97,24.911,M,36.998,M,1.2,7107,4A
$GPGGA,122408.30,3542.306129550,N,13943.279814152,E,5,12,0.97,24.911,M,36.998,M,1.3,7107,40
$GPGGA,122408.40,3542.306129521,N,13943.279814183,E,5,12,0.97,24.912,M,36.998,M,1.4,7107,49
$GPGGA,122408.50,3542.306129521,N,13943.279814222,E,5,12,0.97,24.912,M,36.998,M,1.5,7107,41
$GPGGA,122408.60,3542.306129492,N,13943.279814156,E,5,12,0.97,24.912,M,36.998,M,1.6,7107,48
$GPGGA,122408.70,3542.306129396,N,13943.279814255,E,5,12,0.97,24.912,M,36.998,M,1.7,7107,4B
$GPGGA,122408.80,3542.306129373,N,13943.279814289,E,5,12,0.97,24.912,M,36.998,M,1.8,7107,41
$GPGGA,122408.90,3542.306129322,N,13943.279814272,E,5,12,0.97,24.913,M,36.998,M,1.9,7107,40
$GPGGA,122409.00,3542.306129380,N,13943.279814243,E,5,12,0.97,24.913,M,36.998,M,2.0,7107,48
$GPGGA,122409.10,3542.306129389,N,13943.279814228,E,5,12,0.97,24.913,M,36.998,M,2.1,7107,4C
$GPGGA,122409.20,3542.306126639,N,13943.279819686,E,5,12,0.97,24.920,M,36.998,M,2.2,7107,40
$GPGGA,122409.30,3542.306125846,N,13943.279819542,E,5,12,0.97,24.926,M,36.998,M,2.3,7107,48
$GPGGA,122409.40,3542.306125481,N,13943.279819393,E,5,12,0.97,24.930,M,36.998,M,2.4,7107,42
$GPGGA,122409.50,3542.306124830,N,13943.279820690,E,5,12,0.97,24.932,M,36.998,M,2.5,7107,4B
$GPGGA,122409.60,3542.306124351,N,13943.279821726,E,5,12,0.97,24.933,M,36.998,M,2.6,7107,4B
$GPGGA,122409.70,3542.306124007,N,13943.279822705,E,5,12,0.97,24.934,M,36.998,M,2.7,7107,4E
$GPGGA,122409.80,3542.306123707,N,13943.279823501,E,5,12,0.97,24.935,M,36.998,M,2.8,7107,48
$GPGGA,122409.90,3542.306123464,N,13943.279824225,E,5,12,0.97,24.936,M,36.998,M,2.9,7107,4B
$GPGGA,122410.00,3542.306123228,N,13943.279824768,E,5,12,0.97,24.937,M,36.998,M,3.0,7107,41
$GPGGA,122410.10,3542.306123018,N,13943.279825319,E,5,12,0.97,24.937,M,36.998,M,3.1,7107,43
$GPGGA,122410.20,3542.306122913,N,13943.279825812,E,5,12,0.97,24.938,M,36.998,M,3.2,7107,4F
$GPGGA,122410.30,3542.306122754,N,13943.279826194,E,5,12,0.97,24.938,M,36.998,M,3.3,7107,46
$GPGGA,122410.40,3542.306122611,N,13943.279826611,E,5,12,0.97,24.939,M,36.998,M,3.4,7107,4D
$GPGGA,122410.50,3542.306122385,N,13943.279827007,E,5,12,0.97,24.939,M,36.998,M,3.5,7107,45
$GPGGA,122410.60,3542.306122316,N,13943.279827336,E,5,12,0.97,24.940,M,36.998,M,3.6,7107,40
$GPGGA,122410.70,3542.306122254,N,13943.279827669,E,5,12,0.97,24.940,M,36.998,M,3.7,7107,48
$GPGGA,122410.80,3542.306122067,N,13943.279827922,E,5,12,0.97,24.940,M,36.998,M,3.8,7107,4A
$GPGGA,122410.90,3542.306121896,N,13943.279828313,E,5,12,0.97,24.941,M,36.998,M,3.9,7107,49
$GPGGA,122411.00,3542.306121905,N,13943.279828438,E,5,12,0.97,24.941,M,36.998,M,4.0,7107,4A
$GPGGA,122411.10,3542.306121767,N,13943.279828700,E,5,12,0.97,24.941,M,36.998,M,4.1,7107,48
$GPGGA,122411.20,3542.306121741,N,13943.279829019,E,5,12,0.97,24.942,M,36.998,M,4.2,7107,41
$GPGGA,122411.30,3542.306121661,N,13943.279829136,E,5,12,0.97,24.942,M,36.998,M,4.3,7107,4E
$GPGGA,122411.40,3542.306121579,N,13943.279829417,E,5,12,0.97,24.942,M,36.998,M,4.4,7107,42
$GPGGA,122411.50,3542.306121507,N,13943.279829606,E,5,12,0.97,24.942,M,36.998,M,4.5,7107,49
$GPGGA,122411.60,3542.306121463,N,13943.279829782,E,5,12,0.97,24.943,M,36.998,M,4.6,7107,46
$GPGGA,122411.70,3542.306121497,N,13943.279829895,E,5,12,0.97,24.943,M,36.998,M,4.7,7107,44
$GPGGA,122411.80,3542.306121518,N,13943.279829995,E,5,12,0.97,24.943,M,36.998,M,4.8,7107,43
$GPGGA,122411.90,3542.306121462,N,13943.279830139,E,5,12,0.97,24.943,M,36.998,M,4.9,7107,49
$GPGGA,122412.00,3542.306121449,N,13943.279830316,E,5,12,0.97,24.944,M,36.998,M,5.0,7107,4A
$GPGGA,122412.10,3542.306121363,N,13943.279830456,E,5,12,0.97,24.944,M,36.998,M,5.1,7107,46
$GPGGA,122412.20,3542.306121382,N,13943.279830530,E,5,12,0.97,24.944,M,36.998,M,5.2,7107,48
$GPGGA,122412.30,3542.306121336,N,13943.279830669,E,5,12,0.97,24.944,M,36.998,M,5.3,7107,48
$GPGGA,122412.40,3542.306121378,N,13943.279830768,E,5,12,0.97,24.944,M,36.998,M,5.4,7107,42
$GPGGA,122412.50,3542.306121389,N,13943.279830922,E,5,12,0.97,24.945,M,36.998,M,5.5,7107,4D
$GPGGA,122412.60,3542.306121361,N,13943.279830991,E,5,12,0.97,24.945,M,36.998,M,5.6,7107,43
$GPGGA,122412.70,3542.306121325,N,13943.279831127,E,5,12,0.97,24.945,M,36.998,M,5.7,7107,47
$GPGGA,122412.80,3542.306121295,N,13943.279831223,E,5,12,0.97,24.945,M,36.998,M,5.8,7107,4A
$GPGGA,122412.90,3542.306121219,N,13943.279831337,E,5,12,0.97,24.945,M,36.998,M,5.9,7107,4A
$GPGGA,122413.00,3542.306121168,N,13943.279831445,E,5,12,0.97,24.945,M,36.998,M,6.0,7107,4F
$GPGGA,122413.10,3542.306121229,N,13943.279831431,E,5,12,0.97,24.946,M,36.998,M,6.1,7107,49
$GPGGA,122413.20,3542.306121180,N,13943.279831494,E,5,12,0.97,24.946,M,36.998,M,6.2,7107,46
$GPGGA,122413.30,3542.306121157,N,13943.279831600,E,5,12,0.97,24.946,M,36.998,M,6.3,7107,43
$GPGGA,122413.40,3542.306121123,N,13943.279831697,E,5,12,0.97,24.946,M,36.998,M,6.4,7107,4E
$GPGGA,122413.50,3542.306121204,N,13943.279831712,E,5,12,0.97,24.946,M,36.998,M,6.5,7107,44
$GPGGA,122413.60,3542.306121200,N,13943.279831792,E,5,12,0.97,24.946,M,36.998,M,6.6,7107,48
$GPGGA,122413.70,3542.306121153,N,13943.279831933,E,5,12,0.97,24.946,M,36.998,M,6.7,7107,48
$GPGGA,122413.80,3542.306121051,N,13943.279831949,E,5,12,0.97,24.946,M,36.998,M,6.8,7107,46
$GPGGA,122413.90,3542.306121156,N,13943.279832040,E,5,12,0.97,24.947,M,36.998,M,6.9,7107,42
$GPGGA,122414.00,3542.306121162,N,13943.279832147,E,5,12,0.97,24.947,M,36.998,M,7.0,7107,45
$GPGGA,122414.10,3542.306121104,N,13943.279832195,E,5,12,0.97,24.947,M,36.998,M,2.1,7107,4F
$GPGGA,122414.20,3542.306121187,N,13943.279832299,E,5,12,0.97,24.947,M,36.998,M,2.2,7107,4B
$GPGGA,122414.30,3542.306120689,N,13943.279835309,E,5,12,0.97,24.953,M,36.998,M,2.3,7107,49
$GPGGA,122414.40,3542.306120308,N,13943.279836787,E,5,12,0.97,24.956,M,36.998,M,2.4,7107,41
$GPGGA,122414.50,3542.306120141,N,13943.279837667,E,5,12,0.97,24.958,M,36.998,M,2.5,7107,4E
$GPGGA,122414.60,3542.306119883,N,13943.279838245,E,5,12,0.97,24.959,M,36.998,M,2.6,7107,49
$GPGGA,122414.70,3542.306119765,N,13943.279838876,E,5,12,0.97,24.961,M,36.998,M,2.7,7107,4F
$GPGGA,122414.80,3542.306119737,N,13943.279839380,E,5,12,0.97,24.962,M,36.998,M,2.8,7107,48
$GPGGA,122414.90,3542.306119561,N,13943.279839850,E,5,12,0.97,24.963,M,36.998,M,2.9,7107,4E
$GPGGA,122415.00,3542.306119405,N,13943.279840296,E,5,12,0.97,24.964,M,36.998,M,3.0,7107,44
$GPGGA,122415.10,3542.306119289,N,13943.279840737,E,5,12,0.97,24.964,M,36.998,M,3.1,7107,48
$GPGGA,122415.20,3542.306119193,N,13943.279840993,E,5,12,0.97,24.965,M,36.998,M,3.2,7107,41
$GPGGA,122415.30,3542.306119100,N,13943.279841213,E,5,12,0.97,24.965,M,36.998,M,3.3,7107,49
$GPGGA,122415.40,3542.306119024,N,13943.279841434,E,5,12,0.97,24.966,M,36.998,M,3.4,7107,4E
$GPGGA,122415.50,3542.306118894,N,13943.279841631,E,5,12,0.97,24.966,M,36.998,M,3.5,7107,4B
$GPGGA,122415.60,3542.306118692,N,13943.279841900,E,5,12,0.97,24.967,M,36.998,M,3.6,7107,4F
$GPGGA,122415.70,3542.306118746,N,13943.279842014,E,5,12,0.97,24.967,M,36.998,M,3.7,7107,48
$GPGGA,122415.80,3542.306118712,N,13943.279842303,E,5,12,0.97,24.968,M,36.998,M,3.8,7107,43
$GPGGA,122415.90,3542.306118709,N,13943.279842542,E,5,12,0.97,24.968,M,36.998,M,3.9,7107,4A
$GPGGA,122416.00,3542.306118700,N,13943.279842603,E,5,12,0.97,24.969,M,36.998,M,4.0,7107,40
$GPGGA,122416.10,3542.306118557,N,13943.279842603,E,5,12,0.97,24.969,M,36.998,M,4.1,7107,40
$GPGGA,122416.20,3542.306118508,N,13943.279842777,E,5,12,0.97,24.969,M,36.998,M,4.2,7107,48
$GPGGA,122416.30,3542.306118428,N,13943.279842905,E,5,12,0.97,24.970,M,36.998,M,4.3,7107,48
$GPGGA,122416.40,3542.306118471,N,13943.279843021,E,5,12,0.97,24.970,M,36.998,M,4.4,7107,4A
$GPGGA,122416.50,3542.306118476,N,13943.279843172,E,5,12,0.97,24.970,M,36.998,M,4.5,7107,4A
$GPGGA,122416.60,3542.306118353,N,13943.279843286,E,5,12,0.97,24.971,M,36.998,M,4.6,7107,43
$GPGGA,122416.70,3542.306118371,N,13943.279843459,E,5,12,0.97,24.971,M,36.998,M,4.7,7107,47
$GPGGA,122416.80,3542.306118404,N,13943.279843393,E,5,12,0.97,24.971,M,36.998,M,4.8,7107,43
$GPGGA,122416.90,3542.306118360,N,13943.279843630,E,5,12,0.97,24.972,M,36.998,M,4.9,7107,49
$GPGGA,122417.00,3542.306118308,N,13943.279843813,E,5,12,0.97,24.972,M,36.998,M,5.0,7107,48
$GPGGA,122417.10,3542.306118351,N,13943.279843850,E,5,12,0.97,24.972,M,36.998,M,5.1,7107,43
$GPGGA,122417.20,3542.306118237,N,13943.279844039,E,5,12,0.97,24.972,M,36.998,M,5.2,7107,42
$GPGGA,122417.30,3542.306118273,N,13943.279844111,E,5,12,0.97,24.972,M,36.998,M,5.3,7107,49
$GPGGA,122417.40,3542.306118192,N,13943.279844197,E,5,12,0.97,24.973,M,36.998,M,5.4,7107,4A
$GPGGA,122417.50,3542.306118253,N,13943.279844201,E,5,12,0.97,24.973,M,36.998,M,5.5,7107,48
$GPGGA,122417.60,3542.306118227,N,13943.279844336,E,5,12,0.97,24.973,M,36.998,M,5.6,7107,4E
$GPGGA,122417.70,3542.306118183,N,13943.279844430,E,5,12,0.97,24.973,M,36.998,M,5.7,7107,42
$GPGGA,122417.80,3542.306118203,N,13943.279844429,E,5,12,0.97,24.973,M,36.998,M,5.8,7107,41
$GPGGA,122417.90,3542.306118177,N,13943.279844461,E,5,12,0.97,24.973,M,36.998,M,5.9,7107,4D
$GPGGA,122418.00,3542.306118104,N,13943.279844648,E,5,12,0.97,24.974,M,36.998,M,6.0,7107,4B
$GPGGA,122418.10,3542.306118129,N,13943.279844695,E,5,12,0.97,24.974,M,36.998,M,1.1,7107,43
$GPGGA,122418.20,3542.306118136,N,13943.279844691,E,5,12,0.97,24.974,M,36.998,M,1.2,7107,49
$GPGGA,122418.30,3542.306118117,N,13943.279844742,E,5,12,0.97,24.974,M,36.998,M,1.3,7107,45
$GPGGA,122418.40,3542.306118131,N,13943.279844763,E,5,12,0.97,24.974,M,36.998,M,1.4,7107,42
$GPGGA,122418.50,3542.306118184,N,13943.279844787,E,5,12,0.97,24.974,M,36.998,M,1.5,7107,46
$GPGGA,122418.60,3542.306118170,N,13943.279844822,E,5,12,0.97,24.974,M,36.998,M,1.6,7107,4D
$GPGGA,122418.70,3542.306118199,N,13943.279844808,E,5,12,0.97,24.974,M,36.998,M,1.7,7107,42
$GPGGA,122418.80,3542.306118102,N,13943.279844886,E,5,12,0.97,24.975,M,36.998,M,1.8,7107,47
$GPGGA,122418.90,3542.306118159,N,13943.279844884,E,5,12,0.97,24.975,M,36.998,M,1.9,7107,4B
$GPGGA,122419.00,3542.306118175,N,13943.279844854,E,5,12,0.97,24.975,M,36.998,M,2.0,7107,4A
$GPGGA,122419.10,3542.306118213,N,13943.279844873,E,5,12,0.97,24.975,M,36.998,M,2.1,7107,4C
$GPGGA,122419.20,3542.306118209,N,13943.279844886,E,5,12,0.97,24.975,M,36.998,M,2.2,7107,4D
$GPGGA,122419.30,3542.306118239,N,13943.279844802,E,5,12,0.97,24.975,M,36.998,M,2.3,7107,42
$GPGGA,122419.40,3542.306118441,N,13943.279845708,E,5,12,0.97,24.979,M,36.998,M,2.4,7107,43
$GPGGA,122419.50,3542.306118371,N,13943.279846240,E,5,12,0.97,24.981,M,36.998,M,2.5,7107,4A
$GPGGA,122419.60,3542.306118265,N,13943.279846588,E,5,12,0.97,24.982,M,36.998,M,2.6,7107,4E
$GPGGA,122419.70,3542.306118313,N,13943.279847032,E,5,12,0.97,24.983,M,36.998,M,2.7,7107,4A
$GPGGA,122419.80,3542.306118437,N,13943.279847407,E,5,12,0.97,24.985,M,36.998,M,2.8,7107,4F
$GPGGA,122419.90,3542.306118422,N,13943.279847540,E,5,12,0.97,24.985,M,36.998,M,2.9,7107,49
$GPGGA,122420.00,3542.306118321,N,13943.279847752,E,5,12,0.97,24.986,M,36.998,M,3.0,7107,44
$GPGGA,122420.10,3542.306118224,N,13943.279847791,E,5,12,0.97,24.986,M,36.998,M,3.1,7107,4F
$GPGGA,122420.20,3542.306118134,N,13943.279847854,E,5,12,0.97,24.987,M,36.998,M,3.2,7107,4A
$GPGGA,122420.30,3542.306118167,N,13943.279847924,E,5,12,0.97,24.987,M,36.998,M,3.3,7107,4A
$GPGGA,122420.40,3542.306118164,N,13943.279847923,E,5,12,0.97,24.988,M,36.998,M,3.4,7107,41
$GPGGA,122420.50,3542.306118130,N,13943.279847971,E,5,12,0.97,24.988,M,36.998,M,3.5,7107,47
$GPGGA,122420.60,3542.306118051,N,13943.279848065,E,5,12,0.97,24.988,M,36.998,M,3.6,7107,42
$GPGGA,122420.70,3542.306117951,N,13943.279848084,E,5,12,0.97,24.988,M,36.998,M,3.7,7107,4B
$GPGGA,122420.80,3542.306117928,N,13943.279848223,E,5,12,0.97,24.989,M,36.998,M,3.8,7107,4B
$GPGGA,122420.90,3542.306117825,N,13943.279848367,E,5,12,0.97,24.989,M,36.998,M,3.9,7107,46
$GPGGA,122421.00,3542.306117761,N,13943.279848436,E,5,12,0.97,24.989,M,36.998,M,4.0,7107,4C
$GPGGA,122421.10,3542.306117757,N,13943.279848516,E,5,12,0.97,24.990,M,36.998,M,4.1,7107,42
$GPGGA,122421.20,3542.306117732,N,13943.279848486,E,5,12,0.97,24.990,M,36.998,M,4.2,7107,49
$GPGGA,122421.30,3542.306117674,N,13943.279848617,E,5,12,0.97,24.990,M,36.998,M,4.3,7107,40
$GPGGA,122421.40,3542.306117660,N,13943.279848637,E,5,12,0.97,24.990,M,36.998,M,4.4,7107,47
$GPGGA,122421.50,3542.306117600,N,13943.279848704,E,5,12,0.97,24.990,M,36.998,M,4.5,7107,40
$GPGGA,122421.60,3542.306117553,N,13943.279848808,E,5,12,0.97,24.991,M,36.998,M,4.6,7107,47
$GPGGA,122421.70,3542.306117564,N,13943.279848816,E,5,12,0.97,24.991,M,36.998,M,4.7,7107,4C
$GPGGA,122421.80,3542.306117517,N,13943.279848943,E,5,12,0.97,24.991,M,36.998,M,4.8,7107,49
$GPGGA,122421.90,3542.306117457,N,13943.279848854,E,5,12,0.97,24.991,M,36.998,M,4.9,7107,4B
$GPGGA,122422.00,3542.306117456,N,13943.279848886,E,5,12,0.97,24.991,M,36.998,M,5.0,7107,47
$GPGGA,122422.10,3542.306117381,N,13943.279848994,E,5,12,0.97,24.992,M,36.998,M,5.1,7107,4B
$GPGGA,122422.20,3542.306117422,N,13943.279848995,E,5,12,0.97,24.992,M,36.998,M,5.2,7107,44
$GPGGA,122422.30,3542.306117365,N,13943.279848995,E,5,12,0.97,24.992,M,36.998,M,5.3,7107,40
$GPGGA,122422.40,3542.306117278,N,13943.279849090,E,5,12,0.97,24.992,M,36.998,M,5.4,7107,40
$GPGGA,122422.50,3542.306117259,N,13943.279849136,E,5,12,0.97,24.992,M,36.998,M,5.5,7107,4E
$GPGGA,122422.60,3542.306117332,N,13943.279849079,E,5,12,0.97,24.993,M,36.998,M,5.6,7107,49
$GPGGA,122422.70,3542.306117303,N,13943.279849227,E,5,12,0.97,24.993,M,36.998,M,5.7,7107,42
$GPGGA,122422.80,3542.306117296,N,13943.279849327,E,5,12,0.97,24.993,M,36.998,M,5.8,7107,4E
$GPGGA,122422.90,3542.306117186,N,13943.279849368,E,5,12,0.97,24.993,M,36.998,M,5.9,7107,47
$GPGGA,122423.00,3542.306117170,N,13943.279849424,E,5,12,0.97,24.993,M,36.998,M,6.0,7107,43
$GPGGA,122423.10,3542.306117128,N,13943.279849488,E,5,12,0.97,24.993,M,36.998,M,1.1,7107,4F
$GPGGA,122423.20,3542.306117154,N,13943.279849551,E,5,12,0.97,24.994,M,36.998,M,1.2,7107,46
$GPGGA,122423.30,3542.306117062,N,13943.279849659,E,5,12,0.97,24.994,M,36.998,M,1.3,7107,49
$GPGGA,122423.40,3542.306117131,N,13943.279849658,E,5,12,0.97,24.994,M,36.998,M,1.4,7107,4F
$GPGGA,122423.50,3542.306117039,N,13943.279849690,E,5,12,0.97,24.994,M,36.998,M,1.5,7107,42
$GPGGA,122423.60,3542.306117048,N,13943.279849768,E,5,12,0.97,24.994,M,36.998,M,1.6,7107,42
$GPGGA,122423.70,3542.306117047,N,13943.279849814,E,5,12,0.97,24.994,M,36.998,M,1.7,7107,49
$GPGGA,122423.80,3542.306116959,N,13943.279849926,E,5,12,0.97,24.995,M,36.998,M,1.8,7107,4F
$GPGGA,122423.90,3542.306116932,N,13943.279850040,E,5,12,0.97,24.995,M,36.998,M,1.9,7107,43
$GPGGA,122424.00,3542.306116963,N,13943.279849972,E,5,12,0.97,24.995,M,36.998,M,2.0,7107,43
$GPGGA,122424.10,3542.306116874,N,13943.279849995,E,5,12,0.97,24.995,M,36.998,M,2.1,7107,4D
$GPGGA,122424.20,3542.306116964,N,13943.279850028,E,5,12,0.97,24.995,M,36.998,M,2.2,7107,4A
$GPGGA,122424.30,3542.306116980,N,13943.279850002,E,5,12,0.97,24.995,M,36.998,M,2.3,7107,48
$GPGGA,122424.40,3542.306116976,N,13943.279850086,E,5,12,0.97,24.995,M,36.998,M,2.4,7107,4D
$GPGGA,122424.50,3542.306118957,N,13943.279851721,E,5,12,0.97,24.997,M,36.998,M,2.5,7107,49
$GPGGA,122424.60,3542.306119890,N,13943.279852448,E,5,12,0.97,24.998,M,36.998,M,2.6,7107,42
$GPGGA,122424.70,3542.306120435,N,13943.279853029,E,5,12,0.97,25.000,M,36.998,M,2.7,7107,40
$GPGGA,122424.80,3542.306120711,N,13943.279853522,E,5,12,0.97,25.001,M,36.998,M,2.8,7107,4A
$GPGGA,122424.90,3542.306120968,N,13943.279853800,E,5,12,0.97,25.002,M,36.998,M,2.9,7107,44
$GPGGA,122425.00,3542.306120885,N,13943.279854073,E,5,12,0.97,25.003,M,36.998,M,3.0,7107,4C
$GPGGA,122425.10,3542.306121120,N,13943.279854259,E,5,12,0.97,25.003,M,36.998,M,3.1,7107,41
$GPGGA,122425.20,3542.306121296,N,13943.279854489,E,5,12,0.97,25.004,M,36.998,M,3.2,7107,43
$GPGGA,122425.30,3542.306121416,N,13943.279854760,E,5,12,0.97,25.004,M,36.998,M,3.3,7107,49
$GPGGA,122425.40,3542.306121508,N,13943.279854910,E,5,12,0.97,25.004,M,36.998,M,3.4,7107,4E
$GPGGA,122425.50,3542.306121726,N,13943.279855008,E,5,12,0.97,25.004,M,36.998,M,3.5,7107,41
$GPGGA,122425.60,3542.306121752,N,13943.279855138,E,5,12,0.97,25.005,M,36.998,M,3.6,7107,41
$GPGGA,122425.70,3542.306121870,N,13943.279855306,E,5,12,0.97,25.005,M,36.998,M,3.7,7107,41
$GPGGA,122425.80,3542.306122056,N,13943.279855355,E,5,12,0.97,25.005,M,36.998,M,3.8,7107,48
$GPGGA,122425.90,3542.306122256,N,13943.279855290,E,5,12,0.97,25.006,M,36.998,M,3.9,7107,41
$GPGGA,122426.00,3542.306122321,N,13943.279855314,E,5,12,0.97,25.006,M,36.998,M,4.0,7107,49
$GPGGA,122426.10,3542.306122334,N,13943.279855384,E,5,12,0.97,25.006,M,36.998,M,4.1,7107,44
$GPGGA,122426.20,3542.306122369,N,13943.279855466,E,5,12,0.97,25.006,M,36.998,M,4.2,7107,47
$GPGGA,122426.30,3542.306122394,N,13943.279855514,E,5,12,0.97,25.006,M,36.998,M,4.3,7107,41
$GPGGA,122426.40,3542.306122541,N,13943.279855323,E,5,12,0.97,25.007,M,36.998,M,4.4,7107,4C
$GPGGA,122426.50,3542.306122576,N,13943.279855341,E,5,12,0.97,25.007,M,36.998,M,4.5,7107,4C
$GPGGA,122426.60,3542.306122665,N,13943.279855309,E,5,12,0.97,25.007,M,36.998,M,4.6,7107,41
$GPGGA,122426.70,3542.306122720,N,13943.279855245,E,5,12,0.97,25.007,M,36.998,M,4.7,7107,48
$GPGGA,122426.80,3542.306122797,N,13943.279855313,E,5,12,0.97,25.007,M,36.998,M,4.8,7107,46
$GPGGA,122426.90,3542.306122979,N,13943.279855347,E,5,12,0.97,25.007,M,36.998,M,4.9,7107,49
$GPGGA,122427.00,3542.306123039,N,13943.279855361,E,5,12,0.97,25.007,M,36.998,M,5.0,7107,41
$GPGGA,122427.10,3542.306123110,N,13943.279855388,E,5,12,0.97,25.007,M,36.998,M,5.1,7107,4C
$GPGGA,122427.20,3542.306123183,N,13943.279855473,E,5,12,0.97,25.008,M,36.998,M,5.2,7107,4A
$GPGGA,122427.30,3542.306123294,N,13943.279855465,E,5,12,0.97,25.008,M,36.998,M,5.3,7107,48
$GPGGA,122427.40,3542.306123405,N,13943.279855488,E,5,12,0.97,25.008,M,36.998,M,5.4,7107,45
$GPGGA,122427.50,3542.306123458,N,13943.279855498,E,5,12,0.97,25.008,M,36.998,M,5.5,7107,4C
$GPGGA,122427.60,3542.306123567,N,13943.279855577,E,5,12,0.97,25.008,M,36.998,M,5.6,7107,41
$GPGGA,122427.70,3542.306123565,N,13943.279855502,E,5,12,0.97,25.008,M,36.998,M,5.7,7107,41
$GPGGA,122427.80,3542.306123747,N,13943.279855574,E,5,12,0.97,25.008,M,36.998,M,5.8,7107,42
$GPGGA,122427.90,3542.306123756,N,13943.279855531,E,5,12,0.97,25.008,M,36.998,M,5.9,7107,43
$GPGGA,122428.00,3542.306123877,N,13943.279855425,E,5,12,0.97,25.008,M,36.998,M,6.0,7107,47
$GPGGA,122428.10,3542.306123919,N,13943.279855354,E,5,12,0.97,25.008,M,36.998,M,1.1,7107,48
$GPGGA,122428.20,3542.306123935,N,13943.279855339,E,5,12,0.97,25.008,M,36.998,M,1.2,7107,4D
$GPGGA,122428.30,3542.306124002,N,13943.279855327,E,5,12,0.97,25.008,M,36.998,M,1.3,7107,48
$GPGGA,122428.40,3542.306124089,N,13943.279855332,E,5,12,0.97,25.008,M,36.998,M,1.4,7107,4F
$GPGGA,122428.50,3542.306124213,N,13943.279855335,E,5,12,0.97,25.008,M,36.998,M,1.5,7107,49
$GPGGA,122428.60,3542.306124272,N,13943.279855375,E,5,12,0.97,25.008,M,36.998,M,1.6,7107,4A
$GPGGA,122428.70,3542.306124337,N,13943.279855268,E,5,12,0.97,25.008,M,36.998,M,1.7,7107,47
$GPGGA,122428.80,3542.306124349,N,13943.279855316,E,5,12,0.97,25.008,M,36.998,M,1.8,7107,46
$GPGGA,122428.90,3542.306124394,N,13943.279855302,E,5,12,0.97,25.008,M,36.998,M,1.9,7107,43
$GPGGA,122429.00,3542.306124463,N,13943.279855264,E,5,12,0.97,25.008,M,36.998,M,2.0,7107,4F
$GPGGA,122429.10,3542.306124498,N,13943.279855236,E,5,12,0.97,25.008,M,36.998,M,2.1,7107,4C
$GPGGA,122429.20,3542.306124511,N,13943.279855264,E,5,12,0.97,25.009,M,36.998,M,2.2,7107,4A
$GPGGA,122429.30,3542.306124565,N,13943.279855252,E,5,12,0.97,25.009,M,36.998,M,2.3,7107,4C
$GPGGA,122429.40,3542.306124682,N,13943.279855130,E,5,12,0.97,25.009,M,36.998,M,2.4,7107,41
$GPGGA,122429.50,3542.306124676,N,13943.279855134,E,5,12,0.97,25.009,M,36.998,M,2.5,7107,4E
$GPGGA,122429.60,3542.306127827,N,13943.279855062,E,5,12,0.97,25.008,M,36.998,M,2.6,7107,44
$GPGGA,122429.70,3542.306129511,N,13943.279855143,E,5,12,0.97,25.008,M,36.998,M,2.7,7107,40
$GPGGA,122429.80,3542.306130293,N,13943.279854676,E,5,12,0.97,25.009,M,36.998,M,2.8,7107,44
$GPGGA,122429.90,3542.306130929,N,13943.279854223,E,5,12,0.97,25.010,M,36.998,M,2.9,7107,42
$GPGGA,122430.00,3542.306131331,N,13943.279854001,E,5,12,0.97,25.010,M,36.998,M,3.0,7107,4B
$GPGGA,122430.10,3542.306131701,N,13943.279853765,E,5,12,0.97,25.011,M,36.998,M,3.1,7107,4F
$GPGGA,122430.20,3542.306132307,N,13943.279853952,E,5,12,0.97,25.011,M,36.998,M,3.2,7107,44
$GPGGA,122430.30,3542.306132791,N,13943.279853982,E,5,12,0.97,25.011,M,36.998,M,3.3,7107,42
$GPGGA,122430.40,3542.306133101,N,13943.279854015,E,5,12,0.97,25.011,M,36.998,M,3.4,7107,4C
$GPGGA,122430.50,3542.306133206,N,13943.279854279,E,5,12,0.97,25.011,M,36.998,M,3.5,7107,40
$GPGGA,122430.60,3542.306133393,N,13943.279854472,E,5,12,0.97,25.011,M,36.998,M,3.6,7107,40
$GPGGA,122430.70,3542.306133504,N,13943.279854818,E,5,12,0.97,25.012,M,36.998,M,3.7,7107,4B
$GPGGA,122430.80,3542.306133749,N,13943.279854868,E,5,12,0.97,25.012,M,36.998,M,3.8,7107,47
$GPGGA,122430.90,3542.306133882,N,13943.279855091,E,5,12,0.97,25.012,M,36.998,M,3.9,7107,40
$GPGGA,122431.00,3542.306134034,N,13943.279855301,E,5,12,0.97,25.012,M,36.998,M,4.0,7107,4E
$GPGGA,122431.10,3542.306134062,N,13943.279855456,E,5,12,0.97,25.012,M,36.998,M,4.1,7107,48
$GPGGA,122431.20,3542.306134285,N,13943.279855494,E,5,12,0.97,25.012,M,36.998,M,4.2,7107,4D
$GPGGA,122431.30,3542.306134499,N,13943.279855609,E,5,12,0.97,25.012,M,36.998,M,4.3,7107,40
$GPGGA,122431.40,3542.306134620,N,13943.279855737,E,5,12,0.97,25.012,M,36.998,M,4.4,7107,4C
$GPGGA,122431.50,3542.306134706,N,13943.279855954,E,5,12,0.97,25.013,M,36.998,M,4.5,7107,43
$GPGGA,122431.60,3542.306134823,N,13943.279856107,E,5,12,0.97,25.013,M,36.998,M,4.6,7107,46
$GPGGA,122431.70,3542.306134959,N,13943.279856256,E,5,12,0.97,25.013,M,36.998,M,4.7,7107,4D
$GPGGA,122431.80,3542.306135026,N,13943.279856386,E,5,12,0.97,25.013,M,36.998,M,4.8,7107,41
$GPGGA,122431.90,3542.306135166,N,13943.279856414,E,5,12,0.97,25.013,M,36.998,M,4.9,7107,48
$GPGGA,122432.00,3542.306135232,N,13943.279856592,E,5,12,0.97,25.013,M,36.998,M,5.0,7107,47
$GPGGA,122432.10,3542.306135312,N,13943.279856858,E,5,12,0.97,25.013,M,36.998,M,5.1,7107,4F
$GPGGA,122432.20,3542.306135306,N,13943.279856851,E,5,12,0.97,25.013,M,36.998,M,5.2,7107,43
$GPGGA,122432.30,3542.306135420,N,13943.279857064,E,5,12,0.97,25.013,M,36.998,M,5.3,7107,4F
$GPGGA,122432.40,3542.306135495,N,13943.279857197,E,5,12,0.97,25.013,M,36.998,M,5.4,7107,4C
$GPGGA,122432.50,3542.306135605,N,13943.279857330,E,5,12,0.97,25.014,M,36.998,M,5.5,7107,4F
$GPGGA,122432.60,3542.306135653,N,13943.279857470,E,5,12,0.97,25.014,M,36.998,M,5.6,7107,4F
$GPGGA,122432.70,3542.306135722,N,13943.279857566,E,5,12,0.97,25.014,M,36.998,M,5.7,7107,4E
$GPGGA,122432.80,3542.306135833,N,13943.279857687,E,5,12,0.97,25.014,M,36.998,M,5.8,7107,4D
$GPGGA,122432.90,3542.306135925,N,13943.279857819,E,5,12,0.97,25.014,M,36.998,M,5.9,7107,42
$GPGGA,122433.00,3542.306136005,N,13943.279857891,E,5,12,0.97,25.014,M,36.998,M,6.0,7107,48
$GPGGA,122433.10,3542.306136043,N,13943.279857961,E,5,12,0.97,25.014,M,36.998,M,1.1,7107,43
$GPGGA,122433.20,3542.306136130,N,13943.279857994,E,5,12,0.97,25.014,M,36.998,M,1.2,7107,4C
$GPGGA,122433.30,3542.306136118,N,13943.279858131,E,5,12,0.97,25.014,M,36.998,M,1.3,7107,4E
$GPGGA,122433.40,3542.306136201,N,13943.279858173,E,5,12,0.97,25.014,M,36.998,M,1.4,7107,43
$GPGGA,122433.50,3542.306136253,N,13943.279858260,E,5,12,0.97,25.014,M,36.998,M,1.5,7107,45
$GPGGA,122433.60,3542.306136330,N,13943.279858385,E,5,12,0.97,25.014,M,36.998,M,1.6,7107,4B
$GPGGA,122433.70,3542.306136386,N,13943.279858423,E,5,12,0.97,25.014,M,36.998,M,1.7,7107,4D
$GPGGA,122433.80,3542.306136479,N,13943.279858410,E,5,12,0.97,25.014,M,36.998,M,1.8,7107,4A
$GPGGA,122433.90,3542.306136534,N,13943.279858511,E,5,12,0.97,25.014,M,36.998,M,1.9,7107,42
$GPGGA,122434.00,3542.306136577,N,13943.279858486,E,5,12,0.97,25.014,M,36.998,M,2.0,7107,4E
$GPGGA,122434.10,3542.306136716,N,13943.279858518,E,5,12,0.97,25.014,M,36.998,M,2.1,7107,4D
$GPGGA,122434.20,3542.306136780,N,13943.279858596,E,5,12,0.97,25.014,M,36.998,M,2.2,7107,44
$GPGGA,122434.30,3542.306136930,N,13943.279858586,E,5,12,0.97,25.014,M,36.998,M,2.3,7107,40
$GPGGA,122434.40,3542.306136992,N,13943.279858600,E,5,12,0.97,25.014,M,36.998,M,2.4,7107,45
$GPGGA,122434.50,3542.306137034,N,13943.279858669,E,5,12,0.97,25.014,M,36.998,M,2.5,7107,4E
$GPGGA,122434.60,3542.306137056,N,13943.279858666,E,5,12,0.97,25.014,M,36.998,M,2.6,7107,45
$GPGGA,122434.70,3542.306141518,N,13943.279860179,E,5,12,0.97,25.014,M,36.998,M,2.7,7107,49
$GPGGA,122434.80,3542.306143520,N,13943.279861064,E,5,12,0.97,25.015,M,36.998,M,2.8,7107,4D
$GPGGA,122434.90,3542.306144725,N,13943.279861737,E,5,12,0.97,25.015,M,36.998,M,2.9,7107,4C
$GPGGA,122435.00,3542.306145789,N,13943.279862122,E,5,12,0.97,25.015,M,36.998,M,3.0,7107,4A
$GPGGA,122435.10,3542.306146562,N,13943.279862419,E,5,12,0.97,25.015,M,36.998,M,3.1,7107,43
$GPGGA,122435.20,3542.306147287,N,13943.279862800,E,5,12,0.97,25.015,M,36.998,M,3.2,7107,4A
$GPGGA,122435.30,3542.306147872,N,13943.279863075,E,5,12,0.97,25.015,M,36.998,M,3.3,7107,41
$GPGGA,122435.40,3542.306148446,N,13943.279863270,E,5,12,0.97,25.015,M,36.998,M,3.4,7107,42
$GPGGA,122435.50,3542.306148858,N,13943.279863443,E,5,12,0.97,25.015,M,36.998,M,3.5,7107,47
$GPGGA,122435.60,3542.306149262,N,13943.279863602,E,5,12,0.97,25.015,M,36.998,M,3.6,7107,42
$GPGGA,122435.70,3542.306149660,N,13943.279863665,E,5,12,0.97,25.015,M,36.998,M,3.7,7107,45
$GPGGA,122435.80,3542.306149999,N,13943.279863820,E,5,12,0.97,25.015,M,36.998,M,3.8,7107,43
$GPGGA,122435.90,3542.306150356,N,13943.279863928,E,5,12,0.97,25.015,M,36.998,M,3.9,7107,4B
$GPGGA,122436.00,3542.306150744,N,13943.279863884,E,5,12,0.97,25.015,M,36.998,M,4.0,7107,4F
$GPGGA,122436.10,3542.306151041,N,13943.279864029,E,5,12,0.97,25.015,M,36.998,M,4.1,7107,44
$GPGGA,122436.20,3542.306151290,N,13943.279864237,E,5,12,0.97,25.015,M,36.998,M,4.2,7107,47
$GPGGA,122436.30,3542.306151546,N,13943.279864282,E,5,12,0.97,25.015,M,36.998,M,4.3,7107,45
$GPGGA,122436.40,3542.306151850,N,13943.279864341,E,5,12,0.97,25.015,M,36.998,M,4.4,7107,41
$GPGGA,122436.50,3542.306152010,N,13943.279864506,E,5,12,0.97,25.015,M,36.998,M,4.5,7107,4B
$GPGGA,122436.60,3542.306152276,N,13943.279864583,E,5,12,0.97,25.015,M,36.998,M,4.6,7107,44
$GPGGA,122436.70,3542.306152566,N,13943.279864560,E,5,12,0.97,25.015,M,36.998,M,4.7,7107,4F
$GPGGA,122436.80,3542.306152626,N,13943.279864773,E,5,12,0.97,25.015,M,36.998,M,4.8,7107,48
$GPGGA,122436.90,3542.306152855,N,13943.279864852,E,5,12,0.97,25.015,M,36.998,M,4.9,7107,4E
$GPGGA,122437.00,3542.306153147,N,13943.279864876,E,5,12,0.97,25.015,M,36.998,M,5.0,7107,43
$GPGGA,122437.10,3542.306153255,N,13943.279865072,E,5,12,0.97,25.015,M,36.998,M,5.1,7107,4E
$GPGGA,122437.20,3542.306153404,N,13943.279865186,E,5,12,0.97,25.015,M,36.998,M,5.2,7107,46
$GPGGA,122437.30,3542.306153624,N,13943.279865290,E,5,12,0.97,25.015,M,36.998,M,5.3,7107,42
$GPGGA,122437.40,3542.306153744,N,13943.279865262,E,5,12,0.97,25.015,M,36.998,M,5.4,7107,48
$GPGGA,122437.50,3542.306153801,N,13943.279865374,E,5,12,0.97,25.015,M,36.998,M,5.5,7107,40
$GPGGA,122437.60,3542.306154003,N,13943.279865215,E,5,12,0.97,25.015,M,36.998,M,5.6,7107,4B
$GPGGA,122437.70,3542.306154061,N,13943.279865307,E,5,12,0.97,25.015,M,36.998,M,5.7,7107,4D
$GPGGA,122437.80,3542.306154102,N,13943.279865301,E,5,12,0.97,25.015,M,36.998,M,5.8,7107,4F
$GPGGA,122437.90,3542.306154295,N,13943.279865189,E,5,12,0.97,25.015,M,36.998,M,5.9,7107,40
$GPGGA,122438.00,3542.306154372,N,13943.279865140,E,5,12,0.97,25.015,M,36.998,M,6.0,7107,41
$GPGGA,122438.10,3542.306154510,N,13943.279865126,E,5,12,0.97,25.015,M,36.998,M,1.1,7107,44
$GPGGA,122438.20,3542.306154639,N,13943.279865097,E,5,12,0.97,25.015,M,36.998,M,1.2,7107,47
$GPGGA,122438.30,3542.306154755,N,13943.279865010,E,5,12,0.97,25.015,M,36.998,M,1.3,7107,43
$GPGGA,122438.40,3542.306154875,N,13943.279864968,E,5,12,0.97,25.015,M,36.998,M,1.4,7107,49
$GPGGA,122438.50,3542.306155018,N,13943.279864955,E,5,12,0.97,25.015,M,36.998,M,1.5,7107,45
$GPGGA,122438.60,3542.306155141,N,13943.279864912,E,5,12,0.97,25.015,M,36.998,M,1.6,7107,4B
$GPGGA,122438.70,3542.306155226,N,13943.279864868,E,5,12,0.97,25.015,M,36.998,M,1.7,7107,45
$GPGGA,122438.80,3542.306155385,N,13943.279864795,E,5,12,0.97,25.015,M,36.998,M,1.8,7107,40
$GPGGA,122438.90,3542.306155461,N,13943.279864755,E,5,12,0.97,25.015,M,36.998,M,1.9,7107,41
$GPGGA,122439.00,3542.306155511,N,13943.279864819,E,5,12,0.97,25.015,M,36.998,M,2.0,7107,42
$GPGGA,122439.10,3542.306155576,N,13943.279864831,E,5,12,0.97,25.015,M,36.998,M,2.1,7107,49
$GPGGA,122439.20,3542.306155732,N,13943.279864794,E,5,12,0.97,25.015,M,36.998,M,2.2,7107,4B
$GPGGA,122439.30,3542.306155888,N,13943.279864748,E,5,12,0.97,25.015,M,36.998,M,2.3,7107,44
$GPGGA,122439.40,3542.306155892,N,13943.279864780,E,5,12,0.97,25.015,M,36.998,M,2.4,7107,4B
$GPGGA,122439.50,3542.306156126,N,13943.279864662,E,5,12,0.97,25.015,M,36.998,M,2.5,7107,43
$GPGGA,122439.60,3542.306156180,N,13943.279864710,E,5,12,0.97,25.015,M,36.998,M,2.6,7107,4B
$GPGGA,122439.70,3542.306156281,N,13943.279864657,E,5,12,0.97,25.015,M,36.998,M,2.7,7107,4B
$GPGGA,122439.80,3542.306162259,N,13943.279864714,E,5,12,0.97,25.014,M,36.998,M,2.8,7107,4E
$GPGGA,122439.90,3542.306165102,N,13943.279864725,E,5,12,0.97,25.014,M,36.998,M,2.9,7107,46
$GPGGA,122440.00,3542.306166750,N,13943.279864452,E,5,12,0.97,25.015,M,36.998,M,3.0,7107,49
$GPGGA,122440.10,3542.306167949,N,13943.279864187,E,5,12,0.97,25.015,M,36.998,M,3.1,7107,43
$GPGGA,122440.20,3542.306169091,N,13943.279864026,E,5,12,0.97,25.015,M,36.998,M,3.2,7107,4B
$GPGGA,122440.30,3542.306170026,N,13943.279863996,E,5,12,0.97,25.015,M,36.998,M,3.3,7107,4A
$GPGGA,122440.40,3542.306170794,N,13943.279864083,E,5,12,0.97,25.015,M,36.998,M,3.4,7107,4E
$GPGGA,122440.50,3542.306171397,N,13943.279863862,E,5,12,0.97,25.016,M,36.998,M,3.5,7107,4B
$GPGGA,122440.60,3542.306172108,N,13943.279863685,E,5,12,0.97,25.015,M,36.998,M,3.6,7107,48
$GPGGA,122440.70,3542.306172643,N,13943.279863440,E,5,12,0.97,25.015,M,36.998,M,3.7,7107,4B
$GPGGA,122440.80,3542.306173417,N,13943.279863220,E,5,12,0.97,25.015,M,36.998,M,3.8,7107,49
$GPGGA,122440.90,3542.306173903,N,13943.279863201,E,5,12,0.97,25.015,M,36.998,M,3.9,7107,42
$GPGGA,122441.00,3542.306174418,N,13943.279863147,E,5,12,0.97,25.015,M,36.998,M,4.0,7107,45
$GPGGA,122441.10,3542.306174799,N,13943.279863023,E,5,12,0.97,25.015,M,36.998,M,4.1,7107,4C
$GPGGA,122441.20,3542.306175056,N,13943.279862949,E,5,12,0.97,25.015,M,36.998,M,4.2,7107,4D
$GPGGA,122441.30,3542.306175424,N,13943.279862746,E,5,12,0.97,25.015,M,36.998,M,4.3,7107,4D
$GPGGA,122441.40,3542.306175775,N,13943.279862593,E,5,12,0.97,25.014,M,36.998,M,4.4,7107,41
$GPGGA,122441.50,3542.306176146,N,13943.279862543,E,5,12,0.97,25.014,M,36.998,M,4.5,7107,49
$GPGGA,122441.60,3542.306176514,N,13943.279862431,E,5,12,0.97,25.014,M,36.998,M,4.6,7107,4E
$GPGGA,122441.70,3542.306176768,N,13943.279862317,E,5,12,0.97,25.014,M,36.998,M,4.7,7107,44
$GPGGA,122441.80,3542.306177144,N,13943.279862184,E,5,12,0.97,25.014,M,36.998,M,4.8,7107,45
$GPGGA,122441.90,3542.306177312,N,13943.279861994,E,5,12,0.97,25.014,M,36.998,M,4.9,7107,4E
$GPGGA,122442.00,3542.306177625,N,13943.279861870,E,5,12,0.97,25.014,M,36.998,M,5.0,7107,46
$GPGGA,122442.10,3542.306177889,N,13943.279861761,E,5,12,0.97,25.014,M,36.998,M,5.1,7107,41
$GPGGA,122442.20,3542.306178159,N,13943.279861655,E,5,12,0.97,25.014,M,36.998,M,5.2,7107,4C
$GPGGA,122442.30,3542.306178384,N,13943.279861537,E,5,12,0.97,25.014,M,36.998,M,5.3,7107,49
$GPGGA,122442.40,3542.306178640,N,13943.279861525,E,5,12,0.97,25.014,M,36.998,M,5.4,7107,47
$GPGGA,122442.50,3542.306178896,N,13943.279861422,E,5,12,0.97,25.014,M,36.998,M,5.5,7107,44
$GPGGA,122442.60,3542.306179037,N,13943.279861311,E,5,12,0.97,25.014,M,36.998,M,5.6,7107,41
$GPGGA,122442.70,3542.306179222,N,13943.279861164,E,5,12,0.97,25.014,M,36.998,M,5.7,7107,47
$GPGGA,122442.80,3542.306179311,N,13943.279861147,E,5,12,0.97,25.014,M,36.998,M,5.8,7107,47
$GPGGA,122442.90,3542.306179330,N,13943.279861139,E,5,12,0.97,25.015,M,36.998,M,5.9,7107,4C
$GPGGA,122443.00,3542.306179392,N,13943.279860973,E,5,12,0.97,25.015,M,36.998,M,6.0,7107,41
$GPGGA,122443.10,3542.306179440,N,13943.279860860,E,5,12,0.97,25.015,M,36.998,M,6.1,7107,4A
$GPGGA,122443.20,3542.306179420,N,13943.279860845,E,5,12,0.97,25.015,M,36.998,M,6.2,7107,4B
$GPGGA,122443.30,3542.306179456,N,13943.279860816,E,5,12,0.97,25.015,M,36.998,M,6.3,7107,4C
$GPGGA,122443.40,3542.306179511,N,13943.279860760,E,5,12,0.97,25.015,M,36.998,M,6.4,7107,40
$GPGGA,122443.50,3542.306179490,N,13943.279860832,E,5,12,0.97,25.015,M,36.998,M,6.5,7107,40
$GPGGA,122443.60,3542.306179635,N,13943.279860739,E,5,12,0.97,25.015,M,36.998,M,6.6,7107,49
$GPGGA,122443.70,3542.306179628,N,13943.279860734,E,5,12,0.97,25.015,M,36.998,M,6.7,7107,48
$GPGGA,122443.80,3542.306179627,N,13943.279860706,E,5,12,0.97,25.015,M,36.998,M,6.8,7107,46
$GPGGA,122443.90,3542.306179716,N,13943.279860681,E,5,12,0.97,25.015,M,36.998,M,6.9,7107,4B
$GPGGA,122444.00,3542.306179729,N,13943.279860602,E,5,12,0.97,25.015,M,36.998,M,7.0,7107,4A
$GPGGA,122444.10,3542.306179806,N,13943.279860522,E,5,12,0.97,25.016,M,36.998,M,2.1,7107,4F
$GPGGA,122444.20,3542.306179746,N,13943.279860567,E,5,12,0.97,25.016,M,36.998,M,2.2,7107,45
$GPGGA,122444.30,3542.306179827,N,13943.279860577,E,5,12,0.97,25.016,M,36.998,M,2.3,7107,4C
$GPGGA,122444.40,3542.306179781,N,13943.279860516,E,5,12,0.97,25.016,M,36.998,M,2.4,7107,48
$GPGGA,122444.50,3542.306179696,N,13943.279860542,E,5,12,0.97,25.016,M,36.998,M,2.5,7107,4E
$GPGGA,122444.60,3542.306179745,N,13943.279860462,E,5,12,0.97,25.016,M,36.998,M,2.6,7107,42
$GPGGA,122444.70,3542.306179728,N,13943.279860382,E,5,12,0.97,25.016,M,36.998,M,2.7,7107,40
$GPGGA,122444.80,3542.306179722,N,13943.279860398,E,5,12,0.97,25.016,M,36.998,M,2.8,7107,41
$GPGGA,122444.90,3542.306180581,N,13943.279858619,E,5,12,0.97,25.020,M,36.998,M,2.9,7107,4E
$GPGGA,122445.00,3542.306180960,N,13943.279857762,E,5,12,0.97,25.022,M,36.998,M,3.0,7107,4D
$GPGGA,122445.10,3542.306182378,N,13943.279856993,E,5,12,0.98,25.023,M,36.998,M,3.1,7107,43
$GPGGA,122445.20,3542.306182632,N,13943.279856500,E,5,12,0.98,25.024,M,36.998,M,3.2,7107,49
$GPGGA,122445.30,3542.306182717,N,13943.279856067,E,5,12,0.98,25.025,M,36.998,M,3.3,7107,4A
$GPGGA,122445.40,3542.306182975,N,13943.279855904,E,5,12,0.98,25.026,M,36.998,M,3.4,7107,4C
$GPGGA,122445.50,3542.306183087,N,13943.279855619,E,5,12,0.98,25.026,M,36.998,M,3.5,7107,4A
$GPGGA,122445.60,3542.306183616,N,13943.279855893,E,5,12,0.98,25.026,M,36.998,M,3.6,7107,48
$GPGGA,122445.70,3542.306184111,N,13943.279856213,E,5,12,0.98,25.025,M,36.998,M,3.7,7107,4D
$GPGGA,122445.80,3542.306184442,N,13943.279856486,E,5,12,0.98,25.025,M,36.998,M,3.8,7107,44
$GPGGA,122445.90,3542.306184816,N,13943.279856765,E,5,12,0.98,25.025,M,36.998,M,3.9,7107,47
$GPGGA,122446.00,3542.306185101,N,13943.279857070,E,5,12,0.98,25.024,M,36.998,M,4.0,7107,4E
$GPGGA,122446.10,3542.306185275,N,13943.279857321,E,5,12,0.98,25.024,M,36.998,M,4.1,7107,49
$GPGGA,122446.20,3542.306185586,N,13943.279857573,E,5,12,0.98,25.024,M,36.998,M,4.2,7107,43
$GPGGA,122446.30,3542.306185853,N,13943.279857810,E,5,12,0.98,25.024,M,36.998,M,4.3,7107,4E
$GPGGA,122446.40,3542.306186057,N,13943.279858097,E,5,12,0.98,25.024,M,36.998,M,4.4,7107,49
$GPGGA,122446.50,3542.306186262,N,13943.279858277,E,5,12,0.98,25.024,M,36.998,M,4.5,7107,41
$GPGGA,122446.60,3542.306186398,N,13943.279858504,E,5,12,0.98,25.024,M,36.998,M,4.6,7107,46
$GPGGA,122446.70,3542.306186654,N,13943.279858660,E,5,12,0.98,25.023,M,36.998,M,4.7,7107,45
$GPGGA,122446.80,3542.306186853,N,13943.279858725,E,5,12,0.98,25.023,M,36.998,M,4.8,7107,4C
$GPGGA,122446.90,3542.306186981,N,13943.279858980,E,5,12,0.98,25.023,M,36.998,M,4.9,7107,43
$GPGGA,122447.00,3542.306187156,N,13943.279859161,E,5,12,0.98,25.023,M,36.998,M,5.0,7107,46
$GPGGA,122447.10,3542.306187253,N,13943.279859300,E,5,12,0.98,25.023,M,36.998,M,5.1,7107,45
$GPGGA,122447.20,3542.306187363,N,13943.279859534,E,5,12,0.98,25.023,M,36.998,M,5.2,7107,46
$GPGGA,122447.30,3542.306187322,N,13943.279859575,E,5,11,1.05,25.023,M,36.998,M,5.3,7107,40
$GPGGA,122447.40,3542.306187394,N,13943.279859749,E,5,11,1.05,25.024,M,36.998,M,5.4,7107,47
$GPGGA,122447.50,3542.306187505,N,13943.279859776,E,5,11,1.05,25.024,M,36.998,M,5.5,7107,45
$GPGGA,122447.60,3542.306187581,N,13943.279859875,E,5,11,1.05,25.024,M,36.998,M,5.6,7107,45
$GPGGA,122447.70,3542.306187641,N,13943.279859952,E,5,11,1.05,25.024,M,36.998,M,5.7,7107,4E
$GPGGA,122447.80,3542.306187670,N,13943.279860081,E,5,11,1.05,25.024,M,36.998,M,5.8,7107,41
$GPGGA,122447.90,3542.306187784,N,13943.279860120,E,5,11,1.05,25.025,M,36.998,M,5.9,7107,40
$GPGGA,122448.00,3542.306187773,N,13943.279860321,E,5,11,1.05,25.025,M,36.998,M,6.0,7107,47
$GPGGA,122448.10,3542.306187906,N,13943.279860395,E,5,11,1.05,25.025,M,36.998,M,1.1,7107,43
$GPGGA,122448.20,3542.306187965,N,13943.279860490,E,5,11,1.05,25.025,M,36.998,M,1.2,7107,44
$GPGGA,122448.30,3542.306187958,N,13943.279860657,E,5,11,1.05,25.025,M,36.998,M,1.3,7107,43
$GPGGA,122448.40,3542.306188094,N,13943.279860646,E,5,11,1.05,25.025,M,36.998,M,1.4,7107,45
$GPGGA,122448.50,3542.306188070,N,13943.279860786,E,5,12,0.98,25.025,M,36.998,M,1.5,7107,44
$GPGGA,122448.60,3542.306188109,N,13943.279860755,E,5,12,0.98,25.025,M,36.998,M,1.6,7107,45
$GPGGA,122448.70,3542.306188044,N,13943.279860770,E,5,12,0.98,25.026,M,36.998,M,1.7,7107,49
$GPGGA,122448.80,3542.306188035,N,13943.279860691,E,5,12,0.98,25.026,M,36.998,M,1.8,7107,41
$GPGGA,122448.90,3542.306187975,N,13943.279860712,E,5,12,0.98,25.026,M,36.998,M,1.9,7107,49
$GPGGA,122449.00,3542.306187946,N,13943.279860684,E,5,12,0.98,25.026,M,36.998,M,2.0,7107,45
$GPGGA,122449.10,3542.306187927,N,13943.279860628,E,5,12,0.98,25.026,M,36.998,M,2.1,7107,44
$GPGGA,122449.20,3542.306187952,N,13943.279860555,E,5,12,0.98,25.026,M,36.998,M,2.2,7107,4F
$GPGGA,122449.30,3542.306187857,N,13943.279860602,E,5,12,0.98,25.026,M,36.998,M,2.3,7107,4A
$GPGGA,122449.40,3542.306187883,N,13943.279860590,E,5,12,0.98,25.027,M,36.998,M,2.4,7107,4A
$GPGGA,122449.50,3542.306187811,N,13943.279860504,E,5,12,0.98,25.027,M,36.998,M,2.5,7107,4C
$GPGGA,122449.60,3542.306187800,N,13943.279860485,E,5,12,0.98,25.027,M,36.998,M,2.6,7107,44
$GPGGA,122449.70,3542.306187781,N,13943.279860517,E,5,12,0.98,25.027,M,36.998,M,2.7,7107,48
$GPGGA,122449.80,3542.306187817,N,13943.279860434,E,5,12,0.98,25.027,M,36.998,M,2.8,7107,48
$GPGGA,122449.90,3542.306187624,N,13943.279860429,E,5,12,0.98,25.027,M,36.998,M,2.9,7107,4A
$GPGGA,122450.00,3542.306186386,N,13943.279860001,E,5,12,0.98,25.034,M,36.998,M,3.0,7107,43
$GPGGA,122450.10,3542.306185671,N,13943.279859879,E,5,12,0.98,25.037,M,36.998,M,3.1,7107,43
$GPGGA,122450.20,3542.306185360,N,13943.279859684,E,5,12,0.98,25.040,M,36.998,M,3.2,7107,4A
$GPGGA,122450.30,3542.306185122,N,13943.279859641,E,5,12,0.98,25.042,M,36.998,M,3.3,7107,45
$GPGGA,122450.40,3542.306184897,N,13943.279859518,E,5,12,0.98,25.043,M,36.998,M,3.4,7107,4D
$GPGGA,122450.50,3542.306184820,N,13943.279859356,E,5,12,0.98,25.044,M,36.998,M,3.5,7107,4A
$GPGGA,122450.60,3542.306184793,N,13943.279859332,E,5,12,0.98,25.045,M,36.998,M,3.6,7107,4E
$GPGGA,122450.70,3542.306184735,N,13943.279859373,E,5,12,0.98,25.046,M,36.998,M,3.7,7107,44
$GPGGA,122450.80,3542.306184714,N,13943.279859243,E,5,12,0.98,25.047,M,36.998,M,3.8,7107,44
$GPGGA,122450.90,3542.306184567,N,13943.279859106,E,5,12,0.98,25.048,M,36.998,M,3.9,7107,4F
$GPGGA,122451.00,3542.306184568,N,13943.279859032,E,5,12,0.98,25.048,M,36.998,M,4.0,7107,40
$GPGGA,122451.10,3542.306184587,N,13943.279858943,E,5,12,0.98,25.049,M,36.998,M,4.1,7107,4E
$GPGGA,122451.20,3542.306184529,N,13943.279859032,E,5,12,0.98,25.050,M,36.998,M,4.2,7107,4C
$GPGGA,122451.30,3542.306184577,N,13943.279859077,E,5,12,0.98,25.050,M,36.998,M,4.3,7107,46
$GPGGA,122451.40,3542.306184318,N,13943.279859064,E,5,12,0.98,25.050,M,36.998,M,4.4,7107,4B
$GPGGA,122451.50,3542.306184494,N,13943.279858952,E,5,12,0.98,25.051,M,36.998,M,4.5,7107,44
$GPGGA,122451.60,3542.306184605,N,13943.279859156,E,5,12,0.98,25.052,M,36.998,M,4.6,7107,40
$GPGGA,122451.70,3542.306184440,N,13943.279859085,E,5,12,0.98,25.052,M,36.998,M,4.7,7107,4C
$GPGGA,122451.80,3542.306184372,N,13943.279859117,E,5,12,0.98,25.052,M,36.998,M,4.8,7107,40
$GPGGA,122451.90,3542.306184170,N,13943.279859028,E,5,12,0.98,25.053,M,36.998,M,4.9,7107,4C
$GPGGA,122452.00,3542.306184284,N,13943.279859062,E,5,12,0.98,25.053,M,36.998,M,5.0,7107,48
$GPGGA,122452.10,3542.306184178,N,13943.279859059,E,5,12,0.98,25.053,M,36.998,M,5.1,7107,40
$GPGGA,122452.20,3542.306184150,N,13943.279859143,E,5,12,0.98,25.054,M,36.998,M,5.2,7107,47
$GPGGA,122452.30,3542.306184197,N,13943.279859008,E,5,12,0.98,25.054,M,36.998,M,5.3,7107,42
$GPGGA,122452.40,3542.306184121,N,13943.279859007,E,5,12,0.98,25.054,M,36.998,M,5.4,7107,40
$GPGGA,122452.50,3542.306184151,N,13943.279859042,E,5,12,0.98,25.055,M,36.998,M,5.5,7107,47
$GPGGA,122452.60,3542.306184129,N,13943.279859089,E,5,12,0.98,25.055,M,36.998,M,5.6,7107,4F
$GPGGA,122452.70,3542.306184263,N,13943.279859361,E,5,12,0.98,25.055,M,36.998,M,5.7,7107,47
$GPGGA,122452.80,3542.306184170,N,13943.279859368,E,5,12,0.98,25.055,M,36.998,M,5.8,7107,4F
$GPGGA,122452.90,3542.306184142,N,13943.279859399,E,5,12,0.98,25.056,M,36.998,M,5.9,7107,43
$GPGGA,122453.00,3542.306184189,N,13943.279859424,E,5,12,0.98,25.056,M,36.998,M,6.0,7107,47
$GPGGA,122453.10,3542.306184038,N,13943.279859375,E,5,12,0.98,25.056,M,36.998,M,1.1,7107,48
$GPGGA,122453.20,3542.306183968,N,13943.279859495,E,5,12,0.98,25.057,M,36.998,M,1.2,7107,4B
$GPGGA,122453.30,3542.306184003,N,13943.279859544,E,5,12,0.98,25.057,M,36.998,M,1.3,7107,45
$GPGGA,122453.40,3542.306183930,N,13943.279859647,E,5,12,0.98,25.057,M,36.998,M,1.4,7107,4B
$GPGGA,122453.50,3542.306183923,N,13943.279859727,E,5,12,0.98,25.058,M,36.998,M,1.5,7107,41
$GPGGA,122453.60,3542.306183871,N,13943.279859804,E,5,12,0.98,25.058,M,36.998,M,1.6,7107,49
$GPGGA,122453.70,3542.306183869,N,13943.279859863,E,5,12,0.98,25.058,M,36.998,M,1.7,7107,41
$GPGGA,122453.80,3542.306183802,N,13943.279859948,E,5,12,0.98,25.058,M,36.998,M,1.8,7107,44
$GPGGA,122453.90,3542.306183784,N,13943.279860004,E,5,12,0.98,25.058,M,36.998,M,1.9,7107,4E
$GPGGA,122454.00,3542.306183782,N,13943.279860023,E,5,12,0.98,25.059,M,36.998,M,2.0,7107,48
$GPGGA,122454.10,3542.306183689,N,13943.279860112,E,5,12,0.98,25.059,M,36.998,M,2.1,7107,41
$GPGGA,122454.20,3542.306183773,N,13943.279860056,E,5,12,0.98,25.059,M,36.998,M,2.2,7107,44
$GPGGA,122454.30,3542.306183636,N,13943.279860184,E,5,12,0.98,25.059,M,36.998,M,2.3,7107,4A
$GPGGA,122454.40,3542.306183614,N,13943.279860241,E,5,12,0.98,25.060,M,36.998,M,2.4,7107,4A
$GPGGA,122454.50,3542.306183598,N,13943.279860310,E,5,12,0.98,25.060,M,36.998,M,2.5,7107,48
$GPGGA,122454.60,3542.306183570,N,13943.279860347,E,5,12,0.98,25.060,M,36.998,M,2.6,7107,4C
$GPGGA,122454.70,3542.306183429,N,13943.279860473,E,5,12,0.98,25.060,M,36.998,M,2.7,7107,41
$GPGGA,122454.80,3542.306183447,N,13943.279860522,E,5,12,0.98,25.060,M,36.998,M,2.8,7107,4C
$GPGGA,122454.90,3542.306183387,N,13943.279860615,E,5,12,0.98,25.061,M,36.998,M,2.9,7107,41
$GPGGA,122455.00,3542.306183321,N,13943.279860664,E,5,12,0.98,25.061,M,36.998,M,3.0,7107,4B
$GPGGA,122455.10,3542.306180224,N,13943.279865211,E,5,12,0.98,25.066,M,36.998,M,3.1,7107,48
$GPGGA,122455.20,3542.306179684,N,13943.279867646,E,5,12,0.98,25.068,M,36.998,M,3.2,7107,4A
$GPGGA,122455.30,3542.306179285,N,13943.279869099,E,5,12,0.98,25.069,M,36.998,M,3.3,7107,44
$GPGGA,122455.40,3542.306179168,N,13943.279870105,E,5,12,0.98,25.069,M,36.998,M,3.4,7107,48
$GPGGA,122455.50,3542.306178839,N,13943.279870811,E,5,12,0.98,25.071,M,36.998,M,3.5,7107,41
$GPGGA,122455.60,3542.306178679,N,13943.279871283,E,5,12,0.98,25.072,M,36.998,M,3.6,7107,48
$GPGGA,122455.70,3542.306178499,N,13943.279871865,E,5,12,0.98,25.073,M,36.998,M,3.7,7107,47
$GPGGA,122455.80,3542.306178241,N,13943.279872178,E,5,12,0.98,25.074,M,36.998,M,3.8,7107,45
$GPGGA,122455.90,3542.306178109,N,13943.279872526,E,5,11,1.05,25.074,M,36.998,M,3.9,7107,43
$GPGGA,122456.00,3542.306177967,N,13943.279872861,E,5,11,1.05,25.075,M,36.998,M,4.0,7107,47
$GPGGA,122456.10,3542.306177872,N,13943.279873046,E,5,11,1.05,25.076,M,36.998,M,4.1,7107,4D
$GPGGA,122456.20,3542.306177775,N,13943.279873274,E,5,11,1.05,25.077,M,36.998,M,4.2,7107,47
$GPGGA,122456.30,3542.306177623,N,13943.279873548,E,5,11,1.05,25.077,M,36.998,M,4.3,7107,4D
$GPGGA,122456.40,3542.306177624,N,13943.279873765,E,5,11,1.05,25.078,M,36.998,M,4.4,7107,48
$GPGGA,122456.50,3542.306177500,N,13943.279874021,E,5,11,1.05,25.078,M,36.998,M,4.5,7107,4D
$GPGGA,122456.60,3542.306177318,N,13943.279874155,E,5,11,1.05,25.079,M,36.998,M,4.6,7107,41
$GPGGA,122456.70,3542.306177093,N,13943.279874368,E,5,11,1.05,25.080,M,36.998,M,4.7,7107,4B
$GPGGA,122456.80,3542.306176897,N,13943.279874525,E,5,11,1.05,25.080,M,36.998,M,4.8,7107,49
$GPGGA,122456.90,3542.306176666,N,13943.279874718,E,5,11,1.05,25.081,M,36.998,M,4.9,7107,44
$GPGGA,122457.00,3542.306176398,N,13943.279874900,E,5,11,1.05,25.082,M,36.998,M,5.0,7107,44
$GPGGA,122457.10,3542.306176154,N,13943.279875066,E,5,11,1.05,25.082,M,36.998,M,5.1,7107,4E
$GPGGA,122457.20,3542.306175920,N,13943.279875264,E,5,11,1.05,25.083,M,36.998,M,5.2,7107,47
$GPGGA,122457.30,3542.306175767,N,13943.279875405,E,5,11,1.05,25.083,M,36.998,M,5.3,7107,4B
$GPGGA,122457.40,3542.306175663,N,13943.279875530,E,5,11,1.05,25.084,M,36.998,M,5.4,7107,4E
$GPGGA,122457.50,3542.306175514,N,13943.279875611,E,5,11,1.05,25.084,M,36.998,M,5.5,7107,4D
$GPGGA,122457.60,3542.306175334,N,13943.279875834,E,5,11,1.05,25.085,M,36.998,M,5.6,7107,41
$GPGGA,122457.70,3542.306175160,N,13943.279875965,E,5,11,1.05,25.085,M,36.998,M,5.7,7107,47
$GPGGA,122457.80,3542.306175043,N,13943.279876039,E,5,11,1.05,25.086,M,36.998,M,5.8,7107,47
$GPGGA,122457.90,3542.306174902,N,13943.279876153,E,5,11,1.05,25.086,M,36.998,M,5.9,7107,47
$GPGGA,122458.00,3542.306174726,N,13943.279876235,E,5,11,1.05,25.086,M,36.998,M,6.0,7107,40
$GPGGA,122458.10,3542.306174621,N,13943.279876286,E,5,12,0.98,25.087,M,36.998,M,1.1,7107,4E
$GPGGA,122458.20,3542.306174509,N,13943.279876331,E,5,12,0.98,25.087,M,36.998,M,1.2,7107,4A
$GPGGA,122458.30,3542.306174399,N,13943.279876438,E,5,12,0.98,25.087,M,36.998,M,1.3,7107,4B
$GPGGA,122458.40,3542.306174301,N,13943.279876495,E,5,12,0.98,25.088,M,36.998,M,1.4,7107,42
$GPGGA,122458.50,3542.306174224,N,13943.279876588,E,5,12,0.98,25.088,M,36.998,M,1.5,7107,49
$GPGGA,122458.60,3542.306174192,N,13943.279876689,E,5,12,0.98,25.088,M,36.998,M,1.6,7107,45
$GPGGA,122458.70,3542.306174140,N,13943.279876758,E,5,12,0.98,25.088,M,36.998,M,1.7,7107,47
$GPGGA,122458.80,3542.306174184,N,13943.279876811,E,5,12,0.98,25.089,M,36.998,M,1.8,7107,4C
$GPGGA,122458.90,3542.306173992,N,13943.279876861,E,5,12,0.98,25.089,M,36.998,M,1.9,7107,43
$GPGGA,122459.00,3542.306173975,N,13943.279876802,E,5,12,0.98,25.089,M,36.998,M,2.0,7107,4D
$GPGGA,122459.10,3542.306173748,N,13943.279876875,E,5,12,0.98,25.089,M,36.998,M,2.1,7107,4D
$GPGGA,122459.20,3542.306173654,N,13943.279876883,E,5,12,0.98,25.090,M,36.998,M,2.2,7107,40
$GPGGA,122459.30,3542.306173645,N,13943.279876936,E,5,12,0.98,25.090,M,36.998,M,2.3,7107,4F
$GPGGA,122459.40,3542.306173726,N,13943.279876966,E,5,12,0.98,25.090,M,36.998,M,2.4,7107,4E
$GPGGA,122459.50,3542.306173597,N,13943.279877118,E,5,12,0.98,25.091,M,36.998,M,2.5,7107,47
$GPGGA,122459.60,3542.306173500,N,13943.279877059,E,5,12,0.98,25.091,M,36.998,M,2.6,7107,4D
$GPGGA,122459.70,3542.306173265,N,13943.279877151,E,5,12,0.98,25.091,M,36.998,M,2.7,7107,40
$GPGGA,122459.80,3542.306173344,N,13943.279877094,E,5,12,0.98,25.091,M,36.998,M,2.8,7107,4A
$GPGGA,122459.90,3542.306173151,N,13943.279877112,E,5,12,0.98,25.092,M,36.998,M,2.9,7107,40
$GPGGA,122500.00,3542.306173047,N,13943.279877007,E,5,11,1.05,25.092,M,36.998,M,3.0,7107,49
$GPGGA,122500.10,3542.306172943,N,13943.279877048,E,5,11,1.05,25.092,M,36.998,M,3.1,7107,4E
$GPGGA,122500.20,3542.306172918,N,13943.279877021,E,5,11,1.05,25.092,M,36.998,M,3.2,7107,4F
$GPGGA,122500.30,3542.306172577,N,13943.279876852,E,5,11,1.05,25.092,M,36.998,M,3.3,7107,47
$GPGGA,122500.40,3542.306172460,N,13943.279876571,E,5,11,1.05,25.092,M,36.998,M,3.4,7107,4C
$GPGGA,122500.50,3542.306172215,N,13943.279876299,E,5,11,1.05,25.092,M,36.998,M,3.5,7107,49
$GPGGA,122500.60,3542.306172015,N,13943.279876056,E,5,11,1.05,25.092,M,36.998,M,3.6,7107,4A
$GPGGA,122500.70,3542.306171947,N,13943.279875560,E,5,11,1.05,25.092,M,36.998,M,3.7,7107,44
$GPGGA,122500.80,3542.306171755,N,13943.279874796,E,5,11,1.05,25.092,M,36.998,M,3.8,7107,43
$GPGGA,122500.90,3542.306171509,N,13943.279874160,E,5,12,0.98,25.091,M,36.998,M,3.9,7107,42
$GPGGA,122501.00,3542.306170854,N,13943.279873187,E,5,12,0.98,25.091,M,36.998,M,4.0,7107,4E
