$GPGGA,073103.70,3542.285142651,N,13943.270181950,E,5,06,1.97,25.496,M,36.996,M,1.7,3107*45
$GPGGA,073103.80,3542.285142661,N,13943.270181949,E,5,06,1.97,25.496,M,36.996,M,1.8,3107*4E
$GPGGA,073103.90,3542.285142673,N,13943.270181946,E,5,06,1.97,25.497,M,36.996,M,1.9,3107*43
$GPGGA,073104.00,3542.285142685,N,13943.270181945,E,5,06,1.97,25.496,M,36.996,M,2.0,3107*4C
$GPGGA,073104.10,3542.285142698,N,13943.270181947,E,5,06,1.97,25.496,M,36.996,M,2.1,3107*42
$GPGGA,073104.20,3542.285142711,N,13943.270181946,E,5,06,1.97,25.497,M,36.996,M,2.2,3107*42
$GPGGA,073104.30,3542.285142719,N,13943.270181942,E,5,06,1.97,25.497,M,36.996,M,2.3,3107*4E
$GPGGA,073104.40,3542.285142728,N,13943.270181942,E,5,06,1.97,25.496,M,36.996,M,2.4,3107*4D
$GPGGA,073104.50,3542.285142736,N,13943.270181941,E,5,06,1.97,25.497,M,36.996,M,2.5,3107*40
$GPGGA,073104.60,3542.285142746,N,13943.270181940,E,5,06,1.97,25.496,M,36.996,M,2.6,3107*47
$GPGGA,073104.70,3542.285142752,N,13943.270181942,E,5,06,1.97,25.496,M,36.996,M,2.7,3107*40
$GPGGA,073104.80,3542.285142759,N,13943.270181946,E,5,06,1.97,25.496,M,36.996,M,2.8,3107*4F
$GPGGA,073104.90,3542.285142766,N,13943.270181948,E,5,06,1.97,25.496,M,36.996,M,2.9,3107*4D
$GPGGA,073105.00,3542.285142773,N,13943.270181950,E,5,06,1.97,25.496,M,36.996,M,3.0,3107*40
$GPGGA,073105.10,3542.285142782,N,13943.270181951,E,5,06,1.97,25.496,M,36.996,M,3.1,3107*4F
$GPGGA,073105.20,3542.285142790,N,13943.270181951,E,5,06,1.97,25.496,M,36.996,M,3.2,3107*4C
$GPGGA,073105.30,3542.285142801,N,13943.270181950,E,5,06,1.97,25.496,M,36.996,M,3.3,3107*4A
$GPGGA,073105.40,3542.285142810,N,13943.270181952,E,5,06,1.97,25.496,M,36.996,M,3.4,3107*48
$GPGGA,073105.50,3542.285142824,N,13943.270181952,E,5,06,1.97,25.496,M,36.996,M,3.5,3107*4F
$GPGGA,073105.60,3542.285142836,N,13943.270181951,E,5,06,1.97,25.496,M,36.996,M,3.6,3107*4F
$GPGGA,073105.70,3542.285142850,N,13943.270181951,E,5,06,1.97,25.496,M,36.996,M,3.7,3107*4F
$GPGGA,073105.80,3542.285142863,N,13943.270181949,E,5,06,1.97,25.496,M,36.996,M,3.8,3107*46
$GPGGA,073105.90,3542.285142876,N,13943.270181950,E,5,06,1.97,25.496,M,36.996,M,3.9,3107*4A
$GPGGA,073106.00,3542.285142887,N,13943.270181951,E,5,06,1.97,25.496,M,36.996,M,4.0,3107*41
$GPGGA,073106.10,3542.285142899,N,13943.270181952,E,5,06,1.97,25.496,M,36.996,M,4.1,3107*4D
$GPGGA,073106.20,3542.285142913,N,13943.270181954,E,5,06,1.97,25.496,M,36.996,M,4.2,3107*48
$GPGGA,073106.30,3542.285142927,N,13943.270181956,E,5,06,1.97,25.496,M,36.996,M,4.3,3107*4D
$GPGGA,073106.40,3542.285142939,N,13943.270181958,E,5,06,1.97,25.496,M,36.996,M,4.4,3107*4C
$GPGGA,073106.50,3542.285142951,N,13943.270181962,E,5,06,1.97,25.496,M,36.996,M,4.5,3107*4B
$GPGGA,073106.60,3542.285142963,N,13943.270181964,E,5,06,1.97,25.496,M,36.996,M,4.6,3107*4C
$GPGGA,073106.70,3542.285142974,N,13943.270181966,E,5,06,1.97,25.496,M,36.996,M,4.7,3107*48
$GPGGA,073106.80,3542.285142986,N,13943.270181970,E,5,06,1.97,25.497,M,36.996,M,4.8,3107*43
$GPGGA,073106.90,3542.285143000,N,13943.270181962,E,5,06,1.97,25.496,M,36.996,M,4.9,3107*47
$GPGGA,073107.00,3542.285143013,N,13943.270181952,E,5,06,1.97,25.496,M,36.996,M,5.0,3107*46
$GPGGA,073107.10,3542.285143017,N,13943.270181929,E,5,06,1.97,25.496,M,36.996,M,5.1,3107*4E
$GPGGA,073107.20,3542.285143019,N,13943.270181908,E,5,06,1.97,25.496,M,36.996,M,5.2,3107*43
$GPGGA,073107.30,3542.285143032,N,13943.270181893,E,5,06,1.97,25.496,M,36.996,M,5.3,3107*49
$GPGGA,073107.40,3542.285143048,N,13943.270181874,E,5,06,1.97,25.496,M,36.996,M,5.4,3107*4D
$GPGGA,073107.50,3542.285143062,N,13943.270181857,E,5,06,1.97,25.496,M,36.996,M,5.5,3107*44
$GPGGA,073107.60,3542.285143066,N,13943.270181839,E,5,06,1.97,25.496,M,36.996,M,5.6,3107*48
$GPGGA,073107.70,3542.285143078,N,13943.270181824,E,5,06,1.97,25.496,M,36.996,M,5.7,3107*4B
$GPGGA,073107.80,3542.285143084,N,13943.270181801,E,5,06,1.97,25.496,M,36.996,M,5.8,3107*4F
$GPGGA,073107.90,3542.285143087,N,13943.270181780,E,5,06,1.97,25.496,M,36.996,M,5.9,3107*4A
$GPGGA,073108.00,3542.285143090,N,13943.270181759,E,5,06,1.97,25.496,M,36.996,M,6.0,3107*44
$GPGGA,073108.10,3542.285143094,N,13943.270181736,E,5,06,1.97,25.496,M,36.996,M,1.1,3107*4E
$GPGGA,073108.20,3542.285143106,N,13943.270181736,E,5,06,1.97,25.496,M,36.996,M,1.2,3107*44
$GPGGA,073108.30,3542.285143117,N,13943.270181737,E,5,06,1.97,25.496,M,36.996,M,1.3,3107*45
$GPGGA,073108.40,3542.285143130,N,13943.270181736,E,5,06,1.97,25.496,M,36.996,M,1.4,3107*41
$GPGGA,073108.50,3542.285143142,N,13943.270181733,E,5,06,1.97,25.496,M,36.996,M,1.5,3107*41
$GPGGA,073108.60,3542.285143152,N,13943.270181734,E,5,06,1.97,25.496,M,36.996,M,1.6,3107*47
$GPGGA,073108.70,3542.285143166,N,13943.270181731,E,5,06,1.97,25.496,M,36.996,M,1.7,3107*45
$GPGGA,073108.80,3542.285143173,N,13943.270181732,E,5,06,1.97,25.496,M,36.996,M,1.8,3107*42
$GPGGA,073108.90,3542.285143181,N,13943.270181730,E,5,06,1.97,25.496,M,36.996,M,1.9,3107*4D
$GPGGA,073109.00,3542.285143190,N,13943.270181732,E,5,06,1.97,25.496,M,36.996,M,2.0,3107*4D
$GPGGA,073109.10,3542.285143199,N,13943.270181730,E,5,06,1.97,25.496,M,36.996,M,2.1,3107*46
$GPGGA,073109.20,3542.285143211,N,13943.270181731,E,5,06,1.97,25.496,M,36.996,M,2.2,3107*44
$GPGGA,073109.30,3542.285143219,N,13943.270181731,E,5,06,1.97,25.496,M,36.996,M,2.3,3107*4C
$GPGGA,073109.40,3542.285143223,N,13943.270181729,E,5,06,1.97,25.496,M,36.996,M,2.4,3107*4C
$GPGGA,073109.50,3542.285143231,N,13943.270181729,E,5,06,1.97,25.496,M,36.996,M,2.5,3107*4F
$GPGGA,073109.60,3542.285143241,N,13943.270181728,E,5,06,1.97,25.496,M,36.996,M,2.6,3107*49
$GPGGA,073109.70,3542.285143247,N,13943.270181724,E,5,06,1.97,25.496,M,36.996,M,2.7,3107*43
$GPGGA,073109.80,3542.285143254,N,13943.270181726,E,5,06,1.97,25.496,M,36.996,M,2.8,3107*43
$GPGGA,073109.90,3542.285143264,N,13943.270181724,E,5,06,1.97,25.496,M,36.996,M,2.9,3107*42
$GPGGA,073110.00,3542.285143273,N,13943.270181723,E,5,06,1.97,25.496,M,36.996,M,3.0,3107*4A
$GPGGA,073110.10,3542.285143283,N,13943.270181723,E,5,06,1.97,25.496,M,36.996,M,3.1,3107*45
$GPGGA,073110.20,3542.285143290,N,13943.270181725,E,5,06,1.97,25.496,M,36.996,M,3.2,3107*41
$GPGGA,073110.30,3542.285143300,N,13943.270181722,E,5,06,1.97,25.496,M,36.996,M,3.3,3107*4E
$GPGGA,073110.40,3542.285143309,N,13943.270181722,E,5,06,1.97,25.496,M,36.996,M,3.4,3107*47
$GPGGA,073110.50,3542.285143320,N,13943.270181720,E,5,06,1.97,25.496,M,36.996,M,3.5,3107*4E
$GPGGA,073110.60,3542.285143325,N,13943.270181724,E,5,06,1.97,25.496,M,36.996,M,3.6,3107*4F
$GPGGA,073110.70,3542.285143331,N,13943.270181723,E,5,06,1.97,25.496,M,36.996,M,3.7,3107*4D
$GPGGA,073110.80,3542.285143340,N,13943.270181721,E,5,06,1.97,25.496,M,36.996,M,3.8,3107*49
$GPGGA,073110.90,3542.285143346,N,13943.270181725,E,5,06,1.97,25.496,M,36.996,M,3.9,3107*4B
$GPGGA,073111.00,3542.285143352,N,13943.270181729,E,5,06,1.97,25.496,M,36.996,M,4.0,3107*44
$GPGGA,073111.10,3542.285143357,N,13943.270181733,E,5,06,1.97,25.496,M,36.996,M,4.1,3107*4A
$GPGGA,073111.20,3542.285143364,N,13943.270181735,E,5,06,1.97,25.496,M,36.996,M,4.2,3107*4C
$GPGGA,073111.30,3542.285143375,N,13943.270181738,E,5,06,1.97,25.496,M,36.996,M,4.3,3107*41
$GPGGA,073111.40,3542.285143380,N,13943.270181741,E,5,06,1.97,25.496,M,36.996,M,4.4,3107*45
$GPGGA,073111.50,3542.285143386,N,13943.270181743,E,5,06,1.97,25.496,M,36.996,M,4.5,3107*41
$GPGGA,073111.60,3542.285143392,N,13943.270181745,E,5,06,1.97,25.496,M,36.996,M,4.6,3107*42
$GPGGA,073111.70,3542.285143399,N,13943.270181747,E,5,06,1.97,25.496,M,36.996,M,4.7,3107*4B
$GPGGA,073111.80,3542.285143407,N,13943.270181750,E,5,06,1.97,25.496,M,36.996,M,4.8,3107*4D
$GPGGA,073111.90,3542.285143413,N,13943.270181756,E,5,06,1.97,25.496,M,36.996,M,4.9,3107*4E
$GPGGA,073112.00,3542.285143420,N,13943.270181759,E,5,06,1.97,25.496,M,36.996,M,5.0,3107*43
$GPGGA,073112.10,3542.285143422,N,13943.270181746,E,5,06,1.97,25.496,M,36.996,M,5.1,3107*4F
$GPGGA,073112.20,3542.285143428,N,13943.270181739,E,5,06,1.97,25.496,M,36.996,M,5.2,3107*4D
$GPGGA,073112.30,3542.285143433,N,13943.270181730,E,5,06,1.97,25.496,M,36.996,M,5.3,3107*4E
$GPGGA,073112.40,3542.285143440,N,13943.270181722,E,5,06,1.97,25.496,M,36.996,M,5.4,3107*49
$GPGGA,073112.50,3542.285143445,N,13943.270181713,E,5,06,1.97,25.496,M,36.996,M,5.5,3107*4E
$GPGGA,073112.60,3542.285143451,N,13943.270181705,E,5,06,1.97,25.496,M,36.996,M,5.6,3107*4C
$GPGGA,073112.70,3542.285143456,N,13943.270181697,E,5,06,1.97,25.496,M,36.996,M,5.7,3107*41
$GPGGA,073112.80,3542.285143463,N,13943.270181687,E,5,06,1.97,25.496,M,36.996,M,5.8,3107*46
$GPGGA,073112.90,3542.285143469,N,13943.270181677,E,5,06,1.97,25.496,M,36.996,M,5.9,3107*43
$GPGGA,073113.00,3542.285143475,N,13943.270181666,E,5,06,1.97,25.496,M,36.996,M,6.0,3107*4C
$GPGGA,073113.10,3542.285143481,N,13943.270181656,E,5,06,1.97,25.496,M,36.996,M,6.1,3107*44
$GPGGA,073113.20,3542.285143486,N,13943.270181648,E,5,06,1.97,25.496,M,36.996,M,6.2,3107*4C
$GPGGA,073113.30,3542.285143489,N,13943.270181641,E,5,06,1.97,25.496,M,36.996,M,6.3,3107*4A
$GPGGA,073113.40,3542.285143494,N,13943.270181631,E,5,06,1.97,25.496,M,36.996,M,6.4,3107*41
$GPGGA,073113.50,3542.285143498,N,13943.270181626,E,5,06,1.97,25.496,M,36.996,M,6.5,3107*4B
$GPGGA,073113.60,3542.285143505,N,13943.270181620,E,5,06,1.97,25.496,M,36.996,M,6.6,3107*48
$GPGGA,073113.70,3542.285143511,N,13943.270181609,E,5,06,1.97,25.496,M,36.996,M,6.7,3107*46
$GPGGA,073113.80,3542.285143516,N,13943.270181599,E,5,06,1.97,25.496,M,36.996,M,6.8,3107*4B
$GPGGA,073113.90,3542.285143529,N,13943.270181596,E,5,06,1.97,25.496,M,36.996,M,6.9,3107*48
$GPGGA,073114.00,3542.285143532,N,13943.270181587,E,5,06,1.97,25.496,M,36.996,M,7.0,3107*44
$GPGGA,073114.10,3542.285143536,N,13943.270181575,E,5,06,1.97,25.496,M,36.996,M,2.1,3107*48
$GPGGA,073114.20,3542.285143540,N,13943.270181568,E,5,06,1.97,25.496,M,36.996,M,2.2,3107*45
$GPGGA,073114.30,3542.285143544,N,13943.270181561,E,5,06,1.97,25.496,M,36.996,M,2.3,3107*48
$GPGGA,073114.40,3542.285143547,N,13943.270181554,E,5,06,1.97,25.496,M,36.996,M,2.4,3107*4D
$GPGGA,073114.50,3542.285143552,N,13943.270181545,E,5,06,1.97,25.496,M,36.996,M,2.5,3107*49
$GPGGA,073114.60,3542.285143556,N,13943.270181540,E,5,06,1.97,25.496,M,36.996,M,2.6,3107*48
$GPGGA,073114.70,3542.285143561,N,13943.270181533,E,5,06,1.97,25.496,M,36.996,M,2.7,3107*48
$GPGGA,073114.80,3542.285143566,N,13943.270181525,E,5,06,1.97,25.496,M,36.996,M,2.8,3107*48
$GPGGA,073114.90,3542.285143569,N,13943.270181520,E,5,06,1.97,25.496,M,36.996,M,2.9,3107*42
$GPGGA,073115.00,3542.285143574,N,13943.270181516,E,5,06,1.97,25.496,M,36.996,M,3.0,3107*4B
$GPGGA,073115.10,3542.285143586,N,13943.270181520,E,5,06,1.97,25.496,M,36.996,M,3.1,3107*43
$GPGGA,073115.20,3542.285143600,N,13943.270181520,E,5,06,1.97,25.496,M,36.996,M,3.2,3107*4E
$GPGGA,073115.30,3542.285143603,N,13943.270181517,E,5,06,1.97,25.496,M,36.996,M,3.3,3107*49
$GPGGA,073115.40,3542.285143610,N,13943.270181510,E,5,06,1.97,25.496,M,36.996,M,3.4,3107*4C
$GPGGA,073115.50,3542.285143622,N,13943.270181511,E,5,06,1.97,25.496,M,36.996,M,3.5,3107*4C
$GPGGA,073115.60,3542.285143628,N,13943.270181501,E,5,06,1.97,25.496,M,36.996,M,3.6,3107*47
$GPGGA,073115.70,3542.285143632,N,13943.270181496,E,5,06,1.97,25.496,M,36.996,M,3.7,3107*43
$GPGGA,073115.80,3542.285143635,N,13943.270181491,E,5,06,1.97,25.496,M,36.996,M,3.8,3107*43
$GPGGA,073115.90,3542.285143644,N,13943.270181491,E,5,06,1.97,25.496,M,36.996,M,3.9,3107*45
$GPGGA,073116.00,3542.285143662,N,13943.270181494,E,5,06,1.97,25.496,M,36.996,M,4.0,3107*40
$GPGGA,073116.10,3542.285143678,N,13943.270181498,E,5,06,1.97,25.496,M,36.996,M,4.1,3107*47
$GPGGA,073116.20,3542.285143691,N,13943.270181505,E,5,06,1.97,25.496,M,36.996,M,4.2,3107*45
$GPGGA,073116.30,3542.285143706,N,13943.270181510,E,5,06,1.97,25.496,M,36.996,M,4.3,3107*4E
$GPGGA,073116.40,3542.285143721,N,13943.270181513,E,5,06,1.97,25.496,M,36.996,M,4.4,3107*48
$GPGGA,073116.50,3542.285143736,N,13943.270181517,E,5,06,1.97,25.496,M,36.996,M,4.5,3107*4A
$GPGGA,073116.60,3542.285143752,N,13943.270181520,E,5,06,1.97,25.496,M,36.996,M,4.6,3107*4C
$GPGGA,073116.70,3542.285143767,N,13943.270181527,E,5,06,1.97,25.496,M,36.996,M,4.7,3107*4D
$GPGGA,073116.80,3542.285143784,N,13943.270181528,E,5,06,1.97,25.496,M,36.996,M,4.8,3107*4F
$GPGGA,073116.90,3542.285143798,N,13943.270181534,E,5,06,1.97,25.496,M,36.996,M,4.9,3107*4F
$GPGGA,073117.00,3542.285143814,N,13943.270181540,E,5,06,1.97,25.496,M,36.996,M,5.0,3107*47
$GPGGA,073117.10,3542.285143825,N,13943.270181532,E,5,06,1.97,25.496,M,36.996,M,5.1,3107*40
$GPGGA,073117.20,3542.285143834,N,13943.270181526,E,5,06,1.97,25.496,M,36.996,M,5.2,3107*45
$GPGGA,073117.30,3542.285143841,N,13943.270181520,E,5,06,1.97,25.496,M,36.996,M,5.3,3107*41
$GPGGA,073117.40,3542.285143850,N,13943.270181518,E,5,06,1.97,25.496,M,36.996,M,5.4,3107*4A
$GPGGA,073117.50,3542.285143858,N,13943.270181513,E,5,06,1.97,25.495,M,36.996,M,5.5,3107*4A
$GPGGA,073117.60,3542.285143868,N,13943.270181506,E,5,06,1.97,25.495,M,36.996,M,5.6,3107*4D
$GPGGA,073117.70,3542.285143879,N,13943.270181498,E,5,06,1.97,25.495,M,36.996,M,5.7,3107*4B
$GPGGA,073117.80,3542.285143889,N,13943.270181494,E,5,06,1.97,25.495,M,36.996,M,5.8,3107*48
$GPGGA,073117.90,3542.285143897,N,13943.270181489,E,5,06,1.97,25.495,M,36.996,M,5.9,3107*4B
$GPGGA,073118.00,3542.285143905,N,13943.270181481,E,5,06,1.97,25.495,M,36.996,M,6.0,3107*45
$GPGGA,073118.10,3542.285143916,N,13943.270181475,E,5,06,1.97,25.495,M,36.996,M,1.1,3107*4B
$GPGGA,073118.20,3542.285143931,N,13943.270181478,E,5,06,1.97,25.495,M,36.996,M,1.2,3107*43
$GPGGA,073118.30,3542.285143948,N,13943.270181482,E,5,06,1.97,25.495,M,36.996,M,1.3,3107*48
$GPGGA,073118.40,3542.285143959,N,13943.270181488,E,5,06,1.97,25.495,M,36.996,M,1.4,3107*42
$GPGGA,073118.50,3542.285143971,N,13943.270181490,E,5,06,1.97,25.495,M,36.996,M,1.5,3107*41
$GPGGA,073118.60,3542.285143983,N,13943.270181494,E,5,06,1.97,25.495,M,36.996,M,1.6,3107*48
$GPGGA,073118.70,3542.285143994,N,13943.270181500,E,5,06,1.97,25.495,M,36.996,M,1.7,3107*42
$GPGGA,073118.80,3542.285144004,N,13943.270181506,E,5,06,1.97,25.495,M,36.996,M,1.8,3107*43
$GPGGA,073118.90,3542.285144016,N,13943.270181512,E,5,06,1.97,25.495,M,36.996,M,1.9,3107*45
$GPGGA,073119.00,3542.285144028,N,13943.270181516,E,5,06,1.97,25.495,M,36.996,M,2.0,3107*4E
$GPGGA,073119.10,3542.285144038,N,13943.270181519,E,5,06,1.97,25.495,M,36.996,M,2.1,3107*40
$GPGGA,073119.20,3542.285144049,N,13943.270181525,E,5,06,1.97,25.495,M,36.996,M,2.2,3107*49
$GPGGA,073119.30,3542.285144062,N,13943.270181529,E,5,06,1.97,25.495,M,36.996,M,2.3,3107*4C
$GPGGA,073119.40,3542.285144074,N,13943.270181530,E,5,06,1.97,25.495,M,36.996,M,2.4,3107*43
$GPGGA,073119.50,3542.285144085,N,13943.270181535,E,5,06,1.97,25.495,M,36.996,M,2.5,3107*48
$GPGGA,073119.60,3542.285144099,N,13943.270181536,E,5,06,1.97,25.495,M,36.996,M,2.6,3107*46
$GPGGA,073119.70,3542.285144108,N,13943.270181544,E,5,06,1.97,25.495,M,36.996,M,2.7,3107*4A
$GPGGA,073119.80,3542.285144123,N,13943.270181543,E,5,06,1.97,25.495,M,36.996,M,2.8,3107*44
$GPGGA,073119.90,3542.285144131,N,13943.270181548,E,5,06,1.97,25.495,M,36.996,M,2.9,3107*4C
$GPGGA,073120.00,3542.285144143,N,13943.270181551,E,5,06,1.97,25.495,M,36.996,M,3.0,3107*4A
$GPGGA,073120.10,3542.285144155,N,13943.270181556,E,5,06,1.97,25.495,M,36.996,M,3.1,3107*4A
$GPGGA,073120.20,3542.285144167,N,13943.270181558,E,5,06,1.97,25.495,M,36.996,M,3.2,3107*45
$GPGGA,073120.30,3542.285144178,N,13943.270181561,E,5,06,1.97,25.495,M,36.996,M,3.3,3107*41
$GPGGA,073120.40,3542.285144192,N,13943.270181564,E,5,06,1.97,25.495,M,36.996,M,3.4,3107*40
$GPGGA,073120.50,3542.285144203,N,13943.270181568,E,5,06,1.97,25.495,M,36.996,M,3.5,3107*47
$GPGGA,073120.60,3542.285144214,N,13943.270181573,E,5,06,1.97,25.495,M,36.996,M,3.6,3107*4B
$GPGGA,073120.70,3542.285144226,N,13943.270181578,E,5,06,1.97,25.495,M,36.996,M,3.7,3107*41
$GPGGA,073120.80,3542.285144237,N,13943.270181585,E,5,06,1.97,25.495,M,36.996,M,3.8,3107*43
$GPGGA,073120.90,3542.285144247,N,13943.270181590,E,5,06,1.97,25.495,M,36.996,M,3.9,3107*40
$GPGGA,073121.00,3542.285144257,N,13943.270181594,E,5,06,1.97,25.495,M,36.996,M,4.0,3107*43
$GPGGA,073121.10,3542.285144268,N,13943.270181597,E,5,06,1.97,25.495,M,36.996,M,4.1,3107*4C
$GPGGA,073121.20,3542.285144284,N,13943.270181601,E,5,06,1.97,25.495,M,36.996,M,4.2,3107*42
$GPGGA,073121.30,3542.285144299,N,13943.270181604,E,5,06,1.97,25.495,M,36.996,M,4.3,3107*4B
$GPGGA,073121.40,3542.285144307,N,13943.270181609,E,5,06,1.97,25.495,M,36.996,M,4.4,3107*40
$GPGGA,073121.50,3542.285144318,N,13943.270181611,E,5,06,1.97,25.495,M,36.996,M,4.5,3107*47
$GPGGA,073121.60,3542.285144331,N,13943.270181614,E,5,06,1.97,25.495,M,36.996,M,4.6,3107*49
$GPGGA,073121.70,3542.285144343,N,13943.270181620,E,5,06,1.97,25.495,M,36.996,M,4.7,3107*4B
$GPGGA,073121.80,3542.285144353,N,13943.270181625,E,5,06,1.97,25.495,M,36.996,M,4.8,3107*4F
$GPGGA,073121.90,3542.285144364,N,13943.270181626,E,5,06,1.97,25.495,M,36.996,M,4.9,3107*48
$GPGGA,073122.00,3542.285144374,N,13943.270181635,E,5,06,1.97,25.495,M,36.996,M,5.0,3107*49
$GPGGA,073122.10,3542.285144383,N,13943.270181629,E,5,06,1.97,25.495,M,36.996,M,5.1,3107*4C
$GPGGA,073122.20,3542.285144389,N,13943.270181625,E,5,06,1.97,25.495,M,36.996,M,5.2,3107*4A
$GPGGA,073122.30,3542.285144394,N,13943.270181618,E,5,06,1.97,25.495,M,36.996,M,5.3,3107*48
$GPGGA,073122.40,3542.285144400,N,13943.270181606,E,5,06,1.97,25.495,M,36.996,M,5.4,3107*4D
$GPGGA,073122.50,3542.285144406,N,13943.270181599,E,5,06,1.97,25.495,M,36.996,M,5.5,3107*4E
$GPGGA,073122.60,3542.285144411,N,13943.270181590,E,5,06,1.97,25.495,M,36.996,M,5.6,3107*41
$GPGGA,073122.70,3542.285144416,N,13943.270181577,E,5,06,1.97,25.495,M,36.996,M,5.7,3107*4F
$GPGGA,073122.80,3542.285144425,N,13943.270181567,E,5,06,1.97,25.495,M,36.996,M,5.8,3107*4E
$GPGGA,073122.90,3542.285144430,N,13943.270181559,E,5,06,1.97,25.495,M,36.996,M,5.9,3107*47
$GPGGA,073123.00,3542.285144436,N,13943.270181549,E,5,06,1.97,25.495,M,36.996,M,6.0,3107*42
$GPGGA,073123.10,3542.285144445,N,13943.270181537,E,5,06,1.97,25.495,M,36.996,M,1.1,3107*48
$GPGGA,073123.20,3542.285144455,N,13943.270181543,E,5,06,1.97,25.495,M,36.996,M,1.2,3107*4A
$GPGGA,073123.30,3542.285144458,N,13943.270181545,E,5,06,1.97,25.495,M,36.996,M,1.3,3107*41
$GPGGA,073123.40,3542.285144467,N,13943.270181532,E,5,06,1.97,25.495,M,36.996,M,1.4,3107*4D
$GPGGA,073123.50,3542.285144476,N,13943.270181521,E,5,06,1.97,25.495,M,36.996,M,1.5,3107*4F
$GPGGA,073123.60,3542.285144484,N,13943.270181503,E,5,06,1.97,25.495,M,36.996,M,1.6,3107*42
$GPGGA,073123.70,3542.285144493,N,13943.270181488,E,5,06,1.97,25.495,M,36.996,M,1.7,3107*46
$GPGGA,073123.80,3542.285144502,N,13943.270181471,E,5,06,1.97,25.495,M,36.996,M,1.8,3107*49
$GPGGA,073123.90,3542.285144509,N,13943.270181455,E,5,06,1.97,25.495,M,36.996,M,1.9,3107*44
$GPGGA,073124.00,3542.285144519,N,13943.270181439,E,5,06,1.97,25.495,M,36.996,M,2.0,3107*4B
$GPGGA,073124.10,3542.285144525,N,13943.270181423,E,5,06,1.97,25.495,M,36.996,M,2.1,3107*4F
$GPGGA,073124.20,3542.285144535,N,13943.270181405,E,5,06,1.97,25.494,M,36.996,M,2.2,3107*4B
$GPGGA,073124.30,3542.285144543,N,13943.270181388,E,5,06,1.97,25.494,M,36.996,M,2.3,3107*48
$GPGGA,073124.40,3542.285144552,N,13943.270181370,E,5,06,1.97,25.494,M,36.996,M,2.4,3107*4F
$GPGGA,073124.50,3542.285144560,N,13943.270181351,E,5,06,1.97,25.494,M,36.996,M,2.5,3107*4D
$GPGGA,073124.60,3542.285144570,N,13943.270181334,E,5,06,1.97,25.494,M,36.996,M,2.6,3107*4F
$GPGGA,073124.70,3542.285144580,N,13943.270181320,E,5,06,1.97,25.494,M,36.996,M,2.7,3107*45
$GPGGA,073124.80,3542.285144587,N,13943.270181306,E,5,06,1.97,25.494,M,36.996,M,2.8,3107*46
$GPGGA,073124.90,3542.285144597,N,13943.270181290,E,5,06,1.97,25.494,M,36.996,M,2.9,3107*49
$GPGGA,073125.00,3542.285144608,N,13943.270181276,E,5,06,1.97,25.494,M,36.996,M,3.0,3107*44
$GPGGA,073125.10,3542.285144616,N,13943.270181261,E,5,06,1.97,25.494,M,36.996,M,3.1,3107*4D
$GPGGA,073125.20,3542.285144623,N,13943.270181247,E,5,06,1.97,25.494,M,36.996,M,3.2,3107*4F
$GPGGA,073125.30,3542.285144634,N,13943.270181232,E,5,06,1.97,25.494,M,36.996,M,3.3,3107*4B
$GPGGA,073125.40,3542.285144641,N,13943.270181219,E,5,06,1.97,25.494,M,36.996,M,3.4,3107*40
$GPGGA,073125.50,3542.285144651,N,13943.270181202,E,5,06,1.97,25.494,M,36.996,M,3.5,3107*4B
$GPGGA,073125.60,3542.285144661,N,13943.270181188,E,5,06,1.97,25.494,M,36.996,M,3.6,3107*49
$GPGGA,073125.70,3542.285144668,N,13943.270181172,E,5,06,1.97,25.494,M,36.996,M,3.7,3107*45
$GPGGA,073125.80,3542.285144676,N,13943.270181155,E,5,06,1.97,25.494,M,36.996,M,3.8,3107*4F
$GPGGA,073125.90,3542.285144685,N,13943.270181138,E,5,06,1.97,25.494,M,36.996,M,3.9,3107*48
$GPGGA,073126.00,3542.285144693,N,13943.270181121,E,5,06,1.97,25.494,M,36.996,M,4.0,3107*43
$GPGGA,073126.10,3542.285144701,N,13943.270181102,E,5,06,1.97,25.494,M,36.996,M,4.1,3107*48
$GPGGA,073126.20,3542.285144713,N,13943.270181086,E,5,06,1.97,25.494,M,36.996,M,4.2,3107*46
$GPGGA,073126.30,3542.285144722,N,13943.270181070,E,5,06,1.97,25.494,M,36.996,M,4.3,3107*4D
$GPGGA,073126.40,3542.285144730,N,13943.270181054,E,5,06,1.97,25.494,M,36.996,M,4.4,3107*48
$GPGGA,073126.50,3542.285144739,N,13943.270181039,E,5,06,1.97,25.494,M,36.996,M,4.5,3107*4A
$GPGGA,073126.60,3542.285144746,N,13943.270181024,E,5,06,1.97,25.494,M,36.996,M,4.6,3107*4E
$GPGGA,073126.70,3542.285144753,N,13943.270181010,E,5,06,1.97,25.494,M,36.996,M,4.7,3107*4D
$GPGGA,073126.80,3542.285144763,N,13943.270180995,E,5,06,1.97,25.494,M,36.996,M,4.8,3107*4B
$GPGGA,073126.90,3542.285144770,N,13943.270180982,E,5,06,1.97,25.494,M,36.996,M,4.9,3107*4F
$GPGGA,073127.00,3542.285144778,N,13943.270180966,E,5,06,1.97,25.494,M,36.996,M,5.0,3107*4D
$GPGGA,073127.10,3542.285144790,N,13943.270180947,E,5,06,1.97,25.494,M,36.996,M,5.1,3107*48
$GPGGA,073127.20,3542.285144796,N,13943.270180933,E,5,06,1.97,25.494,M,36.996,M,5.2,3107*4D
$GPGGA,073127.30,3542.285144806,N,13943.270180929,E,5,06,1.97,25.494,M,36.996,M,5.3,3107*40
$GPGGA,073127.40,3542.285144815,N,13943.270180924,E,5,06,1.97,25.494,M,36.996,M,5.4,3107*4F
$GPGGA,073127.50,3542.285144824,N,13943.270180920,E,5,06,1.97,25.494,M,36.996,M,5.5,3107*49
$GPGGA,073127.60,3542.285144831,N,13943.270180911,E,5,06,1.97,25.494,M,36.996,M,5.6,3107*4F
$GPGGA,073127.70,3542.285144839,N,13943.270180900,E,5,06,1.97,25.494,M,36.996,M,5.7,3107*47
$GPGGA,073127.80,3542.285144846,N,13943.270180894,E,5,06,1.97,25.494,M,36.996,M,5.8,3107*43
$GPGGA,073127.90,3542.285144854,N,13943.270180885,E,5,06,1.97,25.494,M,36.996,M,5.9,3107*40
$GPGGA,073128.00,3542.285144860,N,13943.270180880,E,5,06,1.97,25.494,M,36.996,M,6.0,3107*4E
$GPGGA,073128.10,3542.285144868,N,13943.270180871,E,5,06,1.97,25.494,M,36.996,M,1.1,3107*4F
$GPGGA,073128.20,3542.285144877,N,13943.270180881,E,5,06,1.97,25.494,M,36.996,M,1.2,3107*4E
$GPGGA,073128.30,3542.285144882,N,13943.270180881,E,5,06,1.97,25.494,M,36.996,M,1.3,3107*44
$GPGGA,073128.40,3542.285144887,N,13943.270180881,E,5,06,1.97,25.494,M,36.996,M,1.4,3107*41
$GPGGA,073128.50,3542.285144893,N,13943.270180885,E,5,06,1.97,25.494,M,36.996,M,1.5,3107*40
$GPGGA,073128.60,3542.285144900,N,13943.270180886,E,5,06,1.97,25.494,M,36.996,M,1.6,3107*48
$GPGGA,073128.70,3542.285144904,N,13943.270180889,E,5,06,1.97,25.494,M,36.996,M,1.7,3107*43
$GPGGA,073128.80,3542.285144910,N,13943.270180891,E,5,06,1.97,25.494,M,36.996,M,1.8,3107*4F
$GPGGA,073128.90,3542.285144916,N,13943.270180892,E,5,06,1.97,25.494,M,36.996,M,1.9,3107*4A
$GPGGA,073129.00,3542.285144922,N,13943.270180893,E,5,06,1.97,25.494,M,36.996,M,2.0,3107*4E
$GPGGA,073129.10,3542.285144932,N,13943.270180897,E,5,06,1.97,25.494,M,36.996,M,2.1,3107*4B
$GPGGA,073129.20,3542.285144944,N,13943.270180903,E,5,06,1.97,25.494,M,36.996,M,2.2,3107*46
$GPGGA,073129.30,3542.285144952,N,13943.270180912,E,5,06,1.97,25.494,M,36.996,M,2.3,3107*41
$GPGGA,073129.40,3542.285144964,N,13943.270180917,E,5,06,1.97,25.494,M,36.996,M,2.4,3107*41
$GPGGA,073129.50,3542.285144975,N,13943.270180923,E,5,06,1.97,25.494,M,36.996,M,2.5,3107*46
$GPGGA,073129.60,3542.285144982,N,13943.270180923,E,5,06,1.97,25.494,M,36.996,M,2.6,3107*4E
$GPGGA,073129.70,3542.285144985,N,13943.270180926,E,5,06,1.97,25.494,M,36.996,M,2.7,3107*4C
$GPGGA,073129.80,3542.285144993,N,13943.270180929,E,5,06,1.97,25.494,M,36.996,M,2.8,3107*44
$GPGGA,073129.90,3542.285145003,N,13943.270180936,E,5,06,1.97,25.494,M,36.996,M,2.9,3107*4B
$GPGGA,073130.00,3542.285145013,N,13943.270180942,E,5,06,1.97,25.494,M,36.996,M,3.0,3107*40
$GPGGA,073130.10,3542.285145025,N,13943.270180948,E,4,08,1.38,25.494,M,36.996,M,3.1,3107*45
$GPGGA,073130.20,3542.285146959,N,13943.270180390,E,4,08,1.38,25.494,M,36.996,M,3.2,3107*4B
$GPGGA,073130.30,3542.285147770,N,13943.270180567,E,4,08,1.38,25.495,M,36.996,M,3.3,3107*40
$GPGGA,073130.40,3542.285148987,N,13943.270179798,E,4,08,1.38,25.495,M,36.996,M,3.4,3107*4D
$GPGGA,073130.50,3542.285150239,N,13943.270179685,E,4,08,1.38,25.495,M,36.996,M,3.5,3107*47
$GPGGA,073130.60,3542.285150767,N,13943.270179307,E,4,08,1.38,25.495,M,36.996,M,3.6,3107*46
$GPGGA,073130.70,3542.285151133,N,13943.270179267,E,4,08,1.38,25.495,M,36.996,M,3.7,3107*47
$GPGGA,073130.80,3542.285151641,N,13943.270179107,E,4,08,1.38,25.496,M,36.996,M,3.8,3107*43
$GPGGA,073130.90,3542.285151830,N,13943.270178374,E,4,08,1.38,25.495,M,36.996,M,3.9,3107*4F
$GPGGA,073131.00,3542.285151934,N,13943.270178356,E,4,08,1.38,25.495,M,36.996,M,4.0,3107*4C
$GPGGA,073131.10,3542.285152063,N,13943.270178328,E,4,08,1.38,25.495,M,36.996,M,4.1,3107*4D
$GPGGA,073131.20,3542.285152150,N,13943.270177891,E,4,08,1.38,25.495,M,36.996,M,4.2,3107*4A
$GPGGA,073131.30,3542.285152185,N,13943.270178010,E,4,08,1.38,25.495,M,36.996,M,4.3,3107*4C
$GPGGA,073131.40,3542.285152281,N,13943.270177844,E,4,08,1.38,25.495,M,36.996,M,4.4,3107*4D
$GPGGA,073131.50,3542.285152318,N,13943.270177268,E,4,08,1.38,25.495,M,36.996,M,4.5,3107*48
$GPGGA,073131.60,3542.285152440,N,13943.270177189,E,4,08,1.38,25.495,M,36.996,M,4.6,3107*4E
$GPGGA,073131.70,3542.285152641,N,13943.270177014,E,4,08,1.38,25.495,M,36.996,M,4.7,3107*48
$GPGGA,073131.80,3542.285152749,N,13943.270176804,E,4,08,1.38,25.495,M,36.996,M,4.8,3107*49
$GPGGA,073131.90,3542.285152829,N,13943.270176582,E,4,08,1.38,25.495,M,36.996,M,4.9,3107*43
$GPGGA,073132.00,3542.285152789,N,13943.270176373,E,4,08,1.38,25.495,M,36.996,M,5.0,3107*4C
$GPGGA,073132.10,3542.285152773,N,13943.270176086,E,4,08,1.38,25.495,M,36.996,M,5.1,3107*40
$GPGGA,073132.20,3542.285152855,N,13943.270176235,E,4,08,1.38,25.495,M,36.996,M,5.2,3107*41
$GPGGA,073132.30,3542.285152766,N,13943.270176175,E,4,08,1.38,25.495,M,36.996,M,5.3,3107*49
$GPGGA,073132.40,3542.285152417,N,13943.270175831,E,4,08,1.38,25.495,M,36.996,M,5.4,3107*46
$GPGGA,073132.50,3542.285152102,N,13943.270175604,E,4,08,1.38,25.495,M,36.996,M,5.5,3107*4F
$GPGGA,073132.60,3542.285151711,N,13943.270175367,E,5,06,1.97,25.494,M,36.996,M,5.6,3107*43
$GPGGA,073132.70,3542.285151928,N,13943.270176262,E,5,05,2.73,25.493,M,36.996,M,5.7,3107*4D
$GPGGA,073132.80,3542.285150750,N,13943.270177837,E,5,05,2.73,25.489,M,36.996,M,5.8,3107*4D
$GPGGA,073132.90,3542.285147224,N,13943.270178502,E,5,05,2.73,25.487,M,36.996,M,5.9,3107*47
$GPGGA,073133.00,3542.285142613,N,13943.270178946,E,5,05,2.73,25.478,M,36.996,M,6.0,3107*4C
$GPGGA,073133.10,3542.285134405,N,13943.270182583,E,5,05,2.73,25.471,M,36.996,M,1.1,3107*46
$GPGGA,073133.20,3542.285127453,N,13943.270187247,E,5,06,1.97,25.464,M,36.996,M,1.2,3107*43
$GPGGA,073133.30,3542.285120033,N,13943.270194301,E,5,06,1.97,25.456,M,36.996,M,1.3,3107*46
$GPGGA,073133.40,3542.285106198,N,13943.270203438,E,5,05,2.73,25.439,M,36.996,M,1.4,3107*41
$GPGGA,073133.50,3542.285097351,N,13943.270200769,E,5,05,2.73,25.429,M,36.996,M,1.5,3107*4A
$GPGGA,073133.60,3542.285100387,N,13943.270197342,E,5,05,2.73,25.426,M,36.996,M,1.6,3107*41
$GPGGA,073133.70,3542.285090611,N,13943.270203835,E,5,05,2.73,25.415,M,36.996,M,1.7,3107*46
$GPGGA,073133.80,3542.285078010,N,13943.270223382,E,5,05,2.73,25.387,M,36.996,M,1.8,3107*4E
$GPGGA,073133.90,3542.285076145,N,13943.270225101,E,5,05,2.73,25.387,M,36.996,M,1.9,3107*4E
$GPGGA,073134.00,3542.285071438,N,13943.270234951,E,5,05,2.73,25.372,M,36.996,M,2.0,3107*45
$GPGGA,073134.10,3542.285054862,N,13943.270244344,E,5,05,2.73,25.358,M,36.996,M,2.1,3107*40
$GPGGA,073134.20,3542.285043853,N,13943.270239653,E,5,05,2.73,25.340,M,36.996,M,2.2,3107*44
$GPGGA,073134.30,3542.285032551,N,13943.270231624,E,5,04,18.33,25.347,M,36.996,M,2.3,3107*7C
$GPGGA,073134.40,3542.285021649,N,13943.270233973,E,5,04,18.32,25.343,M,36.996,M,2.4,3107*7E
$GPGGA,073134.50,3542.285017747,N,13943.270236524,E,5,05,2.73,25.336,M,36.996,M,2.5,3107*42
$GPGGA,073134.60,3542.285011355,N,13943.270236695,E,5,05,2.73,25.337,M,36.996,M,2.6,3107*4B
$GPGGA,073134.70,3542.284996278,N,13943.270239161,E,5,04,18.32,25.330,M,36.996,M,2.7,3107*79
$GPGGA,073134.80,3542.284981858,N,13943.270235056,E,5,05,2.73,25.327,M,36.996,M,2.8,3107*47
$GPGGA,073134.90,3542.284966802,N,13943.270229992,E,5,05,2.73,25.328,M,36.996,M,2.9,3107*42
$GPGGA,073135.00,3542.284949382,N,13943.270232463,E,5,06,1.97,25.311,M,36.996,M,3.0,3107*45
$GPGGA,073135.10,3542.284933824,N,13943.270249747,E,5,05,2.19,25.291,M,36.996,M,3.1,3107*49
$GPGGA,073135.20,3542.284915327,N,13943.270256467,E,5,05,2.19,25.295,M,36.996,M,3.2,3107*4E
$GPGGA,073135.30,3542.284895035,N,13943.270260870,E,5,05,2.19,25.305,M,36.996,M,3.3,3107*40
$GPGGA,073135.40,3542.284876632,N,13943.270259873,E,5,05,2.19,25.293,M,36.996,M,3.4,3107*4B
$GPGGA,073135.50,3542.284854929,N,13943.270253395,E,5,05,2.19,25.293,M,36.996,M,3.5,3107*47
$GPGGA,073135.60,3542.284840660,N,13943.270258120,E,5,06,2.02,25.289,M,36.996,M,3.6,3107*45
$GPGGA,073135.70,3542.284846789,N,13943.270293680,E,5,06,2.02,25.241,M,36.996,M,3.7,3107*4B
$GPGGA,073135.80,3542.284827008,N,13943.270294606,E,5,05,2.19,25.222,M,36.996,M,3.8,3107*47
$GPGGA,073135.90,3542.284812320,N,13943.270294766,E,5,06,2.02,25.216,M,36.996,M,3.9,3107*41
$GPGGA,073136.00,3542.284784509,N,13943.270302675,E,5,05,2.19,25.211,M,36.996,M,4.0,3107*4B
$GPGGA,073136.10,3542.284749742,N,13943.270312834,E,5,05,2.19,25.272,M,36.996,M,4.1,3107*48
$GPGGA,073136.20,3542.284722465,N,13943.270318427,E,5,05,2.19,25.282,M,36.996,M,4.2,3107*48
$GPGGA,073136.30,3542.284706244,N,13943.270325581,E,5,06,2.02,25.278,M,36.996,M,4.3,3107*44
$GPGGA,073136.40,3542.284689397,N,13943.270318454,E,5,06,2.02,25.267,M,36.996,M,4.4,3107*44
$GPGGA,073136.50,3542.284674034,N,13943.270322317,E,5,05,2.19,25.259,M,36.996,M,4.5,3107*41
$GPGGA,073136.60,3542.284647567,N,13943.270305318,E,5,06,1.59,25.301,M,36.996,M,4.6,3107*40
$GPGGA,073136.70,3542.284624489,N,13943.270277858,E,5,06,1.59,25.340,M,36.996,M,4.7,3107*4A
$GPGGA,073136.80,3542.284597041,N,13943.270271850,E,5,06,1.59,25.360,M,36.996,M,4.8,3107*4D
$GPGGA,073136.90,3542.284570680,N,13943.270260673,E,5,05,2.19,25.365,M,36.996,M,4.9,3107*41
$GPGGA,073137.00,3542.284551767,N,13943.270243390,E,5,05,2.19,25.401,M,36.996,M,5.0,3107*46
$GPGGA,073137.10,3542.284711582,N,13943.270344837,E,5,05,2.19,25.191,M,36.996,M,5.1,3107*45
$GPGGA,073137.20,3542.284711746,N,13943.270343726,E,5,05,2.19,25.192,M,36.996,M,5.2,3107*44
$GPGGA,073137.30,3542.284712417,N,13943.270341903,E,5,05,2.19,25.193,M,36.996,M,5.3,3107*4A
$GPGGA,073137.40,3542.284712700,N,13943.270339133,E,5,05,2.19,25.194,M,36.996,M,5.4,3107*4C
$GPGGA,073137.50,3542.284711956,N,13943.270338103,E,5,05,2.19,25.197,M,36.996,M,5.5,3107*43
$GPGGA,073137.60,3542.284712213,N,13943.270336994,E,5,05,2.19,25.197,M,36.996,M,5.6,3107*42
$GPGGA,073137.70,3542.284712970,N,13943.270335548,E,5,06,2.02,25.195,M,36.996,M,5.7,3107*49
$GPGGA,073137.80,3542.284714104,N,13943.270333501,E,5,05,2.19,25.192,M,36.996,M,5.8,3107*41
$GPGGA,073137.90,3542.284715020,N,13943.270329947,E,5,05,2.19,25.188,M,36.996,M,5.9,3107*49
$GPGGA,073138.00,3542.284714702,N,13943.270323033,E,5,05,2.19,25.182,M,36.996,M,6.0,3107*49
$GPGGA,073138.10,3542.284713447,N,13943.270319018,E,5,06,1.97,25.175,M,36.996,M,1.1,3107*45
$GPGGA,073138.20,3542.284710985,N,13943.270316502,E,5,05,2.19,25.165,M,36.996,M,1.2,3107*43
$GPGGA,073138.30,3542.284709252,N,13943.270312588,E,5,05,2.19,25.151,M,36.996,M,1.3,3107*4B
$GPGGA,073138.40,3542.284706330,N,13943.270302963,E,5,05,2.19,25.139,M,36.996,M,1.4,3107*47
$GPGGA,073138.50,3542.284700425,N,13943.270294575,E,5,06,1.59,25.127,M,36.996,M,1.5,3107*4C
$GPGGA,073138.60,3542.284693348,N,13943.270286063,E,5,06,1.59,25.111,M,36.996,M,1.6,3107*4F
$GPGGA,073138.70,3542.284679948,N,13943.270270432,E,5,06,1.59,25.109,M,36.996,M,1.7,3107*41
$GPGGA,073138.80,3542.284679504,N,13943.270252397,E,5,06,1.59,25.095,M,36.996,M,1.8,3107*49
$GPGGA,073138.90,3542.284668478,N,13943.270242911,E,5,05,2.19,25.087,M,36.996,M,1.9,3107*41
$GPGGA,073139.00,3542.284661406,N,13943.270229766,E,5,06,1.59,25.081,M,36.996,M,2.0,3107*42
$GPGGA,073139.10,3542.284679974,N,13943.270290517,E,5,06,1.59,25.100,M,36.996,M,2.1,3107*4D
$GPGGA,073139.20,3542.284680251,N,13943.270290208,E,5,06,1.59,25.099,M,36.996,M,2.2,3107*4F
$GPGGA,073139.30,3542.284681316,N,13943.270290350,E,5,06,1.59,25.099,M,36.996,M,2.3,3107*40
$GPGGA,073139.40,3542.284682185,N,13943.270290220,E,5,06,1.59,25.098,M,36.996,M,2.4,3107*4C
$GPGGA,073139.50,3542.284681624,N,13943.270289615,E,5,05,2.19,25.099,M,36.996,M,2.5,3107*4C
$GPGGA,073139.60,3542.284679959,N,13943.270290393,E,5,05,2.19,25.097,M,36.996,M,2.6,3107*43
$GPGGA,073139.70,3542.284675146,N,13943.270288797,E,5,05,2.19,25.093,M,36.996,M,2.7,3107*44
$GPGGA,073139.80,3542.284671149,N,13943.270283272,E,5,05,2.19,25.090,M,36.996,M,2.8,3107*49
$GPGGA,073139.90,3542.284669160,N,13943.270279784,E,5,05,2.19,25.084,M,36.996,M,2.9,3107*47
$GPGGA,073140.00,3542.284666173,N,13943.270272309,E,5,05,2.19,25.071,M,36.996,M,3.0,3107*45
$GPGGA,073140.10,3542.284659630,N,13943.270270284,E,5,05,2.19,25.052,M,36.996,M,3.1,3107*4E
$GPGGA,073140.20,3542.284649365,N,13943.270271870,E,5,05,2.19,25.053,M,36.996,M,3.2,3107*4B
$GPGGA,073140.30,3542.284641015,N,13943.270266200,E,5,05,2.19,25.059,M,36.996,M,3.3,3107*46
$GPGGA,073140.40,3542.284624851,N,13943.270258406,E,5,05,2.19,25.064,M,36.996,M,3.4,3107*4E
$GPGGA,073140.50,3542.284610396,N,13943.270247188,E,5,05,2.19,25.071,M,36.996,M,3.5,3107*40
$GPGGA,073140.60,3542.284607194,N,13943.270233227,E,5,06,1.59,25.058,M,36.996,M,3.6,3107*4C
$GPGGA,073140.70,3542.284594075,N,13943.270221661,E,5,06,1.59,25.058,M,36.996,M,3.7,3107*4E
$GPGGA,073140.80,3542.284574127,N,13943.270215275,E,5,05,2.19,25.060,M,36.996,M,3.8,3107*4F
$GPGGA,073140.90,3542.284561031,N,13943.270215861,E,5,07,1.42,25.059,M,36.996,M,3.9,3107*47
$GPGGA,073141.00,3542.284555869,N,13943.270204678,E,5,07,1.42,25.055,M,36.996,M,4.0,3107*49
$GPGGA,073141.10,3542.284540892,N,13943.270190106,E,4,08,1.39,25.059,M,36.996,M,4.1,3107*47
$GPGGA,073141.20,3542.284577434,N,13943.270135910,E,4,07,1.96,25.104,M,36.996,M,4.2,3107*40
$GPGGA,073141.30,3542.284577873,N,13943.270150956,E,4,07,1.96,25.049,M,36.996,M,4.3,3107*46
$GPGGA,073141.40,3542.284562611,N,13943.270153578,E,4,07,1.96,25.061,M,36.996,M,4.4,3107*41
$GPGGA,073141.50,3542.284544244,N,13943.270136465,E,4,07,1.96,25.065,M,36.996,M,4.5,3107*4B
$GPGGA,073141.60,3542.284529907,N,13943.270110476,E,5,06,1.61,25.058,M,36.996,M,4.6,3107*4C
$GPGGA,073141.70,3542.284515628,N,13943.270087044,E,4,08,1.39,25.039,M,36.996,M,4.7,3107*4E
$GPGGA,073141.80,3542.284496829,N,13943.270069315,E,4,08,1.39,25.041,M,36.996,M,4.8,3107*43
$GPGGA,073141.90,3542.284472202,N,13943.270063379,E,5,06,1.59,25.033,M,36.996,M,4.9,3107*46
$GPGGA,073142.00,3542.284436380,N,13943.270048905,E,4,08,1.39,25.037,M,36.996,M,5.0,3107*4A
$GPGGA,073142.10,3542.284421773,N,13943.270027346,E,4,08,1.39,25.052,M,36.996,M,5.1,3107*43
$GPGGA,073142.20,3542.284411278,N,13943.270009987,E,4,08,1.39,25.052,M,36.996,M,5.2,3107*45
$GPGGA,073142.30,3542.284388113,N,13943.269994827,E,4,08,1.39,25.014,M,36.996,M,5.3,3107*40
$GPGGA,073142.40,3542.284372709,N,13943.269980162,E,4,08,1.39,24.992,M,36.996,M,5.4,3107*43
$GPGGA,073142.50,3542.284423832,N,13943.270024615,E,4,08,1.39,24.944,M,36.996,M,5.5,3107*44
$GPGGA,073142.60,3542.284423361,N,13943.270026723,E,4,08,1.39,24.925,M,36.996,M,5.6,3107*48
$GPGGA,073142.70,3542.284421887,N,13943.270030073,E,4,08,1.39,24.909,M,36.996,M,5.7,3107*42
$GPGGA,073142.80,3542.284423087,N,13943.270033533,E,4,08,1.39,24.895,M,36.996,M,5.8,3107*4E
$GPGGA,073142.90,3542.284425284,N,13943.270036316,E,4,08,1.39,24.884,M,36.996,M,5.9,3107*4D
$GPGGA,073143.00,3542.284423741,N,13943.270035976,E,4,08,1.39,24.873,M,36.996,M,6.0,3107*42
$GPGGA,073143.10,3542.284415087,N,13943.270031687,E,4,08,1.39,24.873,M,36.996,M,6.1,3107*4F
$GPGGA,073143.20,3542.284395026,N,13943.270020170,E,4,08,1.39,24.885,M,36.996,M,6.2,3107*4D
$GPGGA,073143.30,3542.284378501,N,13943.270019750,E,4,08,1.39,24.872,M,36.996,M,6.3,3107*48
$GPGGA,073143.40,3542.284360142,N,13943.270012616,E,4,08,1.39,24.846,M,36.996,M,6.4,3107*4D
$GPGGA,073143.50,3542.284345326,N,13943.269997402,E,4,08,1.39,24.827,M,36.996,M,6.5,3107*46
$GPGGA,073143.60,3542.284326958,N,13943.269980757,E,4,07,1.58,24.822,M,36.996,M,6.6,3107*48
$GPGGA,073143.70,3542.284300994,N,13943.269964050,E,4,07,1.58,24.836,M,36.996,M,6.7,3107*43
$GPGGA,073143.80,3542.284288866,N,13943.269941350,E,5,04,1.99,24.848,M,36.996,M,6.8,3107*4C
$GPGGA,073143.90,3542.284267280,N,13943.269918826,E,4,08,1.39,24.844,M,36.996,M,6.9,3107*42
$GPGGA,073144.00,3542.284204014,N,13943.269892319,E,4,08,1.39,24.825,M,36.996,M,7.0,3107*4D
$GPGGA,073144.10,3542.284167094,N,13943.269883416,E,4,08,1.39,24.815,M,36.996,M,2.1,3107*4D
$GPGGA,073144.20,3542.284146796,N,13943.269875033,E,4,08,1.39,24.776,M,36.996,M,2.2,3107*4B
$GPGGA,073144.30,3542.284126833,N,13943.269838685,E,4,08,1.39,24.756,M,36.996,M,2.3,3107*4D
$GPGGA,073144.40,3542.284116367,N,13943.269802944,E,4,08,1.39,24.779,M,36.996,M,2.4,3107*42
$GPGGA,073144.50,3542.284095539,N,13943.269784299,E,4,08,1.39,24.758,M,36.996,M,2.5,3107*4C
$GPGGA,073144.60,3542.284064206,N,13943.269774609,E,4,08,1.39,24.739,M,36.996,M,2.6,3107*4C
$GPGGA,073144.70,3542.284054489,N,13943.269760765,E,4,08,1.39,24.710,M,36.996,M,2.7,3107*4B
$GPGGA,073144.80,3542.284051376,N,13943.269745301,E,4,08,1.39,24.715,M,36.996,M,2.8,3107*4D
$GPGGA,073144.90,3542.284036935,N,13943.269741747,E,4,08,1.39,24.736,M,36.996,M,2.9,3107*42
$GPGGA,073145.00,3542.284021639,N,13943.269752001,E,4,08,1.39,24.757,M,36.996,M,3.0,3107*47
$GPGGA,073145.10,3542.284010638,N,13943.269759621,E,4,08,1.39,24.763,M,36.996,M,3.1,3107*4C
$GPGGA,073145.20,3542.283993145,N,13943.269744637,E,4,07,1.58,24.778,M,36.996,M,3.2,3107*4D
$GPGGA,073145.30,3542.283982358,N,13943.269723434,E,4,07,1.58,24.781,M,36.996,M,3.3,3107*45
$GPGGA,073145.40,3542.283961813,N,13943.269716987,E,4,07,1.58,24.767,M,36.996,M,3.4,3107*47
$GPGGA,073145.50,3542.283938744,N,13943.269720861,E,4,07,1.58,24.724,M,36.996,M,3.5,3107*4D
$GPGGA,073145.60,3542.283926555,N,13943.269716200,E,4,07,1.58,24.729,M,36.996,M,3.6,3107*45
$GPGGA,073145.70,3542.283913609,N,13943.269702777,E,4,07,1.58,24.707,M,36.996,M,3.7,3107*45
$GPGGA,073145.80,3542.283882708,N,13943.269692178,E,4,08,1.39,24.705,M,36.996,M,3.8,3107*47
$GPGGA,073145.90,3542.283858664,N,13943.269691801,E,4,08,1.39,24.732,M,36.996,M,3.9,3107*4B
$GPGGA,073146.00,3542.283838960,N,13943.269677897,E,4,08,1.39,24.736,M,36.996,M,4.0,3107*41
$GPGGA,073146.10,3542.283813809,N,13943.269651017,E,4,08,1.39,24.718,M,36.996,M,4.1,3107*4E
$GPGGA,073146.20,3542.283784738,N,13943.269625763,E,5,05,1.70,24.722,M,36.996,M,4.2,3107*4D
$GPGGA,073146.30,3542.283761402,N,13943.269622756,E,4,08,1.39,24.718,M,36.996,M,4.3,3107*45
$GPGGA,073146.40,3542.283729337,N,13943.269613152,E,4,08,1.39,24.674,M,36.995,M,4.4,3107*40
$GPGGA,073146.50,3542.283702053,N,13943.269592498,E,4,08,1.39,24.658,M,36.995,M,4.5,3107*4F
$GPGGA,073146.60,3542.283671528,N,13943.269589185,E,4,08,1.39,24.677,M,36.995,M,4.6,3107*4D
$GPGGA,073146.70,3542.283640439,N,13943.269600802,E,4,07,1.51,24.693,M,36.995,M,4.7,3107*41
$GPGGA,073146.80,3542.283618619,N,13943.269600236,E,4,07,1.51,24.672,M,36.995,M,4.8,3107*4E
$GPGGA,073146.90,3542.283603001,N,13943.269590448,E,4,07,1.51,24.656,M,36.995,M,4.9,3107*48
$GPGGA,073147.00,3542.283581060,N,13943.269583845,E,4,07,1.51,24.620,M,36.995,M,5.0,3107*44
$GPGGA,073147.10,3542.283557905,N,13943.269571323,E,4,07,1.51,24.619,M,36.995,M,5.1,3107*49
$GPGGA,073147.20,3542.283536947,N,13943.269552711,E,4,07,1.51,24.593,M,36.995,M,5.2,3107*4D
$GPGGA,073147.30,3542.283511698,N,13943.269522588,E,4,07,1.51,24.597,M,36.995,M,5.3,3107*44
$GPGGA,073147.40,3542.283488351,N,13943.269495034,E,4,07,1.51,24.599,M,36.995,M,5.4,3107*44
$GPGGA,073147.50,3542.283461276,N,13943.269478981,E,4,07,1.51,24.567,M,36.995,M,5.5,3107*42
$GPGGA,073147.60,3542.283428977,N,13943.269474033,E,4,06,1.67,24.562,M,36.995,M,5.6,3107*48
$GPGGA,073147.70,3542.283393537,N,13943.269453653,E,4,07,1.51,24.555,M,36.995,M,5.7,3107*42
$GPGGA,073147.80,3542.283368110,N,13943.269429316,E,4,06,1.67,24.541,M,36.995,M,5.8,3107*4F
$GPGGA,073147.90,3542.283342926,N,13943.269410457,E,4,07,1.51,24.544,M,36.995,M,5.9,3107*43
$GPGGA,073148.00,3542.283314269,N,13943.269397518,E,4,07,1.51,24.527,M,36.995,M,6.0,3107*4B
$GPGGA,073148.10,3542.283288690,N,13943.269389973,E,5,04,18.06,24.516,M,36.995,M,1.1,3107*7E
$GPGGA,073148.20,3542.283256332,N,13943.269390821,E,5,05,1.72,24.501,M,36.995,M,1.2,3107*42
$GPGGA,073148.30,3542.283230391,N,13943.269377020,E,4,06,1.67,24.496,M,36.995,M,1.3,3107*42
$GPGGA,073148.40,3542.283202855,N,13943.269378663,E,4,07,1.58,24.449,M,36.995,M,1.4,3107*41
$GPGGA,073148.50,3542.283167323,N,13943.269383588,E,4,08,1.39,24.428,M,36.995,M,1.5,3107*46
$GPGGA,073148.60,3542.283137481,N,13943.269398185,E,4,08,1.39,24.456,M,36.995,M,1.6,3107*46
$GPGGA,073148.70,3542.283116040,N,13943.269371213,E,5,06,1.61,24.450,M,36.995,M,1.7,3107*43
$GPGGA,073148.80,3542.283088741,N,13943.269361175,E,5,06,1.61,24.449,M,36.995,M,1.8,3107*49
$GPGGA,073148.90,3542.283057639,N,13943.269354516,E,5,06,1.61,24.441,M,36.995,M,1.9,3107*4A
$GPGGA,073149.00,3542.283026037,N,13943.269350512,E,5,06,1.61,24.444,M,36.995,M,2.0,3107*43
$GPGGA,073149.10,3542.283000052,N,13943.269343363,E,5,06,1.61,24.450,M,36.995,M,2.1,3107*43
$GPGGA,073149.20,3542.282971228,N,13943.269313861,E,5,06,1.61,24.454,M,36.995,M,2.2,3107*4A
$GPGGA,073149.30,3542.282951749,N,13943.269300902,E,5,06,1.61,24.461,M,36.995,M,2.3,3107*4A
$GPGGA,073149.40,3542.282923719,N,13943.269294358,E,5,06,1.60,24.475,M,36.995,M,2.4,3107*47
$GPGGA,073149.50,3542.282894392,N,13943.269301543,E,5,05,1.72,24.446,M,36.995,M,2.5,3107*4C
$GPGGA,073149.60,3542.282875973,N,13943.269257875,E,5,05,1.72,24.462,M,36.995,M,2.6,3107*4A
$GPGGA,073149.70,3542.282854536,N,13943.269192287,E,5,05,1.72,24.514,M,36.995,M,2.7,3107*49
$GPGGA,073149.80,3542.282824997,N,13943.269177493,E,5,05,1.72,24.521,M,36.995,M,2.8,3107*47
$GPGGA,073149.90,3542.282796768,N,13943.269155180,E,5,05,1.72,24.531,M,36.995,M,2.9,3107*49
$GPGGA,073150.00,3542.282766319,N,13943.269135496,E,5,05,1.72,24.544,M,36.995,M,3.0,3107*4B
$GPGGA,073150.10,3542.282743867,N,13943.269113986,E,5,05,1.72,24.524,M,36.995,M,3.1,3107*40
$GPGGA,073150.20,3542.282717199,N,13943.269088863,E,5,05,1.72,24.538,M,36.995,M,3.2,3107*4D
$GPGGA,073150.30,3542.282689734,N,13943.269064119,E,5,05,1.72,24.553,M,36.995,M,3.3,3107*41
$GPGGA,073150.40,3542.282666607,N,13943.269033874,E,5,05,1.72,24.558,M,36.995,M,3.4,3107*4A
$GPGGA,073150.50,3542.282633802,N,13943.269008819,E,5,05,1.72,24.567,M,36.995,M,3.5,3107*4E
$GPGGA,073150.60,3542.282612794,N,13943.268975062,E,5,05,1.72,24.569,M,36.995,M,3.6,3107*45
$GPGGA,073150.70,3542.282586162,N,13943.268948164,E,5,05,1.72,24.579,M,36.995,M,3.7,3107*4C
$GPGGA,073150.80,3542.282562821,N,13943.268919804,E,5,05,1.72,24.593,M,36.995,M,3.8,3107*47
$GPGGA,073150.90,3542.282541374,N,13943.268900970,E,5,05,1.72,24.592,M,36.995,M,3.9,3107*46
$GPGGA,073151.00,3542.282515904,N,13943.268863534,E,5,05,1.72,24.580,M,36.995,M,4.0,3107*47
$GPGGA,073151.10,3542.282491349,N,13943.268849124,E,5,05,1.72,24.577,M,36.995,M,4.1,3107*4C
$GPGGA,073151.20,3542.282461819,N,13943.268822183,E,5,05,1.72,24.569,M,36.995,M,4.2,3107*42
$GPGGA,073151.30,3542.282450499,N,13943.268814161,E,5,05,1.72,24.541,M,36.995,M,4.3,3107*47
$GPGGA,073151.40,3542.282433412,N,13943.268784873,E,5,05,1.72,24.550,M,36.995,M,4.4,3107*4D
$GPGGA,073151.50,3542.282404805,N,13943.268766375,E,5,05,1.72,24.561,M,36.995,M,4.5,3107*40
$GPGGA,073151.60,3542.282366929,N,13943.268707129,E,5,05,1.72,24.592,M,36.995,M,4.6,3107*4C
$GPGGA,073151.70,3542.282345775,N,13943.268670321,E,5,05,1.72,24.595,M,36.995,M,4.7,3107*46
$GPGGA,073151.80,3542.282316739,N,13943.268640834,E,5,05,1.72,24.598,M,36.995,M,4.8,3107*49
$GPGGA,073151.90,3542.282292977,N,13943.268618629,E,5,06,1.60,24.643,M,36.995,M,4.9,3107*4A
$GPGGA,073152.00,3542.282279171,N,13943.268607381,E,5,06,1.60,24.614,M,36.995,M,5.0,3107*48
$GPGGA,073152.10,3542.282271952,N,13943.268597774,E,5,06,1.61,24.601,M,36.995,M,5.1,3107*48
$GPGGA,073152.20,3542.282254426,N,13943.268579899,E,5,07,1.40,24.647,M,36.995,M,5.2,3107*4D
$GPGGA,073152.30,3542.282241519,N,13943.268576166,E,5,07,1.40,24.650,M,36.995,M,5.3,3107*44
$GPGGA,073152.40,3542.282226135,N,13943.268567838,E,5,07,1.40,24.664,M,36.995,M,5.4,3107*4A
$GPGGA,073152.50,3542.282205075,N,13943.268533336,E,5,06,1.61,24.673,M,36.995,M,5.5,3107*4E
$GPGGA,073152.60,3542.282175261,N,13943.268502646,E,5,05,1.72,24.692,M,36.995,M,5.6,3107*43
$GPGGA,073152.70,3542.282158894,N,13943.268479440,E,5,05,1.72,24.706,M,36.995,M,5.7,3107*49
$GPGGA,073152.80,3542.282137075,N,13943.268462490,E,5,05,1.72,24.717,M,36.995,M,5.8,3107*40
$GPGGA,073152.90,3542.282120773,N,13943.268441424,E,5,05,1.72,24.730,M,36.995,M,5.9,3107*4C
$GPGGA,073153.00,3542.282109525,N,13943.268411768,E,5,05,1.72,24.759,M,36.995,M,6.0,3107*45
$GPGGA,073153.10,3542.282195353,N,13943.268523041,E,5,05,1.72,24.571,M,36.995,M,1.1,3107*44
$GPGGA,073153.20,3542.282196345,N,13943.268522492,E,5,05,1.72,24.572,M,36.995,M,1.2,3107*48
$GPGGA,073153.30,3542.282197917,N,13943.268523019,E,5,05,1.72,24.571,M,36.995,M,1.3,3107*41
$GPGGA,073153.40,3542.282199171,N,13943.268523365,E,5,06,1.60,24.571,M,36.995,M,1.4,3107*4F
$GPGGA,073153.50,3542.282200837,N,13943.268524025,E,5,06,1.60,24.571,M,36.995,M,1.5,3107*47
$GPGGA,073153.60,3542.282202043,N,13943.268524633,E,5,06,1.60,24.573,M,36.995,M,1.6,3107*4D
$GPGGA,073153.70,3542.282202931,N,13943.268525100,E,5,06,1.60,24.575,M,36.995,M,1.7,3107*41
$GPGGA,073153.80,3542.282203757,N,13943.268525484,E,5,06,1.60,24.576,M,36.995,M,1.8,3107*44
$GPGGA,073153.90,3542.282204503,N,13943.268525741,E,5,05,1.72,24.577,M,36.995,M,1.9,3107*4B
$GPGGA,073154.00,3542.282204917,N,13943.268525843,E,5,06,1.61,24.577,M,36.995,M,2.0,3107*4A
$GPGGA,073154.10,3542.282205261,N,13943.268525990,E,5,05,1.72,24.578,M,36.995,M,2.1,3107*40
$GPGGA,073154.20,3542.282205568,N,13943.268526047,E,5,06,1.61,24.578,M,36.995,M,2.2,3107*4F
$GPGGA,073154.30,3542.282205860,N,13943.268526156,E,5,06,1.61,24.578,M,36.995,M,2.3,3107*4B
$GPGGA,073154.40,3542.282206102,N,13943.268526253,E,5,07,1.40,24.579,M,36.995,M,2.4,3107*40
$GPGGA,073154.50,3542.282206444,N,13943.268526353,E,5,06,1.60,24.579,M,36.995,M,2.5,3107*45
$GPGGA,073154.60,3542.282206761,N,13943.268526137,E,5,06,1.60,24.580,M,36.995,M,2.6,3107*47
$GPGGA,073154.70,3542.282207008,N,13943.268526072,E,5,07,1.25,24.581,M,36.995,M,2.7,3107*4F
$GPGGA,073154.80,3542.282207199,N,13943.268525996,E,5,07,1.25,24.581,M,36.995,M,2.8,3107*46
$GPGGA,073154.90,3542.282207393,N,13943.268525822,E,5,07,1.25,24.582,M,36.995,M,2.9,3107*43
$GPGGA,073155.00,3542.282207574,N,13943.268525656,E,5,07,1.25,24.582,M,36.995,M,3.0,3107*41
$GPGGA,073155.10,3542.282207730,N,13943.268525493,E,5,07,1.25,24.583,M,36.995,M,3.1,3107*49
$GPGGA,073155.20,3542.282207887,N,13943.268525326,E,5,08,1.20,24.583,M,36.995,M,3.2,3107*49
$GPGGA,073155.30,3542.282208059,N,13943.268525300,E,5,08,1.20,24.584,M,36.995,M,3.3,3107*4E
$GPGGA,073155.40,3542.282208225,N,13943.268525310,E,5,08,1.20,24.585,M,36.995,M,3.4,3107*47
$GPGGA,073155.50,3542.282208377,N,13943.268525281,E,5,08,1.20,24.586,M,36.995,M,3.5,3107*4B
$GPGGA,073155.60,3542.282208524,N,13943.268525268,E,5,08,1.20,24.587,M,36.995,M,3.6,3107*4D
$GPGGA,073155.70,3542.282208650,N,13943.268525267,E,5,08,1.20,24.587,M,36.995,M,3.7,3107*42
$GPGGA,073155.80,3542.282208759,N,13943.268525238,E,5,08,1.20,24.588,M,36.995,M,3.8,3107*4F
$GPGGA,073155.90,3542.282208873,N,13943.268525207,E,5,08,1.20,24.589,M,36.995,M,3.9,3107*45
$GPGGA,073156.00,3542.282208958,N,13943.268525102,E,5,08,1.20,24.589,M,36.995,M,4.0,3107*4F
$GPGGA,073156.10,3542.282208976,N,13943.268525066,E,5,08,1.20,24.590,M,36.995,M,4.1,3107*48
$GPGGA,073156.20,3542.282209069,N,13943.268525074,E,5,08,1.20,24.590,M,36.995,M,4.2,3107*4D
$GPGGA,073156.30,3542.282209081,N,13943.268525027,E,5,08,1.20,24.591,M,36.995,M,4.3,3107*4C
$GPGGA,073156.40,3542.282209092,N,13943.268524991,E,5,08,1.20,24.591,M,36.995,M,4.4,3107*4B
$GPGGA,073156.50,3542.282209094,N,13943.268524953,E,5,08,1.20,24.592,M,36.995,M,4.5,3107*40
$GPGGA,073156.60,3542.282209098,N,13943.268524904,E,5,08,1.20,24.592,M,36.995,M,4.6,3107*4E
$GPGGA,073156.70,3542.282209122,N,13943.268524938,E,5,08,1.20,24.593,M,36.995,M,4.7,3107*40
$GPGGA,073156.80,3542.282209178,N,13943.268524885,E,5,08,1.20,24.594,M,36.995,M,4.8,3107*4F
$GPGGA,073156.90,3542.282209232,N,13943.268524847,E,5,08,1.20,24.594,M,36.995,M,4.9,3107*4C
$GPGGA,073157.00,3542.282209288,N,13943.268524802,E,5,08,1.20,24.594,M,36.995,M,5.0,3107*4C
$GPGGA,073157.10,3542.282209348,N,13943.268524774,E,4,09,1.23,24.595,M,36.995,M,5.1,3107*4D
$GPGGA,073157.20,3542.282209359,N,13943.268524749,E,4,09,1.23,24.595,M,36.995,M,5.2,3107*43
$GPGGA,073157.30,3542.282223480,N,13943.268501630,E,4,09,1.23,24.606,M,36.995,M,5.3,3107*49
$GPGGA,073157.40,3542.282229686,N,13943.268497637,E,4,09,1.23,24.619,M,36.995,M,5.4,3107*40
$GPGGA,073157.50,3542.282232180,N,13943.268495213,E,4,09,1.23,24.624,M,36.995,M,5.5,3107*45
$GPGGA,073157.60,3542.282233720,N,13943.268493986,E,4,09,1.23,24.631,M,36.995,M,5.6,3107*4D
$GPGGA,073157.70,3542.282234293,N,13943.268492980,E,4,09,1.23,24.632,M,36.995,M,5.7,3107*43
$GPGGA,073157.80,3542.282234444,N,13943.268492571,E,4,09,1.23,24.634,M,36.995,M,5.8,3107*4B
$GPGGA,073157.90,3542.282234989,N,13943.268491930,E,4,09,1.23,24.636,M,36.995,M,5.9,3107*4F
$GPGGA,073158.00,3542.282235259,N,13943.268491340,E,4,09,1.23,24.635,M,36.995,M,6.0,3107*4A
$GPGGA,073158.10,3542.282235549,N,13943.268490835,E,4,09,1.23,24.636,M,36.995,M,1.1,3107*40
$GPGGA,073158.20,3542.282235710,N,13943.268491289,E,4,09,1.23,24.641,M,36.995,M,1.2,3107*42
$GPGGA,073158.30,3542.282235737,N,13943.268491516,E,4,09,1.23,24.645,M,36.995,M,1.3,3107*42
$GPGGA,073158.40,3542.282235778,N,13943.268491925,E,4,09,1.23,24.649,M,36.995,M,1.4,3107*49
$GPGGA,073158.50,3542.282235798,N,13943.268492461,E,4,09,1.23,24.652,M,36.995,M,1.5,3107*43
$GPGGA,073158.60,3542.282235847,N,13943.268492690,E,4,09,1.23,24.655,M,36.995,M,1.6,3107*45
$GPGGA,073158.70,3542.282235901,N,13943.268492677,E,4,09,1.23,24.657,M,36.995,M,1.7,3107*4D
$GPGGA,073158.80,3542.282235965,N,13943.268492856,E,4,09,1.23,24.659,M,36.995,M,1.8,3107*4C
$GPGGA,073158.90,3542.282235876,N,13943.268492844,E,4,09,1.23,24.660,M,36.995,M,1.9,3107*46
$GPGGA,073159.00,3542.282235636,N,13943.268493156,E,4,09,1.23,24.662,M,36.995,M,2.0,3107*47
$GPGGA,073159.10,3542.282235489,N,13943.268493329,E,4,09,1.23,24.663,M,36.995,M,2.1,3107*4A
$GPGGA,073159.20,3542.282235285,N,13943.268493350,E,4,09,1.23,24.664,M,36.995,M,2.2,3107*49
$GPGGA,073159.30,3542.282235207,N,13943.268493363,E,4,09,1.23,24.663,M,36.995,M,2.3,3107*44
$GPGGA,073159.40,3542.282235036,N,13943.268493247,E,4,09,1.23,24.664,M,36.995,M,2.4,3107*44
$GPGGA,073159.50,3542.282234925,N,13943.268493124,E,4,09,1.23,24.664,M,36.995,M,2.5,3107*48
$GPGGA,073159.60,3542.282234904,N,13943.268493219,E,4,09,1.23,24.665,M,36.995,M,2.6,3107*47
$GPGGA,073159.70,3542.282234847,N,13943.268493303,E,4,10,1.01,24.666,M,36.995,M,2.7,3107*40
$GPGGA,073159.80,3542.282234651,N,13943.268493301,E,4,10,1.01,24.666,M,36.995,M,2.8,3107*4B
$GPGGA,073159.90,3542.282234649,N,13943.268493344,E,4,10,1.01,24.667,M,36.995,M,2.9,3107*42
$GPGGA,073200.00,3542.282234548,N,13943.268493369,E,4,10,1.01,24.667,M,36.995,M,3.0,3107*41
$GPGGA,073200.10,3542.282234421,N,13943.268493202,E,4,09,1.23,24.667,M,36.995,M,3.1,3107*4B
$GPGGA,073200.20,3542.282234005,N,13943.268492943,E,5,08,1.20,24.669,M,36.995,M,3.2,3107*4B
$GPGGA,073200.30,3542.282234016,N,13943.268492940,E,5,08,1.20,24.669,M,36.995,M,3.3,3107*4A
$GPGGA,073200.40,3542.282234024,N,13943.268492939,E,5,08,1.20,24.669,M,36.995,M,3.4,3107*45
$GPGGA,073200.50,3542.282234032,N,13943.268492937,E,5,08,1.20,24.670,M,36.995,M,3.5,3107*44
$GPGGA,073204.70,3542.282228649,N,13943.268491812,E,4,10,1.01,24.733,M,36.995,M,2.7,3107*4E
$GPGGA,073204.80,3542.282228538,N,13943.268491934,E,4,10,1.01,24.733,M,36.995,M,2.8,3107*4E
$GPGGA,073204.90,3542.282228451,N,13943.268492097,E,4,10,1.01,24.735,M,36.995,M,2.9,3107*45
$GPGGA,073205.00,3542.282228466,N,13943.268492262,E,4,10,1.01,24.735,M,36.995,M,3.0,3107*49
$GPGGA,073205.10,3542.282228339,N,13943.268492138,E,4,10,1.01,24.736,M,36.995,M,3.1,3107*4B
$GPGGA,073205.20,3542.282228167,N,13943.268492110,E,4,10,1.01,24.737,M,36.995,M,3.2,3107*49
$GPGGA,073205.30,3542.282228070,N,13943.268492224,E,4,10,1.01,24.738,M,36.995,M,3.3,3107*45
$GPGGA,073205.40,3542.282228074,N,13943.268492427,E,4,10,1.01,24.739,M,36.995,M,3.4,3107*45
$GPGGA,073205.50,3542.282228068,N,13943.268492549,E,4,10,1.01,24.739,M,36.995,M,3.5,3107*41
$GPGGA,073205.60,3542.282228006,N,13943.268492643,E,4,10,1.01,24.740,M,36.995,M,3.6,3107*4E
$GPGGA,073205.70,3542.282227967,N,13943.268492694,E,4,10,1.01,24.740,M,36.995,M,3.7,3107*45
$GPGGA,073205.80,3542.282227902,N,13943.268492718,E,4,10,1.01,24.741,M,36.995,M,3.8,3107*42
$GPGGA,073205.90,3542.282227973,N,13943.268492786,E,4,10,1.01,24.741,M,36.995,M,3.9,3107*43
$GPGGA,073206.00,3542.282228009,N,13943.268492886,E,4,10,1.01,24.742,M,36.995,M,4.0,3107*40
$GPGGA,073206.10,3542.282227936,N,13943.268492945,E,4,10,1.01,24.743,M,36.995,M,4.1,3107*45
$GPGGA,073206.20,3542.282227934,N,13943.268492856,E,4,10,1.01,24.742,M,36.995,M,4.2,3107*45
$GPGGA,073206.30,3542.282227989,N,13943.268492883,E,4,10,1.01,24.743,M,36.995,M,4.3,3107*4A
$GPGGA,073206.40,3542.282228020,N,13943.268492859,E,4,10,1.01,24.743,M,36.995,M,4.4,3107*48
$GPGGA,073206.50,3542.282227978,N,13943.268492907,E,4,10,1.01,24.744,M,36.995,M,4.5,3107*4E
$GPGGA,073206.60,3542.282227854,N,13943.268492853,E,4,10,1.01,24.745,M,36.995,M,4.6,3107*40
$GPGGA,073206.70,3542.282227944,N,13943.268493034,E,4,10,1.01,24.745,M,36.995,M,4.7,3107*48
$GPGGA,073206.80,3542.282227928,N,13943.268492947,E,4,10,1.01,24.745,M,36.995,M,4.8,3107*4E
$GPGGA,073206.90,3542.282227921,N,13943.268492946,E,4,10,1.01,24.746,M,36.995,M,4.9,3107*45
$GPGGA,073207.00,3542.282227906,N,13943.268493041,E,4,10,1.01,24.746,M,36.995,M,5.0,3107*4F
$GPGGA,073207.10,3542.282227969,N,13943.268492924,E,4,10,1.01,24.746,M,36.995,M,5.1,3107*4D
$GPGGA,073207.20,3542.282227942,N,13943.268492841,E,4,10,1.01,24.747,M,36.995,M,5.2,3107*47
$GPGGA,073207.30,3542.282227988,N,13943.268492876,E,4,10,1.01,24.748,M,36.995,M,5.3,3107*4A
$GPGGA,073207.40,3542.282227920,N,13943.268492687,E,4,10,1.01,24.747,M,36.995,M,5.4,3107*47
$GPGGA,073207.50,3542.282227939,N,13943.268492720,E,4,10,1.01,24.748,M,36.995,M,5.5,3107*4C
$GPGGA,073207.60,3542.282227980,N,13943.268492792,E,4,10,1.01,24.749,M,36.995,M,5.6,3107*46
$GPGGA,073207.70,3542.282227938,N,13943.268492636,E,4,10,1.01,24.749,M,36.995,M,5.7,3107*4A
$GPGGA,073207.80,3542.282227874,N,13943.268492525,E,4,10,1.01,24.750,M,36.995,M,5.8,3107*4A
