$GPGGA,085326.90,3542.292982080,N,13943.288531046,E,5,07,2.63,24.357,M,36.995,M,4.9,2007*43
$PMSBATV,085326.90,2,2,5.32485,-0.65358,-24.15695,-0.000,0.000,-0.000,-161.22245,0.000*5E
$GPGGA,085327.00,3542.292982087,N,13943.288531044,E,5,07,2.63,24.357,M,36.995,M,5.0,2007*46
$PMSBATV,085327.00,2,2,5.32104,-0.65326,-24.15672,0.000,-0.000,-0.000,-161.22245,0.000*5A
$GPGGA,085327.10,3542.292982087,N,13943.288531037,E,5,07,2.63,24.357,M,36.995,M,5.1,2007*42
$PMSBATV,085327.10,2,2,5.32523,-0.65378,-24.15408,0.000,-0.000,-0.000,-161.22245,0.000*5E
$GPGGA,085327.20,3542.292982089,N,13943.288531039,E,5,07,2.63,24.357,M,36.995,M,5.2,2007*42
$PMSBATV,085327.20,2,2,5.32726,-0.65874,-24.15239,-0.000,0.000,-0.000,-161.22245,0.000*59
$GPGGA,085327.30,3542.292982088,N,13943.288531037,E,5,07,2.63,24.357,M,36.995,M,5.3,2007*4D
$PMSBATV,085327.30,2,2,5.32811,-0.66515,-24.15347,-0.000,0.000,-0.000,-161.22245,0.000*52
$GPGGA,085327.40,3542.292982090,N,13943.288531029,E,5,07,2.63,24.357,M,36.995,M,5.4,2007*4B
$PMSBATV,085327.40,2,2,5.32989,-0.67109,-24.15140,0.000,-0.000,-0.000,-161.22245,0.000*58
$GPGGA,085327.50,3542.292982092,N,13943.288531031,E,5,07,2.63,24.357,M,36.995,M,5.5,2007*40
$PMSBATV,085327.50,2,2,5.32672,-0.67442,-24.15388,-0.000,-0.000,-0.000,-161.22245,0.000*73
$GPGGA,085327.60,3542.292982097,N,13943.288531033,E,5,07,2.63,24.357,M,36.995,M,5.6,2007*47
$PMSBATV,085327.60,2,2,5.32746,-0.67812,-24.15539,0.000,0.000,-0.000,-161.22245,0.000*73
$GPGGA,085327.70,3542.292982100,N,13943.288531027,E,5,07,2.63,24.357,M,36.995,M,5.7,2007*4D
$PMSBATV,085327.70,2,2,5.32852,-0.67430,-24.15702,0.000,0.000,-0.000,-161.22245,0.000*7E
$GPGGA,085327.80,3542.292982103,N,13943.288531022,E,5,07,2.63,24.357,M,36.995,M,5.8,2007*4B
$PMSBATV,085327.80,2,2,5.32808,-0.67329,-24.15766,0.000,-0.000,-0.000,-161.22245,0.000*5E
$GPGGA,085327.90,3542.292982106,N,13943.288531020,E,5,07,2.63,24.357,M,36.995,M,5.9,2007*4C
$PMSBATV,085327.90,2,2,5.32801,-0.67357,-24.15284,0.000,-0.000,-0.000,-161.22245,0.000*56
$GPGGA,085328.00,3542.292982104,N,13943.288531019,E,5,07,2.63,24.357,M,36.995,M,6.0,2007*48
$PMSBATV,085328.00,2,2,5.32880,-0.67659,-24.14845,0.000,0.000,0.000,-161.22245,0.000*54
$GPGGA,085328.10,3542.292982105,N,13943.288531016,E,5,07,2.63,24.357,M,36.995,M,1.1,2007*41
$PMSBATV,085328.10,2,2,5.32486,-0.67375,-24.14138,-0.000,-0.000,0.000,-161.22245,0.000*57
$GPGGA,085328.20,3542.292982110,N,13943.288531017,E,5,07,2.63,24.357,M,36.995,M,1.2,2007*44
$PMSBATV,085328.20,2,2,5.32727,-0.67450,-24.14182,0.000,0.000,-0.000,-161.22245,0.000*70
$GPGGA,085328.30,3542.292982110,N,13943.288531016,E,5,07,2.63,24.357,M,36.995,M,1.3,2007*45
$PMSBATV,085328.30,2,2,5.32473,-0.67592,-24.14537,-0.000,0.000,-0.000,-161.22245,0.000*5B
$GPGGA,085328.40,3542.292982114,N,13943.288531016,E,5,07,2.63,24.357,M,36.995,M,1.4,2007*41
$PMSBATV,085328.40,2,2,5.32284,-0.67077,-24.14465,0.000,0.000,-0.000,-161.22245,0.000*77
$GPGGA,085328.50,3542.292982113,N,13943.288531021,E,5,07,2.63,24.357,M,36.995,M,1.5,2007*42
$PMSBATV,085328.50,2,2,5.31561,-0.67078,-24.14028,-0.000,-0.000,-0.000,-161.22245,0.000*7B
$GPGGA,085328.60,3542.292982107,N,13943.288531012,E,5,07,2.63,24.357,M,36.995,M,1.6,2007*47
$PMSBATV,085328.60,2,2,5.32164,-0.67238,-24.13907,-0.000,-0.000,-0.000,-161.22245,0.000*7F
$GPGGA,085328.70,3542.292982115,N,13943.288531010,E,5,07,2.63,24.357,M,36.995,M,1.7,2007*46
$PMSBATV,085328.70,2,2,5.32105,-0.66928,-24.13443,0.000,0.000,-0.000,-161.22245,0.000*7F
$GPGGA,085328.80,3542.292982119,N,13943.288531008,E,5,07,2.63,24.357,M,36.995,M,1.8,2007*43
$PMSBATV,085328.80,2,2,5.32607,-0.66640,-24.13214,0.000,-0.000,-0.000,-161.22245,0.000*5D
$GPGGA,085328.90,3542.292982122,N,13943.288531002,E,5,07,2.63,24.357,M,36.995,M,1.9,2007*41
$PMSBATV,085328.90,2,2,5.32944,-0.66875,-24.13069,-0.000,-0.000,-0.000,-161.22245,0.000*79
$GPGGA,085329.00,3542.292982123,N,13943.288531005,E,5,07,2.63,24.357,M,36.995,M,2.0,2007*45
$PMSBATV,085329.00,2,2,5.32688,-0.66586,-24.13478,0.000,0.000,-0.000,-161.22245,0.000*7B
$GPGGA,085329.10,3542.292982127,N,13943.288531002,E,5,07,2.63,24.357,M,36.995,M,2.1,2007*46
$PMSBATV,085329.10,2,2,5.33042,-0.66663,-24.13621,0.000,0.000,-0.000,-161.22245,0.000*7D
$GPGGA,085329.20,3542.292982132,N,13943.288531003,E,5,07,2.63,24.357,M,36.995,M,2.2,2007*43
$PMSBATV,085329.20,2,2,5.32985,-0.66473,-24.13448,-0.000,0.000,-0.000,-161.22245,0.000*5E
$GPGGA,085329.30,3542.292982129,N,13943.288530996,E,5,07,2.63,24.357,M,36.995,M,2.3,2007*4D
$PMSBATV,085329.30,2,2,5.33584,-0.66066,-24.13891,0.000,-0.000,-0.000,-161.22245,0.000*5B
$GPGGA,085329.40,3542.292982129,N,13943.288530991,E,5,07,2.63,24.357,M,36.995,M,2.4,2007*4A
$PMSBATV,085329.40,2,2,5.34000,-0.65319,-24.13824,0.000,-0.000,0.000,-161.22245,0.000*79
$GPGGA,085329.50,3542.292982132,N,13943.288530995,E,5,07,2.63,24.357,M,36.995,M,2.5,2007*44
$PMSBATV,085329.50,2,2,5.33578,-0.65603,-24.13768,-0.000,0.000,-0.000,-161.22245,0.000*51
$GPGGA,085329.60,3542.292982136,N,13943.288530996,E,5,07,2.63,24.357,M,36.995,M,2.6,2007*43
$PMSBATV,085329.60,2,2,5.33464,-0.65430,-24.14038,-0.000,0.000,-0.000,-161.22245,0.000*59
$GPGGA,085329.70,3542.292982144,N,13943.288530994,E,5,07,2.63,24.357,M,36.995,M,2.7,2007*44
$PMSBATV,085329.70,2,2,5.33058,-0.65415,-24.14015,0.000,0.000,-0.000,-161.22245,0.000*76
$GPGGA,085329.80,3542.292982149,N,13943.288530992,E,5,07,2.63,24.357,M,36.995,M,2.8,2007*4F
$PMSBATV,085329.80,2,2,5.32735,-0.64869,-24.13695,0.000,0.000,-0.000,-161.22245,0.000*7B
$GPGGA,085329.90,3542.292982148,N,13943.288530991,E,5,07,2.63,24.357,M,36.995,M,2.9,2007*4D
$PMSBATV,085329.90,2,2,5.32294,-0.65430,-24.13328,-0.000,0.000,-0.000,-161.22245,0.000*5B
$GPGGA,085330.00,3542.292982151,N,13943.288530991,E,5,07,2.63,24.357,M,36.995,M,3.0,2007*4C
$PMSBATV,085330.00,2,2,5.31987,-0.65394,-24.13530,0.000,-0.000,-0.000,-161.22245,0.000*56
$GPGGA,085330.10,3542.292982158,N,13943.288530990,E,5,07,2.63,24.357,M,36.995,M,3.1,2007*44
$PMSBATV,085330.10,2,2,5.31947,-0.65018,-24.13504,0.000,0.000,-0.000,-161.22245,0.000*76
$GPGGA,085330.20,3542.292982160,N,13943.288530988,E,5,07,2.63,24.357,M,36.995,M,3.2,2007*46
$PMSBATV,085330.20,2,2,5.31619,-0.65504,-24.13421,0.000,-0.000,-0.000,-161.22245,0.000*52
$GPGGA,085330.30,3542.292982158,N,13943.288530999,E,5,07,2.63,24.357,M,36.995,M,3.3,2007*4D
$PMSBATV,085330.30,2,2,5.30961,-0.65951,-24.13884,-0.001,0.000,0.000,-161.22245,0.000*71
$GPGGA,085330.40,3542.292982157,N,13943.288531002,E,5,07,2.63,24.357,M,36.995,M,3.4,2007*48
$PMSBATV,085330.40,2,2,5.31571,-0.65936,-24.13830,-0.000,0.000,-0.000,-161.22245,0.000*58
$GPGGA,085330.50,3542.292982165,N,13943.288530996,E,5,07,2.63,24.357,M,36.995,M,3.5,2007*4C
$PMSBATV,085330.50,2,2,5.31218,-0.65518,-24.14194,0.000,-0.000,-0.000,-161.22245,0.000*51
$GPGGA,085330.60,3542.292982170,N,13943.288530996,E,5,07,2.63,24.357,M,36.995,M,3.6,2007*48
$PMSBATV,085330.60,2,2,5.30608,-0.65902,-24.14220,0.000,-0.000,-0.000,-161.22245,0.000*5D
$GPGGA,085330.70,3542.292982165,N,13943.288530998,E,5,07,2.63,24.357,M,36.995,M,3.7,2007*42
$PMSBATV,085330.70,2,2,5.31724,-0.66199,-24.14537,-0.000,-0.000,-0.000,-161.22245,0.000*77
$GPGGA,085330.80,3542.292982167,N,13943.288530991,E,5,07,2.63,24.357,M,36.995,M,3.8,2007*49
$PMSBATV,085330.80,2,2,5.32021,-0.65703,-24.14168,0.000,-0.000,0.000,-161.22245,0.000*71
$GPGGA,085330.90,3542.292982174,N,13943.288530988,E,5,07,2.63,24.357,M,36.995,M,3.9,2007*43
$PMSBATV,085330.90,2,2,5.32052,-0.65340,-24.14319,0.000,-0.000,-0.000,-161.22245,0.000*5E
$GPGGA,085331.00,3542.292982180,N,13943.288530988,E,5,07,2.63,24.357,M,36.995,M,4.0,2007*4E
$PMSBATV,085331.00,2,2,5.33318,-0.66061,-24.14370,0.000,-0.000,-0.000,-161.22245,0.000*56
$GPGGA,085331.10,3542.292982164,N,13943.288530976,E,5,07,2.63,24.357,M,36.995,M,4.1,2007*45
$PMSBATV,085331.10,2,2,5.34148,-0.66000,-24.14477,-0.000,-0.000,-0.000,-161.22245,0.000*7D
$GPGGA,085331.20,3542.292982163,N,13943.288530972,E,5,07,2.63,24.357,M,36.995,M,4.2,2007*46
$PMSBATV,085331.20,2,2,5.33097,-0.65912,-24.14387,-0.000,-0.000,-0.000,-161.22245,0.000*7B
$GPGGA,085331.30,3542.292982160,N,13943.288530968,E,5,07,2.63,24.357,M,36.995,M,4.3,2007*4E
$PMSBATV,085331.30,2,2,5.34011,-0.65794,-24.14198,-0.000,-0.000,-0.000,-161.22245,0.000*7F
$GPGGA,085331.40,3542.292982157,N,13943.288530963,E,5,05,7.34,24.357,M,36.995,M,4.4,2007*44
$PMSBATV,085331.40,2,2,5.34245,-0.66410,-24.14230,-0.000,-0.000,-0.000,-161.22245,0.000*76
$GPGGA,085331.50,3542.292982160,N,13943.288530962,E,5,05,7.34,24.357,M,36.995,M,4.5,2007*41
$PMSBATV,085331.50,2,2,5.33849,-0.66246,-24.14269,0.000,-0.000,0.000,-161.22245,0.000*7F
$GPGGA,085331.60,3542.292982162,N,13943.288530960,E,5,05,7.34,24.357,M,36.995,M,4.6,2007*41
$PMSBATV,085331.60,2,2,5.34157,-0.65574,-24.14902,-0.000,-0.000,0.000,-161.22245,0.000*53
$GPGGA,085331.70,3542.292982168,N,13943.288530951,E,5,07,2.63,24.357,M,36.995,M,4.7,2007*4C
$PMSBATV,085331.70,2,2,5.33983,-0.65767,-24.15171,0.000,-0.000,-0.000,-161.22245,0.000*59
$GPGGA,085331.80,3542.292982172,N,13943.288530949,E,5,07,2.63,24.357,M,36.995,M,4.8,2007*4E
$PMSBATV,085331.80,2,2,5.34123,-0.65712,-24.15135,0.000,-0.000,-0.000,-161.22245,0.000*51
$GPGGA,085331.90,3542.292982163,N,13943.288530942,E,5,07,2.63,24.357,M,36.995,M,4.9,2007*45
$PMSBATV,085331.90,2,2,5.34964,-0.65907,-24.14906,-0.000,-0.000,0.000,-161.22245,0.000*58
$GPGGA,085332.00,3542.292982158,N,13943.288530937,E,5,07,2.63,24.357,M,36.995,M,5.0,2007*4D
$PMSBATV,085332.00,2,2,5.34995,-0.66011,-24.15096,-0.000,-0.000,-0.000,-161.22245,0.000*7D
$GPGGA,085332.10,3542.292982163,N,13943.288530932,E,5,07,2.63,24.357,M,36.995,M,5.1,2007*40
$PMSBATV,085332.10,2,2,5.34873,-0.66058,-24.14996,0.000,0.000,-0.000,-161.22245,0.000*70
$GPGGA,085332.20,3542.292982159,N,13943.288530925,E,5,07,2.63,24.357,M,36.995,M,5.2,2007*4F
$PMSBATV,085332.20,2,2,5.35296,-0.65472,-24.14589,0.000,-0.000,-0.000,-161.22245,0.000*53
$GPGGA,085332.30,3542.292982150,N,13943.288530927,E,5,07,2.63,24.357,M,36.995,M,5.3,2007*44
$PMSBATV,085332.30,2,2,5.34779,-0.65792,-24.14738,-0.000,0.000,0.000,-161.22245,0.000*7F
$GPGGA,085332.40,3542.292982142,N,13943.288530922,E,5,07,2.63,24.357,M,36.995,M,5.4,2007*42
$PMSBATV,085332.40,2,2,5.35020,-0.66193,-24.14563,-0.000,-0.000,-0.000,-161.22245,0.000*7A
$GPGGA,085332.50,3542.292982142,N,13943.288530921,E,5,07,2.63,24.357,M,36.995,M,5.5,2007*41
$PMSBATV,085332.50,2,2,5.34822,-0.66231,-24.14605,0.000,0.000,-0.000,-161.22245,0.000*78
$GPGGA,085332.60,3542.292982136,N,13943.288530916,E,5,07,2.63,24.357,M,36.995,M,5.6,2007*46
$PMSBATV,085332.60,2,2,5.34840,-0.66809,-24.14712,0.000,0.000,-0.000,-161.22245,0.000*79
$GPGGA,085332.70,3542.292982128,N,13943.288530913,E,5,07,2.63,24.357,M,36.995,M,5.7,2007*4C
$PMSBATV,085332.70,2,2,5.35071,-0.67118,-24.14840,-0.000,0.000,-0.000,-161.22245,0.000*5E
$GPGGA,085332.80,3542.292982124,N,13943.288530906,E,5,07,2.63,24.357,M,36.995,M,5.8,2007*44
$PMSBATV,085332.80,2,2,5.35053,-0.66592,-24.14810,0.000,0.000,-0.000,-161.22245,0.000*7E
$GPGGA,085332.90,3542.292982119,N,13943.288530901,E,5,07,2.63,24.357,M,36.995,M,5.9,2007*4D
$PMSBATV,085332.90,2,2,5.34508,-0.66477,-24.14318,0.000,0.000,0.000,-161.22245,0.000*51
$GPGGA,085333.00,3542.292982111,N,13943.288530899,E,5,07,2.63,24.357,M,36.995,M,6.0,2007*47
$PMSBATV,085333.00,2,2,5.34180,-0.66318,-24.14531,0.000,-0.000,0.000,-161.22245,0.000*73
$GPGGA,085333.10,3542.292982103,N,13943.288530888,E,5,07,2.63,24.357,M,36.995,M,1.1,2007*43
$PMSBATV,085333.10,2,2,5.35107,-0.65823,-24.14610,0.000,-0.000,-0.000,-161.22245,0.000*51
$GPGGA,085333.20,3542.292982101,N,13943.288530887,E,5,07,2.63,24.357,M,36.995,M,1.2,2007*4E
$PMSBATV,085333.20,2,2,5.33980,-0.65854,-24.15103,-0.000,0.000,-0.000,-161.22245,0.000*57
$GPGGA,085333.30,3542.292982098,N,13943.288530882,E,5,07,2.63,24.357,M,36.995,M,1.3,2007*4A
$PMSBATV,085333.30,2,2,5.33789,-0.65876,-24.15270,0.000,0.000,-0.000,-161.22245,0.000*7B
$GPGGA,085333.40,3542.292982094,N,13943.288530883,E,5,07,2.63,24.357,M,36.995,M,1.4,2007*47
$PMSBATV,085333.40,2,2,5.33896,-0.65493,-24.15344,-0.000,0.000,0.000,-161.22245,0.000*7C
$GPGGA,085333.50,3542.292982095,N,13943.288530879,E,5,07,2.63,24.357,M,36.995,M,1.5,2007*43
$PMSBATV,085333.50,2,2,5.33417,-0.65078,-24.15861,0.000,0.000,-0.000,-161.22245,0.000*75
$GPGGA,085333.60,3542.292982092,N,13943.288530868,E,5,07,2.63,24.357,M,36.995,M,1.6,2007*44
$PMSBATV,085333.60,2,2,5.33536,-0.65193,-24.15750,0.000,-0.000,0.000,-161.22245,0.000*7D
$GPGGA,085333.70,3542.292982085,N,13943.288530866,E,5,07,2.63,24.357,M,36.995,M,1.7,2007*4C
$PMSBATV,085333.70,2,2,5.33957,-0.66361,-24.16002,-0.000,0.000,-0.000,-161.22245,0.000*55
$GPGGA,085333.80,3542.292982077,N,13943.288530871,E,5,07,2.63,24.357,M,36.995,M,1.8,2007*47
$PMSBATV,085333.80,2,2,5.33282,-0.66744,-24.16397,-0.000,0.000,-0.000,-161.22245,0.000*55
$GPGGA,085333.90,3542.292982075,N,13943.288530860,E,5,07,2.63,24.357,M,36.995,M,1.9,2007*45
$PMSBATV,085333.90,2,2,5.33554,-0.66587,-24.16142,-0.000,-0.000,-0.000,-161.22245,0.000*72
$GPGGA,085334.00,3542.292982068,N,13943.288530861,E,5,07,2.63,24.357,M,36.995,M,2.0,2007*4C
$PMSBATV,085334.00,2,2,5.33881,-0.67213,-24.16293,-0.000,0.000,0.000,-161.22245,0.000*7D
$GPGGA,085334.10,3542.292982058,N,13943.288530854,E,5,07,2.63,24.357,M,36.995,M,2.1,2007*49
$PMSBATV,085334.10,2,2,5.34167,-0.67167,-24.16390,0.000,0.000,-0.000,-161.22245,0.000*78
$GPGGA,085334.20,3542.292982059,N,13943.288530853,E,5,07,2.63,24.357,M,36.995,M,2.2,2007*4F
$PMSBATV,085334.20,2,2,5.32959,-0.67192,-24.16200,0.000,0.000,-0.000,-161.22245,0.000*7A
$GPGGA,085334.30,3542.292982050,N,13943.288530847,E,5,07,2.63,24.357,M,36.995,M,2.3,2007*43
$PMSBATV,085334.30,2,2,5.32662,-0.67309,-24.15944,0.000,0.000,0.000,-161.22245,0.000*59
$GPGGA,085334.40,3542.292982041,N,13943.288530840,E,5,07,2.63,24.357,M,36.995,M,2.4,2007*44
$PMSBATV,085334.40,2,2,5.33352,-0.67318,-24.15613,0.000,0.000,-0.000,-161.22245,0.000*79
$GPGGA,085334.50,3542.292982041,N,13943.288530833,E,5,07,2.63,24.357,M,36.995,M,2.5,2007*40
$PMSBATV,085334.50,2,2,5.33205,-0.67158,-24.15642,0.000,0.000,-0.000,-161.22245,0.000*79
$GPGGA,085334.60,3542.292982036,N,13943.288530825,E,5,07,2.63,24.357,M,36.995,M,2.6,2007*47
$PMSBATV,085334.60,2,2,5.33664,-0.67116,-24.15681,-0.000,-0.000,-0.000,-161.22245,0.000*7C
$GPGGA,085334.70,3542.292982030,N,13943.288530814,E,5,07,2.63,24.357,M,36.995,M,2.7,2007*43
$PMSBATV,085334.70,2,2,5.34275,-0.66675,-24.15679,0.000,-0.000,-0.000,-161.22245,0.000*57
$GPGGA,085334.80,3542.292982030,N,13943.288530809,E,5,07,2.63,24.357,M,36.995,M,2.8,2007*4F
$PMSBATV,085334.80,2,2,5.34223,-0.66460,-24.15739,0.000,0.000,-0.000,-161.22245,0.000*75
$GPGGA,085334.90,3542.292982019,N,13943.288530804,E,5,07,2.63,24.357,M,36.995,M,2.9,2007*49
$PMSBATV,085334.90,2,2,5.33704,-0.66557,-24.15374,-0.000,0.000,0.000,-161.22245,0.000*7B
$GPGGA,085335.00,3542.292982011,N,13943.288530793,E,5,07,2.63,24.357,M,36.995,M,3.0,2007*40
$PMSBATV,085335.00,2,2,5.33817,-0.66057,-24.15488,-0.000,-0.000,-0.000,-161.22245,0.000*7F
$GPGGA,085335.10,3542.292982003,N,13943.288530787,E,5,07,2.63,24.357,M,36.995,M,3.1,2007*46
$PMSBATV,085335.10,2,2,5.33741,-0.66560,-24.15468,-0.000,-0.000,-0.000,-161.22245,0.000*7D
$GPGGA,085335.20,3542.292981998,N,13943.288530778,E,5,07,2.63,24.357,M,36.995,M,3.2,2007*4E
$PMSBATV,085335.20,2,2,5.33720,-0.66267,-24.15557,-0.000,-0.000,-0.000,-161.22245,0.000*74
$GPGGA,085335.30,3542.292981993,N,13943.288530774,E,5,07,2.63,24.357,M,36.995,M,3.3,2007*49
$PMSBATV,085335.30,2,2,5.34082,-0.65878,-24.15591,0.000,-0.000,-0.000,-161.22245,0.000*5D
$GPGGA,085335.40,3542.292981989,N,13943.288530769,E,5,07,2.63,24.357,M,36.995,M,3.4,2007*4E
$PMSBATV,085335.40,2,2,5.33869,-0.65341,-24.15943,0.000,0.000,-0.000,-161.22245,0.000*7F
$GPGGA,085335.50,3542.292981990,N,13943.288530767,E,5,07,2.63,24.357,M,36.995,M,3.5,2007*48
$PMSBATV,085335.50,2,2,5.33215,-0.65373,-24.15712,0.000,-0.000,0.000,-161.22245,0.000*74
$GPGGA,085335.60,3542.292981980,N,13943.288530765,E,5,07,2.63,24.357,M,36.995,M,3.6,2007*4B
$PMSBATV,085335.60,2,2,5.33797,-0.65778,-24.15705,-0.000,-0.000,-0.000,-161.22245,0.000*71
$GPGGA,085335.70,3542.292981973,N,13943.288530766,E,5,07,2.63,24.357,M,36.995,M,3.7,2007*44
$PMSBATV,085335.70,2,2,5.33187,-0.66314,-24.15635,-0.000,0.000,-0.000,-161.22245,0.000*55
$GPGGA,085335.80,3542.292981970,N,13943.288530759,E,5,07,2.63,24.357,M,36.995,M,3.8,2007*4B
$PMSBATV,085335.80,2,2,5.33350,-0.66749,-24.15378,0.000,-0.000,-0.000,-161.22245,0.000*52
$GPGGA,085335.90,3542.292981965,N,13943.288530751,E,5,07,2.63,24.357,M,36.995,M,3.9,2007*47
$PMSBATV,085335.90,2,2,5.33841,-0.66361,-24.15185,0.000,-0.000,-0.000,-161.22245,0.000*56
$GPGGA,085336.00,3542.292981959,N,13943.288530739,E,5,06,4.81,24.357,M,36.995,M,4.0,2007*49
$PMSBATV,085336.00,2,2,5.34263,-0.66278,-24.15068,-0.000,-0.000,-0.000,-161.22245,0.000*77
$GPGGA,085336.10,3542.292981951,N,13943.288530731,E,5,06,4.81,24.357,M,36.995,M,4.1,2007*49
$PMSBATV,085336.10,2,2,5.34099,-0.66263,-24.15103,-0.000,-0.000,-0.000,-161.22245,0.000*77
$GPGGA,085336.20,3542.292981953,N,13943.288530724,E,5,06,4.81,24.357,M,36.995,M,4.2,2007*4F
$PMSBATV,085336.20,2,2,5.34324,-0.65620,-24.15065,0.000,0.000,-0.000,-161.22245,0.000*70
$GPGGA,085336.30,3542.292981954,N,13943.288530727,E,5,06,4.81,24.357,M,36.995,M,4.3,2007*4B
$PMSBATV,085336.30,2,2,5.34394,-0.65454,-24.14919,0.000,0.000,0.000,-161.22245,0.000*55
$GPGGA,085336.40,3542.292981946,N,13943.288530722,E,5,06,4.81,24.357,M,36.995,M,4.4,2007*4D
$PMSBATV,085336.40,2,2,5.34052,-0.65435,-24.14928,-0.000,0.000,0.000,-161.22245,0.000*73
$GPGGA,085336.50,3542.292981946,N,13943.288530723,E,5,06,4.81,24.357,M,36.995,M,4.5,2007*4C
$PMSBATV,085336.50,2,2,5.33507,-0.65176,-24.14895,0.000,0.000,-0.000,-161.22245,0.000*75
$GPGGA,085336.60,3542.292981949,N,13943.288530722,E,5,07,2.63,24.357,M,36.995,M,4.6,2007*49
$PMSBATV,085336.60,2,2,5.33103,-0.65632,-24.15217,0.000,-0.000,-0.000,-161.22245,0.000*5D
$GPGGA,085336.70,3542.292981948,N,13943.288530717,E,5,07,2.63,24.357,M,36.995,M,4.7,2007*4E
$PMSBATV,085336.70,2,2,5.33112,-0.65801,-24.14729,0.000,0.000,-0.000,-161.22245,0.000*76
$GPGGA,085336.80,3542.292981950,N,13943.288530712,E,5,07,2.63,24.357,M,36.995,M,4.8,2007*42
$PMSBATV,085336.80,2,2,5.33273,-0.65279,-24.14828,0.000,-0.000,0.000,-161.22245,0.000*76
$GPGGA,085336.90,3542.292981946,N,13943.288530704,E,5,06,4.81,24.358,M,36.995,M,4.9,2007*46
$PMSBATV,085336.90,2,2,5.33304,-0.65186,-24.14635,0.000,0.000,0.000,-161.22245,0.000*5A
$GPGGA,085337.00,3542.292981938,N,13943.288530704,E,5,07,2.63,24.358,M,36.995,M,5.0,2007*44
$PMSBATV,085337.00,2,2,5.32171,-0.65561,-24.14189,-0.000,0.000,-0.000,-161.22245,0.000*5E
$GPGGA,085337.10,3542.292981936,N,13943.288530701,E,5,07,2.63,24.358,M,36.995,M,5.1,2007*4F
$PMSBATV,085337.10,2,2,5.32708,-0.65212,-24.14012,0.000,-0.000,-0.000,-161.22245,0.000*57
$GPGGA,085337.20,3542.292981935,N,13943.288530688,E,5,07,2.63,24.358,M,36.995,M,5.2,2007*4C
$PMSBATV,085337.20,2,2,5.33772,-0.65003,-24.13949,0.000,-0.000,0.000,-161.22245,0.000*77
$GPGGA,085337.30,3542.292981928,N,13943.288530689,E,5,07,2.63,24.358,M,36.995,M,5.3,2007*41
$PMSBATV,085337.30,2,2,5.32773,-0.65442,-24.13641,-0.000,0.000,0.000,-161.22245,0.000*70
$GPGGA,085337.40,3542.292981923,N,13943.288530688,E,5,07,2.63,24.358,M,36.995,M,5.4,2007*4B
$PMSBATV,085337.40,2,2,5.32405,-0.65664,-24.13747,-0.000,-0.000,0.000,-161.22245,0.000*59
$GPGGA,085337.50,3542.292981915,N,13943.288530676,E,5,07,2.63,24.358,M,36.995,M,5.5,2007*4F
$PMSBATV,085337.50,2,2,5.33497,-0.65292,-24.14522,-0.000,-0.000,-0.000,-161.22245,0.000*74
$GPGGA,085337.60,3542.292981905,N,13943.288530670,E,5,07,2.63,24.358,M,36.995,M,5.6,2007*48
$PMSBATV,085337.60,2,2,5.33839,-0.65436,-24.14375,0.000,0.000,-0.000,-161.22245,0.000*73
$GPGGA,085337.70,3542.292981895,N,13943.288530668,E,5,07,2.63,24.358,M,36.995,M,5.7,2007*49
$PMSBATV,085337.70,2,2,5.33872,-0.65688,-24.14395,-0.000,0.000,-0.000,-161.22245,0.000*59
$GPGGA,085337.80,3542.292981892,N,13943.288530668,E,5,07,2.63,24.358,M,36.995,M,5.8,2007*4E
$PMSBATV,085337.80,2,2,5.34455,-0.65890,-24.14620,-0.000,-0.000,0.000,-161.22245,0.000*54
$GPGGA,085337.90,3542.292981880,N,13943.288530669,E,5,07,2.63,24.358,M,36.995,M,5.9,2007*4C
$PMSBATV,085337.90,2,2,5.34722,-0.66650,-24.14342,-0.000,0.000,-0.000,-161.22245,0.000*56
$GPGGA,085338.00,3542.292981875,N,13943.288530667,E,5,07,2.63,24.358,M,36.995,M,6.0,2007*44
$PMSBATV,085338.00,2,2,5.34545,-0.66175,-24.14149,0.000,0.000,-0.000,-161.22245,0.000*77
$GPGGA,085338.10,3542.292981873,N,13943.288530667,E,5,07,2.63,24.358,M,36.995,M,1.1,2007*45
$PMSBATV,085338.10,2,2,5.34483,-0.66442,-24.13767,0.000,0.000,-0.000,-161.22245,0.000*71
$GPGGA,085338.20,3542.292981866,N,13943.288530662,E,5,07,2.63,24.358,M,36.995,M,1.2,2007*44
$PMSBATV,085338.20,2,2,5.34631,-0.66925,-24.13750,0.000,0.000,0.000,-161.22245,0.000*5C
$GPGGA,085338.30,3542.292981861,N,13943.288530665,E,5,07,2.63,24.358,M,36.995,M,1.3,2007*44
$PMSBATV,085338.30,2,2,5.34366,-0.67098,-24.13883,-0.000,0.000,-0.000,-161.22245,0.000*55
$GPGGA,085338.40,3542.292981859,N,13943.288530661,E,5,07,2.63,24.358,M,36.995,M,1.4,2007*4B
$PMSBATV,085338.40,2,2,5.34968,-0.67327,-24.13925,0.000,-0.000,0.000,-161.22245,0.000*71
$GPGGA,085338.50,3542.292981854,N,13943.288530656,E,5,07,2.63,24.358,M,36.995,M,1.5,2007*42
$PMSBATV,085338.50,2,2,5.34370,-0.67341,-24.14502,0.000,0.000,-0.000,-161.22245,0.000*7D
$GPGGA,085338.60,3542.292981853,N,13943.288530662,E,5,07,2.63,24.358,M,36.995,M,1.6,2007*42
$PMSBATV,085338.60,2,2,5.33852,-0.67063,-24.14405,0.000,0.000,-0.000,-161.22245,0.000*77
$GPGGA,085338.70,3542.292981850,N,13943.288530660,E,5,07,2.63,24.358,M,36.995,M,1.7,2007*43
$PMSBATV,085338.70,2,2,5.34437,-0.67360,-24.14707,0.000,-0.000,-0.000,-161.22245,0.000*52
$GPGGA,085338.80,3542.292981843,N,13943.288530651,E,5,07,2.63,24.358,M,36.995,M,1.8,2007*43
$PMSBATV,085338.80,2,2,5.34160,-0.67389,-24.14848,-0.000,-0.000,-0.000,-161.22245,0.000*74
$GPGGA,085338.90,3542.292981840,N,13943.288530650,E,5,07,2.63,24.358,M,36.995,M,1.9,2007*41
$PMSBATV,085338.90,2,2,5.33717,-0.67667,-24.14658,-0.000,-0.000,-0.000,-161.22245,0.000*7E
$GPGGA,085339.00,3542.292981825,N,13943.288530642,E,5,07,2.63,24.358,M,36.995,M,2.0,2007*43
$PMSBATV,085339.00,2,2,5.34767,-0.67840,-24.15028,-0.000,-0.000,-0.000,-161.22245,0.000*7D
$GPGGA,085339.10,3542.292981818,N,13943.288530643,E,5,05,7.33,24.358,M,36.995,M,2.1,2007*4E
$PMSBATV,085339.10,2,2,5.34507,-0.67681,-24.15055,0.000,0.000,-0.000,-161.22245,0.000*71
$GPGGA,085339.20,3542.292981823,N,13943.288530647,E,5,05,7.33,24.358,M,36.995,M,2.2,2007*42
$PMSBATV,085339.20,2,2,5.34023,-0.67578,-24.14900,-0.000,0.000,-0.000,-161.22245,0.000*51
$GPGGA,085339.30,3542.292981824,N,13943.288530646,E,5,05,7.33,24.358,M,36.995,M,2.3,2007*44
$PMSBATV,085339.30,2,2,5.34455,-0.67685,-24.15416,-0.000,-0.000,-0.000,-161.22245,0.000*72
$GPGGA,085339.40,3542.292981826,N,13943.288530640,E,5,07,2.63,24.358,M,36.995,M,2.4,2007*42
$PMSBATV,085339.40,2,2,5.33787,-0.67986,-24.15304,-0.000,0.000,-0.000,-161.22245,0.000*5B
$GPGGA,085339.50,3542.292981829,N,13943.288530633,E,5,07,2.63,24.358,M,36.995,M,2.5,2007*49
$PMSBATV,085339.50,2,2,5.33838,-0.67724,-24.15456,0.000,-0.000,0.000,-161.22245,0.000*7A
$GPGGA,085339.60,3542.292981831,N,13943.288530623,E,5,07,2.63,24.358,M,36.995,M,2.6,2007*41
$PMSBATV,085339.60,2,2,5.34746,-0.68070,-24.15511,0.000,-0.000,-0.000,-161.22245,0.000*5E
$GPGGA,085339.70,3542.292981841,N,13943.288530624,E,5,07,2.63,24.358,M,36.995,M,2.7,2007*41
$PMSBATV,085339.70,2,2,5.34261,-0.67313,-24.15157,0.000,0.000,0.000,-161.22245,0.000*50
$GPGGA,085339.80,3542.292981841,N,13943.288530622,E,5,07,2.63,24.358,M,36.995,M,2.8,2007*47
$PMSBATV,085339.80,2,2,5.34728,-0.66970,-24.14944,-0.000,-0.000,0.000,-161.22245,0.000*52
$GPGGA,085339.90,3542.292981852,N,13943.288530613,E,5,07,2.63,24.358,M,36.995,M,2.9,2007*47
$PMSBATV,085339.90,2,2,5.35091,-0.66159,-24.14918,0.000,-0.000,-0.000,-161.22245,0.000*5D
$GPGGA,085340.00,3542.292981857,N,13943.288530608,E,5,06,4.81,24.358,M,36.995,M,3.0,2007*4C
$PMSBATV,085340.00,2,2,5.34682,-0.66052,-24.14599,0.000,-0.000,0.000,-161.22245,0.000*7D
$GPGGA,085340.10,3542.292981857,N,13943.288530609,E,5,06,4.81,24.358,M,36.995,M,3.1,2007*4D
$PMSBATV,085340.10,2,2,5.34703,-0.66067,-24.14631,-0.000,-0.000,-0.000,-161.22245,0.000*73
$GPGGA,085340.20,3542.292981859,N,13943.288530611,E,5,06,4.81,24.358,M,36.995,M,3.2,2007*4A
$PMSBATV,085340.20,2,2,5.33662,-0.66432,-24.14669,-0.000,0.000,-0.000,-161.22245,0.000*55
$GPGGA,085340.30,3542.292981865,N,13943.288530616,E,5,06,4.81,24.358,M,36.995,M,3.3,2007*42
$PMSBATV,085340.30,2,2,5.33231,-0.66104,-24.14702,-0.000,0.000,-0.000,-161.22245,0.000*5A
$GPGGA,085340.40,3542.292981874,N,13943.288530608,E,5,06,4.81,24.358,M,36.995,M,3.4,2007*4D
$PMSBATV,085340.40,2,2,5.34246,-0.65846,-24.14364,0.000,-0.000,-0.000,-161.22245,0.000*52
$GPGGA,085340.50,3542.292981869,N,13943.288530611,E,5,06,4.81,24.358,M,36.995,M,3.5,2007*49
$PMSBATV,085340.50,2,2,5.33923,-0.66513,-24.14419,-0.000,-0.000,-0.000,-161.22245,0.000*72
$GPGGA,085340.60,3542.292981874,N,13943.288530615,E,5,06,4.81,24.358,M,36.995,M,3.6,2007*41
$PMSBATV,085340.60,2,2,5.33420,-0.66269,-24.14282,0.000,0.000,0.000,-161.22245,0.000*5C
$GPGGA,085340.70,3542.292981886,N,13943.288530617,E,5,06,4.81,24.358,M,36.995,M,3.7,2007*4E
$PMSBATV,085340.70,2,2,5.33006,-0.66056,-24.14374,-0.000,0.000,-0.000,-161.22245,0.000*5B
$GPGGA,085340.80,3542.292981884,N,13943.288530614,E,5,07,2.63,24.358,M,36.995,M,3.8,2007*44
$PMSBATV,085340.80,2,2,5.32926,-0.66555,-24.14306,-0.000,-0.000,-0.000,-161.22245,0.000*70
$GPGGA,085340.90,3542.292981890,N,13943.288530614,E,5,07,2.63,24.358,M,36.995,M,3.9,2007*41
$PMSBATV,085340.90,2,2,5.32984,-0.66080,-24.14403,0.000,0.000,-0.000,-161.22245,0.000*76
$GPGGA,085341.00,3542.292981894,N,13943.288530611,E,5,07,2.63,24.358,M,36.995,M,4.0,2007*46
$PMSBATV,085341.00,2,2,5.33748,-0.66061,-24.14488,-0.000,-0.000,-0.000,-161.22245,0.000*7D
$GPGGA,085341.10,3542.292981896,N,13943.288530611,E,5,07,2.63,24.358,M,36.995,M,4.1,2007*44
$PMSBATV,085341.10,2,2,5.33613,-0.66220,-24.14003,0.000,0.000,0.000,-161.22245,0.000*5E
$GPGGA,085341.20,3542.292981903,N,13943.288530612,E,5,07,2.63,24.358,M,36.995,M,4.2,2007*4A
$PMSBATV,085341.20,2,2,5.33562,-0.65435,-24.14414,0.000,0.000,-0.000,-161.22245,0.000*76
$GPGGA,085341.30,3542.292981915,N,13943.288530607,E,5,07,2.63,24.358,M,36.995,M,4.3,2007*49
$PMSBATV,085341.30,2,2,5.34038,-0.65099,-24.13935,0.000,-0.000,-0.000,-161.22245,0.000*5C
$GPGGA,085341.40,3542.292981916,N,13943.288530610,E,5,07,2.63,24.358,M,36.995,M,4.4,2007*4C
$PMSBATV,085341.40,2,2,5.33469,-0.65519,-24.13556,-0.000,0.000,0.000,-161.22245,0.000*75
$GPGGA,085341.50,3542.292981918,N,13943.288530618,E,5,07,2.63,24.358,M,36.995,M,4.5,2007*4A
$PMSBATV,085341.50,2,2,5.33021,-0.65610,-24.13359,-0.000,0.000,0.000,-161.22245,0.000*7F
$GPGGA,085341.60,3542.292981923,N,13943.288530607,E,5,07,2.63,24.358,M,36.995,M,4.6,2007*4C
$PMSBATV,085341.60,2,2,5.33910,-0.65506,-24.13486,0.000,-0.000,-0.000,-161.22245,0.000*5B
$GPGGA,085341.70,3542.292981921,N,13943.288530608,E,5,07,2.63,24.358,M,36.995,M,4.7,2007*41
$PMSBATV,085341.70,2,2,5.33128,-0.66350,-24.14053,-0.000,-0.000,-0.000,-161.22245,0.000*79
$GPGGA,085341.80,3542.292981920,N,13943.288530608,E,5,07,2.63,24.358,M,36.995,M,4.8,2007*40
$PMSBATV,085341.80,2,2,5.33381,-0.66282,-24.13962,-0.000,-0.000,-0.000,-161.22245,0.000*75
$GPGGA,085341.90,3542.292981924,N,13943.288530598,E,5,07,2.63,24.358,M,36.995,M,4.9,2007*4E
$PMSBATV,085341.90,2,2,5.34158,-0.66009,-24.13987,-0.000,-0.000,-0.000,-161.22245,0.000*7F
$GPGGA,085342.00,3542.292981930,N,13943.288530595,E,5,07,2.63,24.358,M,36.995,M,5.0,2007*44
$PMSBATV,085342.00,2,2,5.33706,-0.65858,-24.13943,0.000,0.000,-0.000,-161.22245,0.000*78
$GPGGA,085342.10,3542.292981934,N,13943.288530594,E,5,07,2.63,24.358,M,36.995,M,5.1,2007*41
$PMSBATV,085342.10,2,2,5.34118,-0.65930,-24.14069,0.000,0.000,0.000,-161.22245,0.000*53
$GPGGA,085342.20,3542.292981940,N,13943.288530593,E,5,07,2.63,24.358,M,36.995,M,5.2,2007*45
$PMSBATV,085342.20,2,2,5.34471,-0.66143,-24.14368,0.000,0.000,-0.000,-161.22245,0.000*7A
$GPGGA,085342.30,3542.292981947,N,13943.288530588,E,5,07,2.63,24.358,M,36.995,M,5.3,2007*48
$PMSBATV,085342.30,2,2,5.34466,-0.66114,-24.14637,0.000,-0.000,-0.000,-161.22245,0.000*5D
$GPGGA,085342.40,3542.292981956,N,13943.288530585,E,5,07,2.63,24.358,M,36.995,M,5.4,2007*45
$PMSBATV,085342.40,2,2,5.34411,-0.66474,-24.14724,0.000,-0.000,0.000,-161.22245,0.000*77
$GPGGA,085342.50,3542.292981957,N,13943.288530585,E,5,07,2.63,24.358,M,36.995,M,5.5,2007*44
$PMSBATV,085342.50,2,2,5.34622,-0.66808,-24.14436,-0.000,-0.000,-0.000,-161.22245,0.000*73
$GPGGA,085342.60,3542.292981967,N,13943.288530581,E,5,07,2.63,24.358,M,36.995,M,5.6,2007*43
$PMSBATV,085342.60,2,2,5.34040,-0.66794,-24.13903,0.000,0.000,-0.000,-161.22245,0.000*74
$GPGGA,085342.70,3542.292981974,N,13943.288530582,E,5,07,2.63,24.358,M,36.995,M,5.7,2007*42
$PMSBATV,085342.70,2,2,5.33902,-0.66103,-24.13846,-0.000,0.000,-0.000,-161.22245,0.000*58
$GPGGA,085342.80,3542.292981970,N,13943.288530579,E,5,07,2.63,24.358,M,36.995,M,5.8,2007*42
$PMSBATV,085342.80,2,2,5.34654,-0.66418,-24.13989,-0.000,-0.000,-0.000,-161.22245,0.000*7C
$GPGGA,085342.90,3542.292981978,N,13943.288530580,E,5,07,2.63,24.358,M,36.995,M,5.9,2007*4C
$PMSBATV,085342.90,2,2,5.34314,-0.66297,-24.14018,0.000,0.000,0.000,-161.22245,0.000*56
$GPGGA,085343.00,3542.292981980,N,13943.288530576,E,5,07,2.63,24.358,M,36.995,M,6.0,2007*40
$PMSBATV,085343.00,2,2,5.34108,-0.66076,-24.13757,-0.000,-0.000,0.000,-161.22245,0.000*57
$GPGGA,085343.10,3542.292981984,N,13943.288530575,E,5,07,2.63,24.358,M,36.995,M,6.1,2007*47
$PMSBATV,085343.10,2,2,5.34286,-0.66202,-24.13683,0.000,0.000,0.000,-161.22245,0.000*5A
$GPGGA,085343.20,3542.292981982,N,13943.288530569,E,5,07,2.63,24.358,M,36.995,M,6.2,2007*4C
$PMSBATV,085343.20,2,2,5.34797,-0.66084,-24.13615,-0.000,-0.000,-0.000,-161.22245,0.000*72
$GPGGA,085343.30,3542.292981985,N,13943.288530570,E,5,07,2.63,24.358,M,36.995,M,6.3,2007*43
$PMSBATV,085343.30,2,2,5.33907,-0.65524,-24.13498,0.000,0.000,0.000,-161.22245,0.000*55
$GPGGA,085343.40,3542.292981983,N,13943.288530559,E,5,07,2.63,24.358,M,36.995,M,6.4,2007*4E
$PMSBATV,085343.40,2,2,5.34323,-0.64961,-24.13723,0.000,-0.000,-0.000,-161.22245,0.000*56
$GPGGA,085343.50,3542.292981981,N,13943.288530553,E,5,07,2.63,24.358,M,36.995,M,6.5,2007*46
$PMSBATV,085343.50,2,2,5.34369,-0.64896,-24.13920,-0.000,-0.000,-0.000,-161.22245,0.000*70
$GPGGA,085343.60,3542.292981980,N,13943.288530552,E,5,07,2.63,24.358,M,36.995,M,6.6,2007*46
$PMSBATV,085343.60,2,2,5.34058,-0.65651,-24.13892,-0.000,0.000,-0.000,-161.22245,0.000*53
$GPGGA,085343.70,3542.292981981,N,13943.288530549,E,5,07,2.63,24.358,M,36.995,M,6.7,2007*4D
$PMSBATV,085343.70,2,2,5.33683,-0.65397,-24.13586,0.000,-0.000,-0.000,-161.22245,0.000*52
$GPGGA,085343.80,3542.292981980,N,13943.288530544,E,5,07,2.63,24.358,M,36.995,M,6.8,2007*41
$PMSBATV,085343.80,2,2,5.33656,-0.65276,-24.13658,0.000,-0.000,-0.000,-161.22245,0.000*5B
$GPGGA,085343.90,3542.292981979,N,13943.288530538,E,5,07,2.63,24.358,M,36.995,M,6.9,2007*4C
$PMSBATV,085343.90,2,2,5.34377,-0.65373,-24.13539,-0.000,0.000,0.000,-161.22245,0.000*76
$GPGGA,085344.00,3542.292981979,N,13943.288530536,E,5,07,2.63,24.358,M,36.995,M,7.0,2007*44
$PMSBATV,085344.00,2,2,5.34403,-0.65840,-24.13468,0.000,-0.000,0.000,-161.22245,0.000*72
$GPGGA,085344.10,3542.292981979,N,13943.288530531,E,5,07,2.63,24.358,M,36.995,M,2.1,2007*46
$PMSBATV,085344.10,2,2,5.34644,-0.65752,-24.13404,0.000,-0.000,0.000,-161.22245,0.000*74
$GPGGA,085344.20,3542.292981981,N,13943.288530530,E,5,07,2.63,24.358,M,36.995,M,2.2,2007*40
$PMSBATV,085344.20,2,2,5.34071,-0.65699,-24.13309,0.000,0.000,-0.000,-161.22245,0.000*7B
$GPGGA,085344.30,3542.292981977,N,13943.288530526,E,5,07,2.63,24.358,M,36.995,M,2.3,2007*4E
$PMSBATV,085344.30,2,2,5.34339,-0.65468,-24.13461,-0.000,-0.000,0.000,-161.22245,0.000*5D
$GPGGA,085344.40,3542.292981984,N,13943.288530522,E,5,07,2.63,24.358,M,36.995,M,2.4,2007*46
$PMSBATV,085344.40,2,2,5.34644,-0.65490,-24.13849,0.000,0.000,0.000,-161.22245,0.000*54
$GPGGA,085344.50,3542.292981988,N,13943.288530518,E,5,07,2.63,24.358,M,36.995,M,2.5,2007*43
$PMSBATV,085344.50,2,2,5.34554,-0.64911,-24.14036,0.000,-0.000,0.000,-161.22245,0.000*78
$GPGGA,085344.60,3542.292981986,N,13943.288530514,E,5,07,2.63,24.358,M,36.995,M,2.6,2007*41
$PMSBATV,085344.60,2,2,5.35042,-0.64895,-24.14332,-0.000,0.000,-0.000,-161.22245,0.000*5F
$GPGGA,085344.70,3542.292981982,N,13943.288530511,E,5,07,2.63,24.358,M,36.995,M,2.7,2007*40
$PMSBATV,085344.70,2,2,5.35728,-0.64780,-24.14074,-0.000,-0.000,0.000,-161.22245,0.000*5F
$GPGGA,085344.80,3542.292981980,N,13943.288530507,E,5,07,2.63,24.358,M,36.995,M,2.8,2007*45
$PMSBATV,085344.80,2,2,5.36039,-0.64812,-24.14431,-0.000,-0.000,0.000,-161.22245,0.000*55
$GPGGA,085344.90,3542.292981982,N,13943.288530508,E,5,07,2.63,24.358,M,36.995,M,2.9,2007*48
$PMSBATV,085344.90,2,2,5.36118,-0.65469,-24.14597,-0.000,0.000,0.000,-161.22245,0.000*77
$GPGGA,085345.00,3542.292981976,N,13943.288530507,E,5,06,4.82,24.358,M,36.995,M,3.0,2007*44
$PMSBATV,085345.00,2,2,5.36687,-0.65448,-24.14647,-0.000,0.000,-0.000,-161.22245,0.000*5E
$GPGGA,085345.10,3542.292981978,N,13943.288530504,E,5,07,2.63,24.358,M,36.995,M,3.1,2007*41
$PMSBATV,085345.10,2,2,5.36449,-0.65024,-24.14619,-0.000,0.000,0.000,-161.22245,0.000*77
$GPGGA,085345.20,3542.292981979,N,13943.288530499,E,5,07,2.63,24.358,M,36.995,M,3.2,2007*45
$PMSBATV,085345.20,2,2,5.36919,-0.64880,-24.14682,-0.000,0.000,-0.000,-161.22245,0.000*54
$GPGGA,085345.30,3542.292981979,N,13943.288530498,E,5,07,2.63,24.358,M,36.995,M,3.3,2007*44
$PMSBATV,085345.30,2,2,5.37027,-0.64724,-24.14369,-0.000,-0.000,-0.000,-161.22245,0.000*7C
$GPGGA,085345.40,3542.292981978,N,13943.288530499,E,5,07,2.63,24.358,M,36.995,M,3.4,2007*44
$PMSBATV,085345.40,2,2,5.36809,-0.64936,-24.14639,0.000,0.000,0.000,-161.22245,0.000*5E
$GPGGA,085345.50,3542.292981974,N,13943.288530498,E,5,07,2.63,24.358,M,36.995,M,3.5,2007*49
$PMSBATV,085345.50,2,2,5.36733,-0.65224,-24.14649,0.000,0.000,-0.000,-161.22245,0.000*7A
$GPGGA,085345.60,3542.292981970,N,13943.288530495,E,5,07,2.63,24.358,M,36.995,M,3.6,2007*40
$PMSBATV,085345.60,2,2,5.37216,-0.65165,-24.14258,0.000,0.000,-0.000,-161.22245,0.000*78
$GPGGA,085345.70,3542.292981970,N,13943.288530497,E,5,07,2.63,24.358,M,36.995,M,3.7,2007*42
$PMSBATV,085345.70,2,2,5.36843,-0.65092,-24.14394,0.000,0.000,-0.000,-161.22245,0.000*7A
$GPGGA,085345.80,3542.292981973,N,13943.288530491,E,5,07,2.63,24.358,M,36.995,M,3.8,2007*47
$PMSBATV,085345.80,2,2,5.36780,-0.64985,-24.14118,0.000,-0.000,0.000,-161.22245,0.000*7D
$GPGGA,085345.90,3542.292981967,N,13943.288530497,E,5,07,2.63,24.358,M,36.995,M,3.9,2007*44
$PMSBATV,085345.90,2,2,5.36922,-0.64832,-24.14150,-0.001,0.000,-0.000,-161.22245,0.000*57
$GPGGA,085346.00,3542.292981969,N,13943.288530493,E,5,07,2.63,24.358,M,36.995,M,4.0,2007*4A
$PMSBATV,085346.00,2,2,5.36656,-0.64883,-24.14028,-0.000,-0.000,0.000,-161.22245,0.000*54
$GPGGA,085346.10,3542.292981976,N,13943.288530488,E,5,07,2.63,24.358,M,36.995,M,4.1,2007*4E
$PMSBATV,085346.10,2,2,5.36528,-0.64383,-24.14204,0.000,-0.000,-0.000,-161.22245,0.000*58
$GPGGA,085346.20,3542.292981978,N,13943.288530490,E,5,06,4.82,24.358,M,36.995,M,4.2,2007*41
$PMSBATV,085346.20,2,2,5.36191,-0.64191,-24.14119,0.000,0.000,-0.000,-161.22245,0.000*7E
$GPGGA,085346.30,3542.292981975,N,13943.288530485,E,5,06,4.82,24.358,M,36.995,M,4.3,2007*48
$PMSBATV,085346.30,2,2,5.36788,-0.64167,-24.14280,0.000,-0.000,-0.000,-161.22245,0.000*56
$GPGGA,085346.40,3542.292981978,N,13943.288530489,E,5,06,4.82,24.358,M,36.995,M,4.4,2007*49
$PMSBATV,085346.40,2,2,5.35862,-0.63840,-24.14067,-0.000,0.000,-0.000,-161.22245,0.000*59
$GPGGA,085346.50,3542.292981973,N,13943.288530489,E,5,06,4.82,24.358,M,36.995,M,4.5,2007*42
$PMSBATV,085346.50,2,2,5.35628,-0.64181,-24.13967,-0.000,-0.000,-0.000,-161.22245,0.000*78
$GPGGA,085346.60,3542.292981967,N,13943.288530490,E,5,06,4.82,24.358,M,36.995,M,4.6,2007*4F
$PMSBATV,085346.60,2,2,5.35019,-0.64099,-24.13951,-0.000,-0.000,-0.000,-161.22245,0.000*72
$GPGGA,085346.70,3542.292981961,N,13943.288530490,E,5,06,4.82,24.358,M,36.995,M,4.7,2007*49
$PMSBATV,085346.70,2,2,5.34314,-0.64327,-24.13695,-0.000,-0.000,-0.000,-161.22245,0.000*7D
$GPGGA,085346.80,3542.292981956,N,13943.288530489,E,5,06,4.82,24.358,M,36.995,M,4.8,2007*45
$PMSBATV,085346.80,2,2,5.34107,-0.64507,-24.13571,-0.000,0.000,-0.000,-161.22245,0.000*52
$GPGGA,085346.90,3542.292981945,N,13943.288530478,E,5,06,4.82,24.358,M,36.995,M,4.9,2007*49
$PMSBATV,085346.90,2,2,5.34999,-0.64411,-24.13316,-0.000,-0.000,-0.000,-161.22245,0.000*70
$GPGGA,085347.00,3542.292981943,N,13943.288530479,E,5,06,4.82,24.358,M,36.995,M,5.0,2007*4E
$PMSBATV,085347.00,2,2,5.34462,-0.64600,-24.13486,0.000,0.000,-0.000,-161.22245,0.000*7D
$GPGGA,085347.10,3542.292981939,N,13943.288530473,E,5,06,4.82,24.358,M,36.995,M,5.1,2007*49
$PMSBATV,085347.10,2,2,5.34367,-0.64202,-24.13531,0.000,-0.000,-0.000,-161.22245,0.000*58
$GPGGA,085347.20,3542.292981933,N,13943.288530467,E,5,06,4.82,24.358,M,36.995,M,5.2,2007*46
$PMSBATV,085347.20,2,2,5.34290,-0.63990,-24.13298,0.000,0.000,0.000,-161.22245,0.000*51
$GPGGA,085347.30,3542.292981927,N,13943.288530463,E,5,05,7.32,24.358,M,36.995,M,5.3,2007*4C
$PMSBATV,085347.30,2,2,5.34416,-0.64007,-24.13116,-0.000,-0.000,-0.000,-161.22245,0.000*70
$GPGGA,085347.40,3542.292981928,N,13943.288530457,E,5,05,7.32,24.358,M,36.995,M,5.4,2007*44
$PMSBATV,085347.40,2,2,5.34277,-0.64654,-24.13346,0.000,0.000,-0.000,-161.22245,0.000*71
$GPGGA,085347.50,3542.292981919,N,13943.288530452,E,5,05,7.32,24.358,M,36.995,M,5.5,2007*43
$PMSBATV,085347.50,2,2,5.34692,-0.64679,-24.13366,0.000,-0.000,-0.000,-161.22245,0.000*5F
$GPGGA,085347.60,3542.292981909,N,13943.288530448,E,5,05,7.32,24.358,M,36.995,M,5.6,2007*49
$PMSBATV,085347.60,2,2,5.34660,-0.64663,-24.13322,-0.000,-0.000,-0.000,-161.22245,0.000*77
$GPGGA,085347.70,3542.292981903,N,13943.288530442,E,5,05,7.32,24.358,M,36.995,M,5.7,2007*49
$PMSBATV,085347.70,2,2,5.34950,-0.64157,-24.13222,-0.000,-0.000,-0.000,-161.22245,0.000*7B
$GPGGA,085347.80,3542.292981897,N,13943.288530438,E,5,05,7.32,24.358,M,36.995,M,5.8,2007*48
$PMSBATV,085347.80,2,2,5.35319,-0.63853,-24.12991,-0.000,0.000,-0.000,-161.22245,0.000*57
$GPGGA,085347.90,3542.292981890,N,13943.288530431,E,5,05,7.32,24.358,M,36.995,M,5.9,2007*46
$PMSBATV,085347.90,2,2,5.35297,-0.63866,-24.13453,0.000,0.000,-0.000,-161.22245,0.000*78
$GPGGA,085348.00,3542.292981882,N,13943.288530427,E,5,05,7.32,24.358,M,36.995,M,6.0,2007*4E
$PMSBATV,085348.00,2,2,5.35761,-0.64199,-24.13530,-0.000,-0.000,-0.000,-161.22245,0.000*78
$GPGGA,085348.10,3542.292981875,N,13943.288530432,E,5,05,7.32,24.358,M,36.995,M,1.1,2007*45
$PMSBATV,085348.10,2,2,5.34963,-0.64602,-24.13373,-0.000,0.000,-0.000,-161.22245,0.000*5D
$GPGGA,085348.20,3542.292981868,N,13943.288530432,E,5,05,7.32,24.358,M,36.995,M,1.2,2007*49
$PMSBATV,085348.20,2,2,5.34713,-0.64532,-24.13725,-0.000,0.000,-0.000,-161.22245,0.000*50
$GPGGA,085348.30,3542.292981865,N,13943.288530430,E,5,05,7.32,24.358,M,36.995,M,1.3,2007*46
$PMSBATV,085348.30,2,2,5.34571,-0.64574,-24.13687,0.000,0.000,-0.000,-161.22245,0.000*71
$GPGGA,085348.40,3542.292981863,N,13943.288530427,E,5,05,7.32,24.359,M,36.995,M,1.4,2007*47
$PMSBATV,085348.40,2,2,5.35032,-0.64384,-24.13755,0.000,0.000,-0.000,-161.22245,0.000*72
$GPGGA,085348.50,3542.292981855,N,13943.288530426,E,5,05,7.32,24.359,M,36.995,M,1.5,2007*43
$PMSBATV,085348.50,2,2,5.34143,-0.64896,-24.13871,0.000,0.000,-0.000,-161.22245,0.000*74
$GPGGA,085348.60,3542.292981858,N,13943.288530424,E,5,05,7.32,24.359,M,36.995,M,1.6,2007*4C
$PMSBATV,085348.60,2,2,5.34222,-0.64345,-24.14247,0.000,0.000,-0.000,-161.22245,0.000*7E
$GPGGA,085348.70,3542.292981854,N,13943.288530424,E,5,05,7.32,24.359,M,36.995,M,1.7,2007*40
$PMSBATV,085348.70,2,2,5.33703,-0.64082,-24.14554,-0.000,0.000,-0.000,-161.22245,0.000*5E
$GPGGA,085348.80,3542.292981847,N,13943.288530416,E,5,05,7.32,24.359,M,36.995,M,1.8,2007*43
$PMSBATV,085348.80,2,2,5.33497,-0.63499,-24.14552,-0.000,-0.000,-0.000,-161.22245,0.000*7D
$GPGGA,085348.90,3542.292981839,N,13943.288530414,E,5,05,7.32,24.359,M,36.995,M,1.9,2007*48
$PMSBATV,085348.90,2,2,5.33407,-0.63289,-24.14524,-0.000,0.000,-0.000,-161.22245,0.000*5E
$GPGGA,085349.00,3542.292981837,N,13943.288530404,E,5,05,7.32,24.359,M,36.995,M,2.0,2007*45
$PMSBATV,085349.00,2,2,5.33926,-0.62946,-24.14328,-0.000,-0.000,-0.000,-161.22245,0.000*76
$GPGGA,085349.10,3542.292981831,N,13943.288530401,E,5,05,7.32,24.359,M,36.995,M,2.1,2007*46
$PMSBATV,085349.10,2,2,5.33813,-0.62997,-24.14297,-0.000,-0.000,0.000,-161.22245,0.000*54
$GPGGA,085349.20,3542.292981819,N,13943.288530400,E,5,05,7.32,24.359,M,36.995,M,2.2,2007*4D
$PMSBATV,085349.20,2,2,5.33582,-0.63462,-24.14647,-0.000,-0.000,-0.000,-161.22245,0.000*70
$GPGGA,085349.30,3542.292981815,N,13943.288530394,E,5,05,7.32,24.359,M,36.995,M,2.3,2007*4B
$PMSBATV,085349.30,2,2,5.33671,-0.63141,-24.14583,0.000,-0.000,-0.000,-161.22245,0.000*5C
$GPGGA,085349.40,3542.292981809,N,13943.288530394,E,5,05,7.32,24.359,M,36.995,M,2.4,2007*46
$PMSBATV,085349.40,2,2,5.33331,-0.63077,-24.14349,-0.000,0.000,0.000,-161.22245,0.000*73
$GPGGA,085349.50,3542.292981801,N,13943.288530395,E,5,05,7.32,24.359,M,36.995,M,2.5,2007*4F
$PMSBATV,085349.50,2,2,5.33672,-0.63999,-24.14329,-0.000,0.000,0.000,-161.22245,0.000*7F
$GPGGA,085349.60,3542.292981798,N,13943.288530390,E,5,05,7.32,24.359,M,36.995,M,2.6,2007*45
$PMSBATV,085349.60,2,2,5.33897,-0.63578,-24.14367,0.000,0.000,-0.000,-161.22245,0.000*70
$GPGGA,085349.70,3542.292981792,N,13943.288530384,E,5,05,7.32,24.359,M,36.995,M,2.7,2007*4A
$PMSBATV,085349.70,2,2,5.34180,-0.63247,-24.14198,-0.000,-0.000,-0.000,-161.22245,0.000*70
$GPGGA,085349.80,3542.292981782,N,13943.288530383,E,5,05,7.32,24.359,M,36.995,M,2.8,2007*4C
$PMSBATV,085349.80,2,2,5.34507,-0.64072,-24.14259,-0.000,0.000,-0.000,-161.22245,0.000*54
$GPGGA,085349.90,3542.292981775,N,13943.288530381,E,5,05,7.32,24.359,M,36.995,M,2.9,2007*46
$PMSBATV,085349.90,2,2,5.34023,-0.64369,-24.14104,0.000,-0.000,0.000,-161.22245,0.000*79
$GPGGA,085350.00,3542.292981770,N,13943.288530378,E,5,05,7.32,24.359,M,36.995,M,3.0,2007*4C
$PMSBATV,085350.00,2,2,5.33488,-0.64685,-24.13955,-0.000,-0.000,-0.000,-161.22245,0.000*76
$GPGGA,085350.10,3542.292981765,N,13943.288530367,E,5,05,7.32,24.359,M,36.995,M,3.1,2007*46
$PMSBATV,085350.10,2,2,5.34001,-0.64749,-24.13910,-0.000,-0.000,-0.000,-161.22245,0.000*75
$GPGGA,085350.20,3542.292981760,N,13943.288530360,E,5,05,7.32,24.359,M,36.995,M,3.2,2007*44
$PMSBATV,085350.20,2,2,5.34062,-0.64930,-24.14049,-0.000,-0.000,-0.000,-161.22245,0.000*71
$GPGGA,085350.30,3542.292981764,N,13943.288530355,E,5,05,7.32,24.359,M,36.995,M,3.3,2007*46
$PMSBATV,085350.30,2,2,5.33796,-0.64596,-24.14161,0.000,0.000,-0.000,-161.22245,0.000*70
$GPGGA,085350.40,3542.292981759,N,13943.288530352,E,5,05,7.32,24.359,M,36.995,M,3.4,2007*4F
$PMSBATV,085350.40,2,2,5.34501,-0.64438,-24.14279,0.000,-0.000,-0.000,-161.22245,0.000*5E
$GPGGA,085350.50,3542.292981752,N,13943.288530352,E,5,05,7.32,24.359,M,36.995,M,3.5,2007*44
$PMSBATV,085350.50,2,2,5.34326,-0.64594,-24.14096,-0.000,0.000,-0.000,-161.22245,0.000*58
$GPGGA,085350.60,3542.292981749,N,13943.288530359,E,5,05,7.32,24.359,M,36.995,M,3.6,2007*45
$PMSBATV,085350.60,2,2,5.33925,-0.64631,-24.14494,-0.000,0.000,-0.000,-161.22245,0.000*5F
$GPGGA,085350.70,3542.292981748,N,13943.288530356,E,5,05,7.32,24.359,M,36.995,M,3.7,2007*4B
$PMSBATV,085350.70,2,2,5.34412,-0.64256,-24.14498,0.000,-0.000,-0.000,-161.22245,0.000*59
$GPGGA,085350.80,3542.292981745,N,13943.288530353,E,5,05,7.32,24.359,M,36.995,M,3.8,2007*43
$PMSBATV,085350.80,2,2,5.34091,-0.64920,-24.14733,0.000,0.000,-0.000,-161.22245,0.000*7C
$GPGGA,085350.90,3542.292981745,N,13943.288530344,E,5,05,7.32,24.359,M,36.995,M,3.9,2007*45
$PMSBATV,085350.90,2,2,5.34510,-0.64274,-24.15128,0.000,-0.000,-0.000,-161.22245,0.000*5B
$GPGGA,085351.00,3542.292981744,N,13943.288530341,E,5,05,7.32,24.359,M,36.995,M,4.0,2007*47
$PMSBATV,085351.00,2,2,5.34576,-0.64441,-24.15125,0.000,-0.000,-0.000,-161.22245,0.000*5E
$GPGGA,085351.10,3542.292981739,N,13943.288530336,E,5,05,7.32,24.359,M,36.995,M,4.1,2007*4D
$PMSBATV,085351.10,2,2,5.35017,-0.64683,-24.14987,-0.000,0.000,-0.000,-161.22245,0.000*51
$GPGGA,085351.20,3542.292981734,N,13943.288530337,E,5,05,7.32,24.359,M,36.995,M,4.2,2007*41
$PMSBATV,085351.20,2,2,5.34991,-0.64832,-24.14734,-0.000,-0.000,-0.000,-161.22245,0.000*7B
$GPGGA,085351.30,3542.292981734,N,13943.288530341,E,5,05,7.32,24.359,M,36.995,M,4.3,2007*40
$PMSBATV,085351.30,2,2,5.34635,-0.65058,-24.14618,-0.000,0.000,-0.000,-161.22245,0.000*5C
$GPGGA,085351.40,3542.292981731,N,13943.288530334,E,5,05,7.32,24.359,M,36.995,M,4.4,2007*47
$PMSBATV,085351.40,2,2,5.34724,-0.65005,-24.14970,0.000,-0.000,0.000,-161.22245,0.000*7E
$GPGGA,085351.50,3542.292981732,N,13943.288530332,E,5,05,7.32,24.359,M,36.995,M,4.5,2007*42
$PMSBATV,085351.50,2,2,5.34314,-0.65154,-24.15106,0.000,0.000,-0.000,-161.22245,0.000*75
$GPGGA,085351.60,3542.292981730,N,13943.288530330,E,5,05,7.32,24.359,M,36.995,M,4.6,2007*42
$PMSBATV,085351.60,2,2,5.34852,-0.64859,-24.14839,-0.000,-0.000,-0.000,-161.22245,0.000*7E
$GPGGA,085351.70,3542.292981721,N,13943.288530329,E,5,05,7.32,24.359,M,36.995,M,4.7,2007*4A
$PMSBATV,085351.70,2,2,5.35272,-0.65079,-24.15139,-0.000,0.000,-0.000,-161.22245,0.000*58
$GPGGA,085351.80,3542.292981719,N,13943.288530326,E,5,05,7.32,24.359,M,36.995,M,4.8,2007*4E
$PMSBATV,085351.80,2,2,5.35433,-0.64841,-24.15033,0.000,-0.000,-0.000,-161.22245,0.000*5D
$GPGGA,085351.90,3542.292981716,N,13943.288530320,E,5,05,7.32,24.359,M,36.995,M,4.9,2007*47
$PMSBATV,085351.90,2,2,5.35935,-0.65328,-24.15241,0.000,-0.000,-0.000,-161.22245,0.000*55
$GPGGA,085352.00,3542.292981718,N,13943.288530322,E,5,05,7.32,24.359,M,36.995,M,5.0,2007*49
$PMSBATV,085352.00,2,2,5.36066,-0.65233,-24.15309,0.000,0.000,-0.000,-161.22245,0.000*78
$GPGGA,085352.10,3542.292981714,N,13943.288530319,E,5,05,7.32,24.359,M,36.995,M,5.1,2007*4D
$PMSBATV,085352.10,2,2,5.36332,-0.65229,-24.14941,-0.000,-0.000,-0.000,-161.22245,0.000*77
$GPGGA,085352.20,3542.292981714,N,13943.288530318,E,5,05,7.32,24.359,M,36.995,M,5.2,2007*4C
$PMSBATV,085352.20,2,2,5.36159,-0.64902,-24.14933,0.000,-0.000,-0.000,-161.22245,0.000*50
$GPGGA,085352.30,3542.292981713,N,13943.288530318,E,5,05,7.32,24.359,M,36.995,M,5.3,2007*4B
$PMSBATV,085352.30,2,2,5.34978,-0.65087,-24.15016,0.000,0.000,-0.000,-161.22245,0.000*7F
$GPGGA,085352.40,3542.292981708,N,13943.288530317,E,5,05,7.32,24.359,M,36.995,M,5.4,2007*4E
$PMSBATV,085352.40,2,2,5.34663,-0.64998,-24.15117,-0.000,0.000,0.000,-161.22245,0.000*7B
$GPGGA,085352.50,3542.292981710,N,13943.288530319,E,5,05,7.32,24.359,M,36.995,M,5.5,2007*49
$PMSBATV,085352.50,2,2,5.34546,-0.64947,-24.14871,-0.000,0.000,0.000,-161.22245,0.000*74
$GPGGA,085352.60,3542.292981706,N,13943.288530320,E,5,05,7.32,24.359,M,36.995,M,5.6,2007*44
$PMSBATV,085352.60,2,2,5.34269,-0.64616,-24.14974,-0.000,0.000,-0.000,-161.22245,0.000*5F
$GPGGA,085352.70,3542.292981702,N,13943.288530321,E,5,05,7.31,24.359,M,36.995,M,5.7,2007*42
$PMSBATV,085352.70,2,2,5.34206,-0.64534,-24.14595,-0.000,0.000,0.000,-161.22245,0.000*7A
$GPGGA,085352.80,3542.292981704,N,13943.288530322,E,5,05,7.31,24.359,M,36.995,M,5.8,2007*47
$PMSBATV,085352.80,2,2,5.34592,-0.64435,-24.14856,-0.000,-0.000,-0.000,-161.22245,0.000*7D
$GPGGA,085352.90,3542.292981711,N,13943.288530323,E,5,05,7.31,24.359,M,36.995,M,5.9,2007*42
$PMSBATV,085352.90,2,2,5.33969,-0.64119,-24.15103,-0.000,-0.000,-0.000,-161.22245,0.000*70
$GPGGA,085353.00,3542.292981710,N,13943.288530317,E,5,05,7.31,24.359,M,36.995,M,6.0,2007*46
$PMSBATV,085353.00,2,2,5.34090,-0.64208,-24.14760,-0.000,-0.000,-0.000,-161.22245,0.000*71
$GPGGA,085353.10,3542.292981711,N,13943.288530317,E,5,05,7.31,24.359,M,36.995,M,1.1,2007*40
$PMSBATV,085353.10,2,2,5.34413,-0.63896,-24.15030,0.000,-0.000,0.000,-161.22245,0.000*76
$GPGGA,085353.20,3542.292981709,N,13943.288530318,E,5,05,7.31,24.359,M,36.995,M,1.2,2007*46
$PMSBATV,085353.20,2,2,5.34243,-0.64263,-24.15016,-0.000,0.000,0.000,-161.22245,0.000*75
$GPGGA,085353.30,3542.292981713,N,13943.288530313,E,5,05,7.31,24.359,M,36.995,M,1.3,2007*46
$PMSBATV,085353.30,2,2,5.35561,-0.64393,-24.15310,-0.000,-0.000,-0.000,-161.22245,0.000*79
$GPGGA,085353.40,3542.292981710,N,13943.288530314,E,5,05,7.31,24.359,M,36.995,M,1.4,2007*42
$PMSBATV,085353.40,2,2,5.35398,-0.64582,-24.15320,-0.000,0.000,-0.000,-161.22245,0.000*56
$GPGGA,085353.50,3542.292981712,N,13943.288530314,E,5,05,7.31,24.359,M,36.995,M,1.5,2007*40
$PMSBATV,085353.50,2,2,5.35339,-0.64514,-24.15358,-0.000,0.000,0.000,-161.22245,0.000*71
$GPGGA,085353.60,3542.292981715,N,13943.288530314,E,5,05,7.31,24.359,M,36.995,M,1.6,2007*47
$PMSBATV,085353.60,2,2,5.35332,-0.64257,-24.15097,0.000,0.000,0.000,-161.22245,0.000*54
$GPGGA,085353.70,3542.292981717,N,13943.288530311,E,5,05,7.31,24.359,M,36.995,M,1.7,2007*40
$PMSBATV,085353.70,2,2,5.35644,-0.64163,-24.15410,-0.000,-0.000,-0.000,-161.22245,0.000*73
$GPGGA,085353.80,3542.292981711,N,13943.288530317,E,5,05,7.31,24.359,M,36.995,M,1.8,2007*40
$PMSBATV,085353.80,2,2,5.35377,-0.64683,-24.15102,-0.000,-0.000,-0.000,-161.22245,0.000*76
$GPGGA,085353.90,3542.292981717,N,13943.288530314,E,5,05,7.31,24.359,M,36.995,M,1.9,2007*45
$PMSBATV,085353.90,2,2,5.34950,-0.64461,-24.14535,0.000,-0.000,-0.000,-161.22245,0.000*5B
$GPGGA,085354.00,3542.292981713,N,13943.288530315,E,5,05,7.31,24.359,M,36.995,M,2.0,2007*44
$PMSBATV,085354.00,2,2,5.34717,-0.65063,-24.14441,-0.000,-0.000,0.000,-161.22245,0.000*5D
$GPGGA,085354.10,3542.292981709,N,13943.288530312,E,5,05,7.31,24.359,M,36.995,M,2.1,2007*48
$PMSBATV,085354.10,2,2,5.34816,-0.65538,-24.14625,-0.000,-0.000,0.000,-161.22245,0.000*59
$GPGGA,085354.20,3542.292981707,N,13943.288530307,E,5,05,7.31,24.359,M,36.995,M,2.2,2007*42
$PMSBATV,085354.20,2,2,5.35208,-0.65232,-24.14777,0.000,-0.000,0.000,-161.22245,0.000*78
$GPGGA,085354.30,3542.292981706,N,13943.288530313,E,5,05,7.31,24.359,M,36.995,M,2.3,2007*46
$PMSBATV,085354.30,2,2,5.34673,-0.65488,-24.14846,-0.000,0.000,-0.000,-161.22245,0.000*57
$GPGGA,085354.40,3542.292981696,N,13943.288530311,E,5,05,7.31,24.359,M,36.995,M,2.4,2007*4C
$PMSBATV,085354.40,2,2,5.34724,-0.65797,-24.14765,-0.000,-0.000,0.000,-161.22245,0.000*50
$GPGGA,085354.50,3542.292981698,N,13943.288530308,E,5,05,7.31,24.359,M,36.995,M,2.5,2007*4A
$PMSBATV,085354.50,2,2,5.34842,-0.65568,-24.14680,0.000,0.000,0.000,-161.22245,0.000*56
$GPGGA,085354.60,3542.292981702,N,13943.288530308,E,5,05,7.31,24.359,M,36.995,M,2.6,2007*48
$PMSBATV,085354.60,2,2,5.34755,-0.66094,-24.14499,0.000,-0.000,0.000,-161.22245,0.000*7E
$GPGGA,085354.70,3542.292981696,N,13943.288530307,E,5,05,7.31,24.359,M,36.995,M,2.7,2007*4B
$PMSBATV,085354.70,2,2,5.35378,-0.66442,-24.14151,-0.000,0.000,-0.000,-161.22245,0.000*56
$GPGGA,085354.80,3542.292981697,N,13943.288530305,E,5,05,7.31,24.359,M,36.995,M,2.8,2007*48
$PMSBATV,085354.80,2,2,5.35199,-0.66667,-24.13974,0.000,0.000,-0.000,-161.22245,0.000*74
$GPGGA,085354.90,3542.292981702,N,13943.288530305,E,5,05,7.31,24.359,M,36.995,M,2.9,2007*45
$PMSBATV,085354.90,2,2,5.35143,-0.66554,-24.14043,0.000,0.000,-0.000,-161.22245,0.000*7B
$GPGGA,085355.00,3542.292981708,N,13943.288530304,E,5,05,7.31,24.359,M,36.995,M,3.0,2007*4E
$PMSBATV,085355.00,2,2,5.34689,-0.66395,-24.13925,0.000,0.000,-0.000,-161.22245,0.000*76
$GPGGA,085355.10,3542.292981705,N,13943.288530306,E,5,05,7.31,24.359,M,36.995,M,3.1,2007*41
$PMSBATV,085355.10,2,2,5.34140,-0.66355,-24.13980,0.000,0.000,-0.000,-161.22245,0.000*76
$GPGGA,085355.20,3542.292981701,N,13943.288530307,E,5,05,7.31,24.359,M,36.995,M,3.2,2007*44
$PMSBATV,085355.20,2,2,5.34407,-0.66593,-24.13643,0.000,0.000,-0.000,-161.22245,0.000*7F
$GPGGA,085355.30,3542.292981695,N,13943.288530308,E,5,05,7.31,24.359,M,36.995,M,3.3,2007*47
$PMSBATV,085355.30,2,2,5.35081,-0.66906,-24.14035,-0.000,0.000,-0.000,-161.22245,0.000*58
$GPGGA,085355.40,3542.292981692,N,13943.288530303,E,5,05,7.31,24.359,M,36.995,M,3.4,2007*4B
$PMSBATV,085355.40,2,2,5.34681,-0.66113,-24.13723,-0.000,-0.000,0.000,-161.22245,0.000*53
$GPGGA,085355.50,3542.292981687,N,13943.288530299,E,5,05,7.31,24.359,M,36.995,M,3.5,2007*4D
$PMSBATV,085355.50,2,2,5.34236,-0.66761,-24.13638,0.000,-0.000,0.000,-161.22245,0.000*7F
$GPGGA,085355.60,3542.292981682,N,13943.288530299,E,5,05,7.31,24.359,M,36.995,M,3.6,2007*48
$PMSBATV,085355.60,2,2,5.34370,-0.67118,-24.13500,-0.000,-0.000,-0.000,-161.22245,0.000*7E
$GPGGA,085355.70,3542.292981684,N,13943.288530294,E,5,05,7.31,24.359,M,36.995,M,3.7,2007*43
$PMSBATV,085355.70,2,2,5.34236,-0.67200,-24.13721,0.000,-0.000,0.000,-161.22245,0.000*77
$GPGGA,085355.80,3542.292981681,N,13943.288530290,E,5,05,7.31,24.359,M,36.995,M,3.8,2007*42
$PMSBATV,085355.80,2,2,5.33838,-0.66939,-24.13518,0.000,-0.000,0.000,-161.22245,0.000*73
$GPGGA,085355.90,3542.292981678,N,13943.288530293,E,5,05,7.31,24.359,M,36.995,M,3.9,2007*47
$PMSBATV,085355.90,2,2,5.33882,-0.66730,-24.13944,0.000,-0.000,-0.000,-161.22245,0.000*5C
$GPGGA,085356.00,3542.292981676,N,13943.288530289,E,5,05,7.31,24.359,M,36.995,M,4.0,2007*46
$PMSBATV,085356.00,2,2,5.34523,-0.66451,-24.14549,-0.000,-0.000,-0.000,-161.22245,0.000*78
$GPGGA,085356.10,3542.292981676,N,13943.288530289,E,5,07,2.63,24.359,M,36.995,M,4.1,2007*46
$PMSBATV,085356.10,2,2,5.33876,-0.66681,-24.13997,-0.000,0.000,-0.000,-161.22245,0.000*59
$GPGGA,085356.20,3542.292981673,N,13943.288530285,E,5,07,2.63,24.359,M,36.995,M,4.2,2007*4F
$PMSBATV,085356.20,2,2,5.34441,-0.66745,-24.13516,-0.000,-0.000,-0.000,-161.22245,0.000*74
$GPGGA,085356.30,3542.292981676,N,13943.288530281,E,5,05,7.31,24.359,M,36.995,M,4.3,2007*4E
$PMSBATV,085356.30,2,2,5.34450,-0.66836,-24.14115,0.000,0.000,-0.000,-161.22245,0.000*7E
$GPGGA,085356.40,3542.292981671,N,13943.288530273,E,5,05,7.31,24.359,M,36.995,M,4.4,2007*44
$PMSBATV,085356.40,2,2,5.35115,-0.66779,-24.13966,0.000,-0.000,-0.000,-161.22245,0.000*5E
$GPGGA,085356.50,3542.292981665,N,13943.288530270,E,5,05,7.31,24.359,M,36.995,M,4.5,2007*42
$PMSBATV,085356.50,2,2,5.35115,-0.66802,-24.14246,-0.000,0.000,-0.000,-161.22245,0.000*52
$GPGGA,085356.60,3542.292981659,N,13943.288530276,E,5,05,7.31,24.359,M,36.995,M,4.6,2007*4B
$PMSBATV,085356.60,2,2,5.35187,-0.66546,-24.14348,-0.000,0.000,-0.000,-161.22245,0.000*58
$GPGGA,085356.70,3542.292981659,N,13943.288530270,E,5,05,7.31,24.359,M,36.995,M,4.7,2007*4D
$PMSBATV,085356.70,2,2,5.35563,-0.66342,-24.14743,0.000,-0.000,-0.000,-161.22245,0.000*5A
$GPGGA,085356.80,3542.292981660,N,13943.288530270,E,5,05,7.31,24.359,M,36.995,M,4.8,2007*47
$PMSBATV,085356.80,2,2,5.35103,-0.65742,-24.14423,-0.000,0.000,-0.000,-161.22245,0.000*55
$GPGGA,085356.90,3542.292981661,N,13943.288530269,E,5,05,7.31,24.359,M,36.995,M,4.9,2007*4E
$PMSBATV,085356.90,2,2,5.34859,-0.65479,-24.14705,0.000,0.000,-0.000,-161.22245,0.000*72
$GPGGA,085357.00,3542.292981657,N,13943.288530269,E,5,05,7.31,24.359,M,36.995,M,5.0,2007*4B
$PMSBATV,085357.00,2,2,5.34717,-0.65842,-24.14138,-0.000,-0.000,-0.000,-161.22245,0.000*73
$GPGGA,085357.10,3542.292981658,N,13943.288530267,E,5,05,7.31,24.359,M,36.995,M,5.1,2007*4A
$PMSBATV,085357.10,2,2,5.34274,-0.65324,-24.14368,0.000,-0.000,-0.000,-161.22245,0.000*53
$GPGGA,085357.20,3542.292981656,N,13943.288530268,E,5,05,7.31,24.359,M,36.995,M,5.2,2007*4B
$PMSBATV,085357.20,2,2,5.34477,-0.65439,-24.14488,-0.000,0.000,-0.000,-161.22245,0.000*57
$GPGGA,085357.30,3542.292981652,N,13943.288530264,E,5,05,7.31,24.359,M,36.995,M,5.3,2007*43
$PMSBATV,085357.30,2,2,5.34688,-0.65401,-24.14451,-0.000,-0.000,-0.000,-161.22245,0.000*76
$GPGGA,085357.40,3542.292981646,N,13943.288530260,E,5,05,7.31,24.359,M,36.995,M,5.4,2007*42
$PMSBATV,085357.40,2,2,5.35101,-0.65745,-24.14088,-0.000,-0.000,0.000,-161.22245,0.000*58
$GPGGA,085357.50,3542.292981643,N,13943.288530254,E,5,05,7.31,24.359,M,36.995,M,5.5,2007*40
$PMSBATV,085357.50,2,2,5.35092,-0.65527,-24.14723,-0.000,-0.000,-0.000,-161.22245,0.000*7F
$GPGGA,085357.60,3542.292981642,N,13943.288530257,E,5,05,7.31,24.359,M,36.995,M,5.6,2007*42
$PMSBATV,085357.60,2,2,5.34707,-0.65206,-24.14898,-0.000,0.000,0.000,-161.22245,0.000*7D
$GPGGA,085357.70,3542.292981640,N,13943.288530257,E,5,05,7.31,24.359,M,36.995,M,5.7,2007*40
$PMSBATV,085357.70,2,2,5.34633,-0.64860,-24.14846,-0.000,-0.000,-0.000,-161.22245,0.000*72
$GPGGA,085357.80,3542.292981641,N,13943.288530254,E,5,05,7.31,24.359,M,36.995,M,5.8,2007*42
$PMSBATV,085357.80,2,2,5.34021,-0.64739,-24.14851,0.000,0.000,0.000,-161.22245,0.000*50
$GPGGA,085357.90,3542.292981636,N,13943.288530251,E,5,05,7.31,24.359,M,36.995,M,5.9,2007*47
$PMSBATV,085357.90,2,2,5.33819,-0.64700,-24.14474,-0.000,0.000,-0.000,-161.22245,0.000*54
$GPGGA,085358.00,3542.292981637,N,13943.288530258,E,5,05,7.31,24.359,M,36.995,M,6.0,2007*43
$PMSBATV,085358.00,2,2,5.33837,-0.64340,-24.14593,0.000,0.000,-0.000,-161.22245,0.000*7B
$GPGGA,085358.10,3542.292981626,N,13943.288530255,E,5,05,7.31,24.359,M,36.995,M,1.1,2007*49
$PMSBATV,085358.10,2,2,5.33833,-0.64842,-24.14413,-0.000,-0.000,-0.000,-161.22245,0.000*7E
$GPGGA,085358.20,3542.292981622,N,13943.288530253,E,5,05,7.31,24.359,M,36.995,M,1.2,2007*4B
$PMSBATV,085358.20,2,2,5.33515,-0.65330,-24.14374,-0.000,0.000,-0.000,-161.22245,0.000*50
$GPGGA,085358.30,3542.292981621,N,13943.288530244,E,5,05,7.31,24.359,M,36.995,M,1.3,2007*4E
$PMSBATV,085358.30,2,2,5.34218,-0.64831,-24.14850,0.000,-0.000,-0.000,-161.22245,0.000*5A
$GPGGA,085358.40,3542.292981620,N,13943.288530239,E,5,05,7.31,24.359,M,36.995,M,1.4,2007*45
$PMSBATV,085358.40,2,2,5.33961,-0.65131,-24.15107,-0.000,0.000,-0.000,-161.22245,0.000*5D
$GPGGA,085358.50,3542.292981621,N,13943.288530241,E,5,05,7.31,24.359,M,36.995,M,1.5,2007*4B
$PMSBATV,085358.50,2,2,5.33104,-0.65144,-24.15106,0.000,0.000,-0.000,-161.22245,0.000*79
$GPGGA,085358.60,3542.292981627,N,13943.288530237,E,5,05,7.31,24.359,M,36.995,M,1.6,2007*4C
$PMSBATV,085358.60,2,2,5.33228,-0.64602,-24.15424,0.000,-0.000,-0.000,-161.22245,0.000*5B
$GPGGA,085358.70,3542.292981625,N,13943.288530229,E,5,05,7.31,24.359,M,36.995,M,1.7,2007*41
$PMSBATV,085358.70,2,2,5.33483,-0.64735,-24.15509,-0.000,-0.000,-0.000,-161.22245,0.000*7B
$GPGGA,085358.80,3542.292981623,N,13943.288530228,E,5,05,7.31,24.359,M,36.995,M,1.8,2007*46
$PMSBATV,085358.80,2,2,5.33315,-0.65081,-24.15709,-0.000,-0.000,-0.000,-161.22245,0.000*77
$GPGGA,085358.90,3542.292981620,N,13943.288530229,E,5,05,7.31,24.359,M,36.995,M,1.9,2007*44
$PMSBATV,085358.90,2,2,5.33341,-0.65028,-24.15602,-0.000,0.000,-0.000,-161.22245,0.000*53
$GPGGA,085359.00,3542.292981615,N,13943.288530226,E,5,05,7.31,24.359,M,36.995,M,2.0,2007*4F
$PMSBATV,085359.00,2,2,5.33198,-0.65002,-24.15543,-0.000,-0.000,-0.000,-161.22245,0.000*7E
$GPGGA,085359.10,3542.292981609,N,13943.288530223,E,5,05,7.31,24.359,M,36.995,M,2.1,2007*47
$PMSBATV,085359.10,2,2,5.32807,-0.65424,-24.15606,-0.000,-0.000,-0.000,-161.22245,0.000*73
$GPGGA,085359.20,3542.292981605,N,13943.288530221,E,5,05,7.31,24.359,M,36.995,M,2.2,2007*49
$PMSBATV,085359.20,2,2,5.33341,-0.65513,-24.15179,0.000,0.000,-0.000,-161.22245,0.000*72
$GPGGA,085359.30,3542.292981603,N,13943.288530214,E,5,05,7.31,24.359,M,36.995,M,2.3,2007*49
$PMSBATV,085359.30,2,2,5.33596,-0.65222,-24.14830,-0.000,0.000,-0.000,-161.22245,0.000*52
$GPGGA,085359.40,3542.292981612,N,13943.288530212,E,5,05,7.31,24.359,M,36.995,M,2.4,2007*4F
$PMSBATV,085359.40,2,2,5.33437,-0.65124,-24.14840,0.000,-0.000,0.000,-161.22245,0.000*70
