$GPGGA,102019.70,3542.304948978,N,13943.278486975,E,4,13,0.86,24.901,M,36.997,M,2.7,4107*48
$GPGGA,102019.80,3542.304948922,N,13943.278486990,E,4,13,0.86,24.901,M,36.997,M,2.8,4107*4C
$GPGGA,102019.90,3542.304949091,N,13943.278487118,E,4,13,0.86,24.901,M,36.997,M,2.9,4107*45
$GPGGA,102020.00,3542.304949218,N,13943.278487240,E,4,13,0.86,24.900,M,36.997,M,3.0,4107*42
$GPGGA,102020.10,3542.304949230,N,13943.278487372,E,4,13,0.86,24.900,M,36.997,M,3.1,4107*48
$GPGGA,102020.20,3542.304949294,N,13943.278487368,E,4,13,0.86,24.900,M,36.997,M,3.2,4107*4D
$GPGGA,102020.30,3542.304949305,N,13943.278487446,E,4,13,0.86,24.900,M,36.997,M,3.3,4107*4F
$GPGGA,102020.40,3542.304949351,N,13943.278487502,E,5,10,1.15,24.900,M,36.997,M,3.4,4107*46
$GPGGA,102020.50,3542.304949529,N,13943.278487644,E,4,13,0.86,24.900,M,36.997,M,3.5,4107*47
$GPGGA,102020.60,3542.304949428,N,13943.278487813,E,5,10,1.15,24.899,M,36.997,M,3.6,4107*43
$GPGGA,102020.70,3542.304949483,N,13943.278487853,E,4,13,0.86,24.899,M,36.997,M,3.7,4107*4F
$GPGGA,102020.80,3542.304949387,N,13943.278487785,E,5,10,1.15,24.899,M,36.997,M,3.8,4107*41
$GPGGA,102020.90,3542.304949380,N,13943.278487775,E,4,13,0.86,24.899,M,36.997,M,3.9,4107*40
$GPGGA,102021.00,3542.304949409,N,13943.278487734,E,4,13,0.86,24.899,M,36.997,M,4.0,4107*45
$GPGGA,102021.10,3542.304949327,N,13943.278487684,E,5,10,1.15,24.899,M,36.997,M,4.1,4107*4D
$GPGGA,102021.20,3542.304949394,N,13943.278487728,E,4,13,0.86,24.899,M,36.997,M,4.2,4107*4B
$GPGGA,102021.30,3542.304949402,N,13943.278487757,E,4,13,0.86,24.899,M,36.997,M,4.3,4107*4B
$GPGGA,102021.40,3542.304949437,N,13943.278487802,E,5,10,1.15,24.898,M,36.997,M,4.4,4107*4A
$GPGGA,102021.50,3542.304949555,N,13943.278488057,E,4,13,0.86,24.898,M,36.997,M,4.5,4107*41
$GPGGA,102021.60,3542.304949507,N,13943.278488018,E,4,13,0.86,24.898,M,36.997,M,4.6,4107*4D
$GPGGA,102021.70,3542.304949385,N,13943.278488018,E,5,10,1.15,24.898,M,36.997,M,4.7,4107*48
$GPGGA,102021.80,3542.304949377,N,13943.278488017,E,4,13,0.86,24.898,M,36.997,M,4.8,4107*43
$GPGGA,102021.90,3542.304949473,N,13943.278488281,E,5,10,1.15,24.897,M,36.997,M,4.9,4107*4B
$GPGGA,102022.00,3542.304949510,N,13943.278488394,E,4,13,0.86,24.897,M,36.997,M,5.0,4107*41
$GPGGA,102022.10,3542.304949573,N,13943.278488478,E,4,13,0.86,24.897,M,36.997,M,5.1,4107*41
$GPGGA,102022.20,3542.304949525,N,13943.278488514,E,5,10,1.15,24.897,M,36.997,M,5.2,4107*40
$GPGGA,102022.30,3542.304949725,N,13943.278488616,E,4,13,0.86,24.897,M,36.997,M,5.3,4107*4A
$GPGGA,102022.40,3542.304949876,N,13943.278488705,E,5,10,1.15,24.896,M,36.997,M,5.4,4107*48
$GPGGA,102022.50,3542.304949799,N,13943.278488722,E,4,13,0.86,24.896,M,36.997,M,5.5,4107*4A
$GPGGA,102022.60,3542.304949847,N,13943.278488740,E,5,10,1.15,24.896,M,36.997,M,5.6,4107*4B
$GPGGA,102022.70,3542.304949934,N,13943.278488723,E,4,13,0.86,24.896,M,36.997,M,5.7,4107*42
$GPGGA,102022.80,3542.304949864,N,13943.278488722,E,4,13,0.86,24.896,M,36.997,M,5.8,4107*47
$GPGGA,102022.90,3542.304949931,N,13943.278488875,E,4,13,0.86,24.896,M,36.997,M,5.9,4107*4B
$GPGGA,102023.00,3542.304950135,N,13943.278488969,E,4,13,0.86,24.895,M,36.997,M,6.0,4107*42
$GPGGA,102023.10,3542.304950191,N,13943.278489036,E,4,13,0.86,24.895,M,36.997,M,6.1,4107*4E
$GPGGA,102023.20,3542.304950233,N,13943.278489065,E,5,11,1.03,24.895,M,36.997,M,1.2,4107*4B
$GPGGA,102023.30,3542.304950051,N,13943.278488942,E,5,11,1.03,24.895,M,36.997,M,1.3,4107*40
$GPGGA,102023.40,3542.304950050,N,13943.278488934,E,4,13,0.86,24.895,M,36.997,M,1.4,4107*4F
$GPGGA,102023.50,3542.304950042,N,13943.278488801,E,4,13,0.86,24.895,M,36.997,M,1.5,4107*4B
$GPGGA,102023.60,3542.304949909,N,13943.278488622,E,5,10,1.15,24.894,M,36.997,M,1.6,4107*42
$GPGGA,102023.70,3542.304949883,N,13943.278488688,E,4,13,0.86,24.894,M,36.997,M,1.7,4107*48
$GPGGA,102023.80,3542.304949790,N,13943.278488647,E,5,10,1.15,24.894,M,36.997,M,1.8,4107*4F
$GPGGA,102023.90,3542.304949803,N,13943.278488630,E,4,13,0.86,24.894,M,36.997,M,1.9,4107*43
$GPGGA,102024.00,3542.304949684,N,13943.278488458,E,4,13,0.86,24.894,M,36.997,M,2.0,4107*4A
$GPGGA,102024.10,3542.304949753,N,13943.278488595,E,4,13,0.86,24.894,M,36.997,M,2.1,4107*41
$GPGGA,102024.20,3542.304949673,N,13943.278488558,E,4,13,0.86,24.894,M,36.997,M,2.2,4107*43
$GPGGA,102024.30,3542.304949692,N,13943.278488630,E,5,10,1.15,24.894,M,36.997,M,2.3,4107*48
$GPGGA,102024.40,3542.304949658,N,13943.278488743,E,4,13,0.86,24.894,M,36.997,M,2.4,4107*42
$GPGGA,102024.50,3542.304949604,N,13943.278488609,E,4,13,0.86,24.894,M,36.997,M,2.5,4107*44
$GPGGA,102024.60,3542.304949571,N,13943.278488513,E,4,13,0.86,24.894,M,36.997,M,2.6,4107*4D
$GPGGA,102024.70,3542.304949556,N,13943.278488500,E,4,13,0.86,24.894,M,36.997,M,2.7,4107*4A
$GPGGA,102024.80,3542.304949556,N,13943.278488418,E,4,13,0.86,24.894,M,36.997,M,2.8,4107*42
$GPGGA,102024.90,3542.304949520,N,13943.278488500,E,4,13,0.86,24.894,M,36.997,M,2.9,4107*4B
$GPGGA,102025.00,3542.304949481,N,13943.278488337,E,4,13,0.86,24.893,M,36.997,M,3.0,4107*44
$GPGGA,102025.10,3542.304949460,N,13943.278488478,E,4,13,0.86,24.893,M,36.997,M,3.1,4107*47
$GPGGA,102025.20,3542.304949468,N,13943.278488474,E,4,13,0.86,24.893,M,36.997,M,3.2,4107*43
$GPGGA,102025.30,3542.304949376,N,13943.278488459,E,4,13,0.86,24.893,M,36.997,M,3.3,4107*44
$GPGGA,102025.40,3542.304949344,N,13943.278488591,E,4,13,0.86,24.894,M,36.997,M,3.4,4107*47
$GPGGA,102025.50,3542.304949415,N,13943.278488568,E,5,10,1.15,24.894,M,36.997,M,3.5,4107*4B
$GPGGA,102025.60,3542.304949394,N,13943.278488625,E,4,13,0.86,24.894,M,36.997,M,3.6,4107*46
$GPGGA,102025.70,3542.304949472,N,13943.278488731,E,4,13,0.86,24.893,M,36.997,M,3.7,4107*4A
$GPGGA,102025.80,3542.304949385,N,13943.278488803,E,4,13,0.86,24.893,M,36.997,M,3.8,4107*4B
$GPGGA,102025.90,3542.304949351,N,13943.278488677,E,4,13,0.86,24.894,M,36.997,M,3.9,4107*48
$GPGGA,102026.00,3542.304949374,N,13943.278488726,E,4,13,0.86,24.893,M,36.997,M,4.0,4107*49
$GPGGA,102026.10,3542.304949327,N,13943.278488705,E,4,13,0.86,24.893,M,36.997,M,4.1,4107*4E
$GPGGA,102026.20,3542.304949232,N,13943.278488597,E,5,10,1.15,24.893,M,36.997,M,4.2,4107*4B
$GPGGA,102026.30,3542.304949183,N,13943.278488618,E,4,13,0.86,24.893,M,36.997,M,4.3,4107*4F
$GPGGA,102026.40,3542.304949099,N,13943.278488530,E,4,13,0.86,24.893,M,36.997,M,4.4,4107*4C
$GPGGA,102026.50,3542.304949111,N,13943.278488624,E,4,13,0.86,24.893,M,36.997,M,4.5,4107*4B
$GPGGA,102026.60,3542.304948961,N,13943.278488632,E,4,13,0.86,24.893,M,36.997,M,4.6,4107*42
$GPGGA,102026.70,3542.304949020,N,13943.278488760,E,4,13,0.86,24.893,M,36.997,M,4.7,4107*49
$GPGGA,102026.80,3542.304949031,N,13943.278488680,E,4,13,0.86,24.893,M,36.997,M,4.8,4107*46
$GPGGA,102026.90,3542.304948925,N,13943.278488755,E,4,13,0.86,24.893,M,36.997,M,4.9,4107*42
$GPGGA,102027.00,3542.304948929,N,13943.278488692,E,4,13,0.86,24.893,M,36.997,M,5.0,4107*44
$GPGGA,102027.10,3542.304948952,N,13943.278488695,E,5,10,1.15,24.893,M,36.997,M,5.1,4107*46
$GPGGA,102027.20,3542.304948916,N,13943.278488695,E,4,13,0.86,24.893,M,36.997,M,5.2,4107*4F
$GPGGA,102027.30,3542.304948928,N,13943.278488671,E,4,13,0.86,24.893,M,36.997,M,5.3,4107*48
$GPGGA,102027.40,3542.304948953,N,13943.278488716,E,4,13,0.86,24.892,M,36.997,M,5.4,4107*45
$GPGGA,102027.50,3542.304949128,N,13943.278488770,E,4,13,0.86,24.892,M,36.997,M,5.5,4107*40
$GPGGA,102027.60,3542.304949144,N,13943.278488686,E,4,13,0.86,24.892,M,36.997,M,5.6,4107*42
$GPGGA,102027.70,3542.304949042,N,13943.278488706,E,4,13,0.86,24.892,M,36.997,M,5.7,4107*4C
$GPGGA,102027.80,3542.304949252,N,13943.278488765,E,4,13,0.86,24.892,M,36.997,M,5.8,4107*4A
$GPGGA,102027.90,3542.304949085,N,13943.278488641,E,4,13,0.86,24.892,M,36.997,M,5.9,4107*45
$GPGGA,102028.00,3542.304949124,N,13943.278488780,E,4,13,0.86,24.892,M,36.997,M,6.0,4107*4F
$GPGGA,102028.10,3542.304949107,N,13943.278488807,E,4,13,0.86,24.892,M,36.997,M,1.1,4107*49
$GPGGA,102028.20,3542.304949082,N,13943.278488618,E,5,10,1.15,24.892,M,36.997,M,1.2,4107*4C
$GPGGA,102028.30,3542.304949073,N,13943.278488697,E,4,13,0.86,24.892,M,36.997,M,1.3,4107*4C
$GPGGA,102028.40,3542.304949040,N,13943.278488592,E,4,13,0.86,24.892,M,36.997,M,1.4,4107*4A
$GPGGA,102028.50,3542.304949089,N,13943.278488600,E,4,13,0.86,24.892,M,36.997,M,1.5,4107*47
$GPGGA,102028.60,3542.304948964,N,13943.278488536,E,4,13,0.86,24.892,M,36.997,M,1.6,4107*4A
$GPGGA,102028.70,3542.304948920,N,13943.278488430,E,4,13,0.86,24.892,M,36.997,M,1.7,4107*4D
$GPGGA,102028.80,3542.304949036,N,13943.278488478,E,4,13,0.86,24.892,M,36.997,M,1.8,4107*4E
$GPGGA,102028.90,3542.304949063,N,13943.278488450,E,4,13,0.86,24.892,M,36.997,M,1.9,4107*44
$GPGGA,102029.00,3542.304948990,N,13943.278488568,E,4,13,0.86,24.892,M,36.997,M,2.0,4107*48
$GPGGA,102029.10,3542.304949075,N,13943.278488492,E,5,10,1.15,24.892,M,36.997,M,2.1,4107*46
$GPGGA,102029.20,3542.304949021,N,13943.278488488,E,4,13,0.86,24.892,M,36.997,M,2.2,4107*45
$GPGGA,102029.30,3542.304949018,N,13943.278488561,E,4,13,0.86,24.892,M,36.997,M,2.3,4107*49
$GPGGA,102029.40,3542.304948986,N,13943.278488443,E,4,13,0.86,24.893,M,36.997,M,2.4,4107*46
$GPGGA,102029.50,3542.304949093,N,13943.278488444,E,4,13,0.86,24.893,M,36.997,M,2.5,4107*4D
$GPGGA,102029.60,3542.304949078,N,13943.278488529,E,4,13,0.86,24.893,M,36.997,M,2.6,4107*42
$GPGGA,102029.70,3542.304949198,N,13943.278488437,E,4,13,0.86,24.892,M,36.997,M,2.7,4107*42
$GPGGA,102029.80,3542.304949268,N,13943.278488495,E,4,13,0.86,24.892,M,36.997,M,2.8,4107*46
$GPGGA,102029.90,3542.304949380,N,13943.278488436,E,4,13,0.86,24.892,M,36.997,M,2.9,4107*48
$GPGGA,102030.00,3542.304949521,N,13943.278488613,E,4,13,0.86,24.893,M,36.997,M,3.0,4107*48
$GPGGA,102030.10,3542.304949506,N,13943.278488643,E,4,13,0.86,24.893,M,36.997,M,3.1,4107*48
$GPGGA,102030.20,3542.304948961,N,13943.278488815,E,4,13,0.86,24.893,M,36.997,M,3.2,4107*49
$GPGGA,102030.30,3542.304948957,N,13943.278488812,E,4,13,0.86,24.893,M,36.997,M,3.3,4107*4B
$GPGGA,102030.40,3542.304948955,N,13943.278488806,E,4,13,0.86,24.893,M,36.997,M,3.4,4107*4C
$GPGGA,102030.50,3542.304948955,N,13943.278488799,E,4,13,0.86,24.893,M,36.997,M,3.5,4107*45
$GPGGA,102030.60,3542.304948951,N,13943.278488795,E,4,13,0.86,24.893,M,36.997,M,3.6,4107*4D
$GPGGA,102030.70,3542.304948950,N,13943.278488787,E,4,13,0.86,24.893,M,36.997,M,3.7,4107*4F
$GPGGA,102030.80,3542.304948949,N,13943.278488780,E,4,13,0.86,24.893,M,36.997,M,3.8,4107*40
$GPGGA,102030.90,3542.304948948,N,13943.278488771,E,4,13,0.86,24.893,M,36.997,M,3.9,4107*4F
$GPGGA,102031.00,3542.304948946,N,13943.278488762,E,4,13,0.86,24.893,M,36.997,M,4.0,4107*45
$GPGGA,102031.10,3542.304948942,N,13943.278488756,E,4,13,0.86,24.893,M,36.997,M,4.1,4107*46
$GPGGA,102031.20,3542.304948941,N,13943.278488747,E,4,13,0.86,24.893,M,36.997,M,4.2,4107*45
$GPGGA,102031.30,3542.304948937,N,13943.278488740,E,4,13,0.86,24.893,M,36.997,M,4.3,4107*43
$GPGGA,102031.40,3542.304948932,N,13943.278488734,E,4,13,0.86,24.893,M,36.997,M,4.4,4107*45
$GPGGA,102031.50,3542.304948928,N,13943.278488726,E,4,13,0.86,24.893,M,36.997,M,4.5,4107*4D
$GPGGA,102031.60,3542.304948926,N,13943.278488715,E,4,13,0.86,24.893,M,36.997,M,4.6,4107*43
$GPGGA,102031.70,3542.304948921,N,13943.278488707,E,4,13,0.86,24.893,M,36.997,M,4.7,4107*47
$GPGGA,102031.80,3542.304948915,N,13943.278488700,E,4,13,0.86,24.893,M,36.997,M,4.8,4107*47
$GPGGA,102031.90,3542.304948912,N,13943.278488692,E,4,13,0.86,24.893,M,36.997,M,4.9,4107*4A
$GPGGA,102032.00,3542.304948909,N,13943.278488681,E,4,13,0.86,24.893,M,36.997,M,5.0,4107*40
$GPGGA,102032.10,3542.304948904,N,13943.278488672,E,4,13,0.86,24.892,M,36.997,M,5.1,4107*40
$GPGGA,102032.20,3542.304948898,N,13943.278488664,E,4,13,0.86,24.892,M,36.997,M,5.2,4107*43
$GPGGA,102032.30,3542.304948894,N,13943.278488653,E,4,13,0.86,24.892,M,36.997,M,5.3,4107*4B
$GPGGA,102032.40,3542.304948889,N,13943.278488645,E,4,13,0.86,24.892,M,36.997,M,5.4,4107*40
$GPGGA,102032.50,3542.304948881,N,13943.278488641,E,4,13,0.86,24.892,M,36.997,M,5.5,4107*4C
$GPGGA,102032.60,3542.304948876,N,13943.278488633,E,4,13,0.86,24.892,M,36.997,M,5.6,4107*41
$GPGGA,102032.70,3542.304948870,N,13943.278488625,E,4,13,0.86,24.892,M,36.997,M,5.7,4107*40
$GPGGA,102032.80,3542.304948866,N,13943.278488616,E,4,13,0.86,24.892,M,36.997,M,5.8,4107*47
$GPGGA,102032.90,3542.304948860,N,13943.278488609,E,4,13,0.86,24.892,M,36.997,M,5.9,4107*4F
$GPGGA,102033.00,3542.304948855,N,13943.278488601,E,4,13,0.86,24.892,M,36.997,M,6.0,4107*43
$GPGGA,102033.10,3542.304948849,N,13943.278488595,E,4,13,0.86,24.892,M,36.997,M,1.1,4107*47
$GPGGA,102033.20,3542.304948844,N,13943.278488586,E,4,13,0.86,24.892,M,36.997,M,1.2,4107*48
$GPGGA,102033.30,3542.304948840,N,13943.278488575,E,4,13,0.86,24.892,M,36.997,M,1.3,4107*40
$GPGGA,102033.40,3542.304948833,N,13943.278488566,E,4,13,0.86,24.892,M,36.997,M,1.4,4107*46
$GPGGA,102033.50,3542.304948825,N,13943.278488558,E,4,13,0.86,24.892,M,36.997,M,1.5,4107*4C
$GPGGA,102033.60,3542.304948818,N,13943.278488549,E,4,13,0.86,24.892,M,36.997,M,1.6,4107*42
$GPGGA,102033.70,3542.304948813,N,13943.278488538,E,4,13,0.86,24.892,M,36.997,M,1.7,4107*4F
$GPGGA,102033.80,3542.304948805,N,13943.278488530,E,4,13,0.86,24.892,M,36.997,M,1.8,4107*40
$GPGGA,102033.90,3542.304948797,N,13943.278488522,E,4,13,0.86,24.892,M,36.997,M,1.9,4107*47
$GPGGA,102034.00,3542.304948789,N,13943.278488513,E,4,13,0.86,24.892,M,36.997,M,2.0,4107*4E
$GPGGA,102034.10,3542.304948784,N,13943.278488503,E,4,13,0.86,24.892,M,36.997,M,2.1,4107*42
$GPGGA,102034.20,3542.304948777,N,13943.278488494,E,4,13,0.86,24.892,M,36.997,M,2.2,4107*41
$GPGGA,102034.30,3542.304948769,N,13943.278488485,E,4,13,0.86,24.892,M,36.997,M,2.3,4107*4E
$GPGGA,102034.40,3542.304948763,N,13943.278488473,E,4,13,0.86,24.892,M,36.997,M,2.4,4107*4D
$GPGGA,102034.50,3542.304948755,N,13943.278488465,E,4,13,0.86,24.892,M,36.997,M,2.5,4107*4F
$GPGGA,102034.60,3542.304948747,N,13943.278488453,E,4,13,0.86,24.892,M,36.997,M,2.6,4107*49
$GPGGA,102034.70,3542.304948738,N,13943.278488444,E,4,13,0.86,24.892,M,36.997,M,2.7,4107*47
$GPGGA,102034.80,3542.304948731,N,13943.278488433,E,4,13,0.86,24.892,M,36.997,M,2.8,4107*4E
$GPGGA,102034.90,3542.304948724,N,13943.278488420,E,4,13,0.86,24.892,M,36.997,M,2.9,4107*48
$GPGGA,102035.00,3542.304948719,N,13943.278488404,E,4,13,0.86,24.892,M,36.997,M,3.0,4107*40
$GPGGA,102035.10,3542.304948709,N,13943.278488394,E,4,13,0.86,24.892,M,36.997,M,3.1,4107*4F
$GPGGA,102035.20,3542.304948701,N,13943.278488384,E,4,13,0.86,24.892,M,36.997,M,3.2,4107*46
$GPGGA,102035.30,3542.304948692,N,13943.278488372,E,4,13,0.86,24.892,M,36.997,M,3.3,4107*44
$GPGGA,102035.40,3542.304948682,N,13943.278488362,E,4,13,0.86,24.892,M,36.997,M,3.4,4107*44
$GPGGA,102035.50,3542.304948675,N,13943.278488350,E,4,13,0.86,24.892,M,36.997,M,3.5,4107*4D
$GPGGA,102035.60,3542.304948669,N,13943.278488337,E,4,13,0.86,24.892,M,36.997,M,3.6,4107*41
$GPGGA,102035.70,3542.304948661,N,13943.278488327,E,4,13,0.86,24.892,M,36.997,M,3.7,4107*48
$GPGGA,102035.80,3542.304948653,N,13943.278488315,E,4,13,0.86,24.892,M,36.997,M,3.8,4107*48
$GPGGA,102035.90,3542.304948646,N,13943.278488301,E,4,13,0.86,24.892,M,36.997,M,3.9,4107*49
$GPGGA,102036.00,3542.304948639,N,13943.278488290,E,4,13,0.86,24.892,M,36.997,M,4.0,4107*4C
$GPGGA,102036.10,3542.304948632,N,13943.278488276,E,4,13,0.86,24.892,M,36.997,M,4.1,4107*4F
$GPGGA,102036.20,3542.304948627,N,13943.278488261,E,4,13,0.86,24.892,M,36.997,M,4.2,4107*4D
$GPGGA,102036.30,3542.304948620,N,13943.278488248,E,4,13,0.86,24.892,M,36.997,M,4.3,4107*41
$GPGGA,102036.40,3542.304948608,N,13943.278488240,E,4,13,0.86,24.892,M,36.997,M,4.4,4107*43
$GPGGA,102036.50,3542.304948600,N,13943.278488226,E,4,13,0.86,24.892,M,36.997,M,4.5,4107*4B
$GPGGA,102036.60,3542.304948592,N,13943.278488212,E,4,13,0.86,24.892,M,36.997,M,4.6,4107*44
$GPGGA,102036.70,3542.304948579,N,13943.278488204,E,4,13,0.86,24.892,M,36.997,M,4.7,4107*46
$GPGGA,102036.80,3542.304948573,N,13943.278488188,E,4,13,0.86,24.892,M,36.997,M,4.8,4107*4B
$GPGGA,102036.90,3542.304948565,N,13943.278488172,E,4,13,0.86,24.892,M,36.997,M,4.9,4107*49
$GPGGA,102037.00,3542.304948553,N,13943.278488162,E,4,13,0.86,24.892,M,36.997,M,5.0,4107*4D
$GPGGA,102037.10,3542.304948545,N,13943.278488146,E,4,13,0.86,24.892,M,36.997,M,5.1,4107*4C
$GPGGA,102037.20,3542.304948538,N,13943.278488129,E,4,13,0.86,24.892,M,36.997,M,5.2,4107*4F
$GPGGA,102037.30,3542.304948528,N,13943.278488115,E,4,13,0.86,24.892,M,36.997,M,5.3,4107*41
$GPGGA,102037.40,3542.304948520,N,13943.278488098,E,4,13,0.86,24.892,M,36.997,M,5.4,4107*4D
$GPGGA,102037.50,3542.304948510,N,13943.278488082,E,4,13,0.86,24.892,M,36.997,M,5.5,4107*45
$GPGGA,102037.60,3542.304948504,N,13943.278488064,E,4,13,0.86,24.892,M,36.997,M,5.6,4107*48
$GPGGA,102037.70,3542.304948496,N,13943.278488047,E,4,13,0.86,24.892,M,36.997,M,5.7,4107*43
$GPGGA,102037.80,3542.304948489,N,13943.278488028,E,4,13,0.86,24.892,M,36.997,M,5.8,4107*44
$GPGGA,102037.90,3542.304948482,N,13943.278488010,E,4,13,0.86,24.892,M,36.997,M,5.9,4107*44
$GPGGA,102038.00,3542.304948471,N,13943.278487994,E,4,13,0.86,24.892,M,36.997,M,6.0,4107*4E
$GPGGA,102038.10,3542.304948461,N,13943.278487979,E,4,13,0.86,24.892,M,36.997,M,1.1,4107*4B
$GPGGA,102038.20,3542.304948450,N,13943.278487963,E,4,14,0.77,24.892,M,36.997,M,1.2,4107*4B
$GPGGA,102038.30,3542.304948438,N,13943.278487945,E,4,14,0.77,24.892,M,36.997,M,1.3,4107*41
$GPGGA,102038.40,3542.304948426,N,13943.278487929,E,4,14,0.77,24.892,M,36.997,M,1.4,4107*44
$GPGGA,102038.50,3542.304948415,N,13943.278487910,E,4,14,0.77,24.892,M,36.997,M,1.5,4107*4E
$GPGGA,102038.60,3542.304948405,N,13943.278487890,E,4,13,0.79,24.892,M,36.997,M,1.6,4107*4F
$GPGGA,102038.70,3542.304948395,N,13943.278487867,E,4,13,0.79,24.892,M,36.997,M,1.7,4107*49
$GPGGA,102038.80,3542.304948381,N,13943.278487847,E,4,13,0.79,24.892,M,36.997,M,1.8,4107*4E
$GPGGA,102038.90,3542.304948369,N,13943.278487825,E,4,13,0.79,24.892,M,36.997,M,1.9,4107*4C
$GPGGA,102039.00,3542.304948356,N,13943.278487806,E,4,13,0.79,24.892,M,36.997,M,2.0,4107*43
$GPGGA,102039.10,3542.304948348,N,13943.278487781,E,4,13,0.79,24.892,M,36.997,M,2.1,4107*4C
$GPGGA,102039.20,3542.304948338,N,13943.278487758,E,4,13,0.79,24.892,M,36.997,M,2.2,4107*4F
$GPGGA,102039.30,3542.304948330,N,13943.278487734,E,4,13,0.79,24.892,M,36.997,M,2.3,4107*4D
$GPGGA,102039.40,3542.304948317,N,13943.278487716,E,4,13,0.79,24.892,M,36.997,M,2.4,4107*48
$GPGGA,102039.50,3542.304948305,N,13943.278487693,E,4,13,0.79,24.892,M,36.997,M,2.5,4107*47
$GPGGA,102039.60,3542.304948295,N,13943.278487671,E,4,13,0.79,24.892,M,36.997,M,2.6,4107*43
$GPGGA,102039.70,3542.304948287,N,13943.278487648,E,4,13,0.79,24.892,M,36.997,M,2.7,4107*4A
$GPGGA,102039.80,3542.304948273,N,13943.278487624,E,4,13,0.79,24.892,M,36.997,M,2.8,4107*4B
$GPGGA,102039.90,3542.304946883,N,13943.278487369,E,4,13,0.79,24.892,M,36.997,M,2.9,4107*4C
$GPGGA,102040.00,3542.304945952,N,13943.278486968,E,4,13,0.79,24.893,M,36.997,M,3.0,4107*46
$GPGGA,102040.10,3542.304945948,N,13943.278486955,E,4,13,0.79,24.893,M,36.997,M,3.1,4107*43
$GPGGA,102040.20,3542.304944777,N,13943.278487300,E,4,12,0.96,24.893,M,36.997,M,3.2,4107*4B
$GPGGA,102040.30,3542.304943924,N,13943.278486991,E,4,13,0.85,24.894,M,36.997,M,3.3,4107*43
$GPGGA,102040.40,3542.304943935,N,13943.278487019,E,4,13,0.85,24.893,M,36.997,M,3.4,4107*4C
$GPGGA,102040.50,3542.304942365,N,13943.278486220,E,4,13,0.85,24.894,M,36.997,M,3.5,4107*4C
$GPGGA,102040.60,3542.304941252,N,13943.278485377,E,4,13,0.85,24.894,M,36.997,M,3.6,4107*4A
$GPGGA,102040.70,3542.304941244,N,13943.278485409,E,4,11,1.03,24.894,M,36.997,M,3.7,4107*4E
$GPGGA,102040.80,3542.304938997,N,13943.278484355,E,4,11,1.03,24.893,M,36.997,M,3.8,4107*4D
$GPGGA,102040.90,3542.304935593,N,13943.278480210,E,4,11,1.03,24.891,M,36.997,M,3.9,4107*4E
$GPGGA,102041.00,3542.304930320,N,13943.278473205,E,5,09,1.31,24.894,M,36.997,M,4.0,4107*47
$GPGGA,102041.10,3542.304920457,N,13943.278463551,E,4,11,0.94,24.901,M,36.997,M,4.1,4107*4D
$GPGGA,102041.20,3542.304908313,N,13943.278451470,E,4,11,0.94,24.920,M,36.997,M,4.2,4107*40
$GPGGA,102041.30,3542.304894766,N,13943.278445516,E,5,09,1.31,24.931,M,36.997,M,4.3,4107*40
$GPGGA,102041.40,3542.304881942,N,13943.278435282,E,5,09,1.31,24.928,M,36.997,M,4.4,4107*49
$GPGGA,102041.50,3542.304873220,N,13943.278423917,E,5,09,1.31,24.930,M,36.997,M,4.5,4107*42
$GPGGA,102041.60,3542.304860742,N,13943.278414795,E,5,09,1.31,24.936,M,36.997,M,4.6,4107*47
$GPGGA,102041.70,3542.304847771,N,13943.278399649,E,5,09,1.31,24.936,M,36.997,M,4.7,4107*40
$GPGGA,102041.80,3542.304833524,N,13943.278385168,E,5,09,1.31,24.949,M,36.997,M,4.8,4107*40
$GPGGA,102041.90,3542.304813907,N,13943.278368878,E,4,11,1.12,24.956,M,36.997,M,4.9,4107*43
$GPGGA,102042.00,3542.304800710,N,13943.278354550,E,4,11,1.12,24.965,M,36.997,M,5.0,4107*43
$GPGGA,102042.10,3542.304784405,N,13943.278341172,E,4,10,1.15,24.975,M,36.997,M,5.1,4107*40
$GPGGA,102042.20,3542.304771014,N,13943.278322573,E,4,11,1.12,24.969,M,36.997,M,5.2,4107*45
$GPGGA,102042.30,3542.304785857,N,13943.278306721,E,4,11,1.12,24.870,M,36.997,M,5.3,4107*4B
$GPGGA,102042.40,3542.304785536,N,13943.278290767,E,5,10,1.15,24.849,M,36.997,M,5.4,4107*40
$GPGGA,102042.50,3542.304769088,N,13943.278277826,E,5,10,1.15,24.856,M,36.997,M,5.5,4107*4F
$GPGGA,102042.60,3542.304750590,N,13943.278254928,E,5,10,1.16,24.851,M,36.997,M,5.6,4107*43
$GPGGA,102042.70,3542.304733966,N,13943.278233267,E,5,10,1.16,24.840,M,36.997,M,5.7,4107*42
$GPGGA,102042.80,3542.304711480,N,13943.278213367,E,5,10,1.16,24.842,M,36.997,M,5.8,4107*46
$GPGGA,102042.90,3542.304687192,N,13943.278190207,E,5,10,1.16,24.836,M,36.997,M,5.9,4107*42
$GPGGA,102043.00,3542.304662126,N,13943.278164847,E,5,10,1.16,24.835,M,36.997,M,6.0,4107*42
$GPGGA,102043.10,3542.304641615,N,13943.278139699,E,4,12,1.08,24.848,M,36.997,M,6.1,4107*47
$GPGGA,102043.20,3542.304657197,N,13943.278110592,E,4,12,1.08,24.712,M,36.997,M,6.2,4107*4E
$GPGGA,102043.30,3542.304626322,N,13943.278095532,E,4,12,1.08,24.713,M,36.997,M,6.3,4107*43
$GPGGA,102043.40,3542.304604645,N,13943.278068788,E,4,11,1.12,24.720,M,36.997,M,6.4,4107*4E
$GPGGA,102043.50,3542.304588764,N,13943.278023706,E,5,10,1.15,24.695,M,36.997,M,6.5,4107*4A
$GPGGA,102043.60,3542.304568127,N,13943.277989239,E,5,10,1.15,24.685,M,36.997,M,6.6,4107*4B
$GPGGA,102043.70,3542.304543525,N,13943.277960937,E,5,10,1.15,24.679,M,36.997,M,6.7,4107*45
$GPGGA,102043.80,3542.304520336,N,13943.277935786,E,5,10,1.15,24.682,M,36.997,M,6.8,4107*44
$GPGGA,102043.90,3542.304487070,N,13943.277903088,E,5,10,1.15,24.677,M,36.997,M,6.9,4107*4F
$GPGGA,102044.00,3542.304456205,N,13943.277870051,E,4,10,1.15,24.668,M,36.997,M,7.0,4107*4B
$GPGGA,102044.10,3542.304444046,N,13943.277843424,E,4,09,1.19,24.595,M,36.997,M,2.1,7107*48
$GPGGA,102044.20,3542.304414029,N,13943.277815672,E,4,10,1.15,24.572,M,36.997,M,2.2,7107*4B
$GPGGA,102044.30,3542.304374997,N,13943.277799785,E,5,10,1.15,24.571,M,36.997,M,2.3,7107*46
$GPGGA,102044.40,3542.304340583,N,13943.277767706,E,4,10,1.15,24.592,M,36.997,M,2.4,7107*4E
$GPGGA,102044.50,3542.304301480,N,13943.277744445,E,4,09,1.19,24.609,M,36.997,M,2.5,7107*49
$GPGGA,102044.60,3542.304272068,N,13943.277721542,E,4,07,1.57,24.625,M,36.997,M,2.6,7107*41
$GPGGA,102044.70,3542.304236755,N,13943.277687595,E,4,08,1.34,24.663,M,36.997,M,2.7,7107*47
$GPGGA,102044.80,3542.304216404,N,13943.277648873,E,4,07,1.45,24.666,M,36.997,M,2.8,7107*48
$GPGGA,102044.90,3542.304194124,N,13943.277616992,E,4,08,1.27,24.650,M,36.997,M,2.9,7107*4D
$GPGGA,102045.00,3542.304169795,N,13943.277590190,E,4,08,1.41,24.668,M,36.997,M,3.0,7107*4F
$GPGGA,102045.10,3542.304146741,N,13943.277559028,E,4,07,1.45,24.702,M,36.997,M,3.1,7107*4A
$GPGGA,102045.20,3542.304127837,N,13943.277535677,E,4,07,1.45,24.683,M,36.997,M,3.2,7107*4D
$GPGGA,102045.30,3542.304094038,N,13943.277510497,E,4,08,1.34,24.661,M,36.997,M,3.3,7107*4D
$GPGGA,102045.40,3542.304073224,N,13943.277479902,E,4,09,1.19,24.665,M,36.997,M,3.4,7107*4E
$GPGGA,102045.50,3542.304050083,N,13943.277437195,E,4,09,1.19,24.653,M,36.997,M,3.5,7107*49
$GPGGA,102045.60,3542.304027686,N,13943.277396849,E,4,09,1.19,24.635,M,36.997,M,3.6,7107*4E
$GPGGA,102045.70,3542.303998702,N,13943.277369688,E,4,09,1.19,24.628,M,36.997,M,3.7,7107*46
$GPGGA,102045.80,3542.303980967,N,13943.277342384,E,4,09,1.19,24.588,M,36.997,M,3.8,7107*4B
$GPGGA,102045.90,3542.303960539,N,13943.277312777,E,4,09,1.19,24.596,M,36.997,M,3.9,7107*40
$GPGGA,102046.00,3542.303932139,N,13943.277285641,E,4,09,1.19,24.578,M,36.997,M,4.0,7107*4C
$GPGGA,102046.10,3542.303897463,N,13943.277255045,E,4,09,1.19,24.562,M,36.997,M,4.1,7107*4C
$GPGGA,102046.20,3542.303872207,N,13943.277223321,E,4,09,1.19,24.549,M,36.997,M,4.2,7107*4A
$GPGGA,102046.30,3542.303846855,N,13943.277185968,E,4,09,1.19,24.557,M,36.997,M,4.3,7107*47
$GPGGA,102046.40,3542.303810267,N,13943.277162078,E,4,07,1.45,24.567,M,36.997,M,4.4,7107*4A
$GPGGA,102046.50,3542.303774564,N,13943.277137309,E,4,07,1.45,24.598,M,36.997,M,4.5,7107*46
$GPGGA,102046.60,3542.303741449,N,13943.277110253,E,4,07,1.45,24.608,M,36.997,M,4.6,7107*4F
$GPGGA,102046.70,3542.303718790,N,13943.277081340,E,4,07,1.45,24.596,M,36.997,M,4.7,7107*4A
$GPGGA,102046.80,3542.303678257,N,13943.277065493,E,4,10,1.15,24.576,M,36.997,M,4.8,7107*4D
$GPGGA,102046.90,3542.303646164,N,13943.277054792,E,5,10,1.15,24.569,M,36.997,M,4.9,7107*4C
$GPGGA,102047.00,3542.303626703,N,13943.277024423,E,5,10,1.15,24.566,M,36.997,M,5.0,7107*4C
$GPGGA,102047.10,3542.303586848,N,13943.276991906,E,4,10,1.15,24.567,M,36.997,M,5.1,7107*49
$GPGGA,102047.20,3542.303548080,N,13943.276973633,E,4,10,1.15,24.542,M,36.997,M,5.2,7107*45
$GPGGA,102047.30,3542.303512275,N,13943.276957641,E,4,10,1.15,24.541,M,36.997,M,5.3,7107*42
$GPGGA,102047.40,3542.303485317,N,13943.276919394,E,4,10,1.15,24.521,M,36.997,M,5.4,7107*49
$GPGGA,102047.50,3542.303462497,N,13943.276882343,E,4,10,1.15,24.489,M,36.997,M,5.5,7107*45
$GPGGA,102047.60,3542.303414677,N,13943.276871330,E,4,10,1.15,24.550,M,36.997,M,5.6,7107*45
$GPGGA,102047.70,3542.303385917,N,13943.276841824,E,4,10,1.15,24.565,M,36.997,M,5.7,7107*48
$GPGGA,102047.80,3542.303358899,N,13943.276796505,E,4,10,1.15,24.562,M,36.997,M,5.8,7107*43
$GPGGA,102047.90,3542.303327709,N,13943.276783153,E,4,10,1.15,24.584,M,36.997,M,5.9,7107*46
$GPGGA,102048.00,3542.303293609,N,13943.276761425,E,4,10,1.15,24.598,M,36.997,M,6.0,7107*40
$GPGGA,102048.10,3542.303268054,N,13943.276738639,E,4,07,1.45,24.575,M,36.997,M,6.1,7107*49
$GPGGA,102048.20,3542.303229246,N,13943.276708956,E,4,07,1.45,24.583,M,36.997,M,6.2,7107*41
$GPGGA,102048.30,3542.303201140,N,13943.276693040,E,4,07,1.45,24.575,M,36.997,M,6.3,7107*4A
$GPGGA,102048.40,3542.303178590,N,13943.276651889,E,4,09,1.22,24.569,M,36.997,M,6.4,7107*4F
$GPGGA,102048.50,3542.303145881,N,13943.276620396,E,4,07,1.45,24.590,M,36.997,M,6.5,7107*46
$GPGGA,102048.60,3542.303106316,N,13943.276594682,E,4,08,1.37,24.558,M,36.997,M,6.6,7107*46
$GPGGA,102048.70,3542.303076326,N,13943.276565827,E,5,05,2.37,24.542,M,36.997,M,6.7,7107*48
$GPGGA,102048.80,3542.303051344,N,13943.276541644,E,4,08,1.36,24.574,M,36.997,M,6.8,7107*4F
$GPGGA,102048.90,3542.303020984,N,13943.276515830,E,4,08,1.36,24.577,M,36.997,M,6.9,7107*40
$GPGGA,102049.00,3542.302994132,N,13943.276481100,E,4,08,1.36,24.501,M,36.997,M,7.0,7107*45
$GPGGA,102049.10,3542.302961372,N,13943.276450873,E,4,08,1.36,24.506,M,36.997,M,2.1,7107*4A
$GPGGA,102049.20,3542.302936258,N,13943.276422095,E,4,08,1.36,24.510,M,36.997,M,2.2,7107*43
$GPGGA,102049.30,3542.302912624,N,13943.276399663,E,4,08,1.31,24.508,M,36.997,M,2.3,7107*4C
$GPGGA,102049.40,3542.302897326,N,13943.276363807,E,4,08,1.31,24.465,M,36.997,M,2.4,7107*44
$GPGGA,102049.50,3542.302873609,N,13943.276339912,E,4,09,1.20,24.486,M,36.997,M,2.5,7107*40
$GPGGA,102049.60,3542.302849760,N,13943.276312274,E,4,09,1.20,24.446,M,36.997,M,2.6,7107*49
$GPGGA,102049.70,3542.302816129,N,13943.276285221,E,4,08,1.31,24.470,M,36.997,M,2.7,7107*43
$GPGGA,102049.80,3542.302786451,N,13943.276261939,E,4,09,1.12,24.500,M,36.997,M,2.8,7107*41
$GPGGA,102049.90,3542.302749237,N,13943.276240305,E,4,09,1.18,24.511,M,36.997,M,2.9,7107*48
$GPGGA,102050.00,3542.302714571,N,13943.276219282,E,4,09,1.24,24.531,M,36.997,M,3.0,7107*43
$GPGGA,102050.10,3542.302681749,N,13943.276197107,E,4,08,1.31,24.527,M,36.997,M,3.1,7107*4E
$GPGGA,102050.20,3542.302642313,N,13943.276164700,E,4,08,1.31,24.498,M,36.997,M,3.2,7107*42
$GPGGA,102050.30,3542.302579103,N,13943.276101045,E,4,08,1.31,24.519,M,36.997,M,3.3,7107*47
$GPGGA,102050.40,3542.302546494,N,13943.276075079,E,4,08,1.31,24.516,M,36.997,M,3.4,7107*42
$GPGGA,102050.50,3542.302541411,N,13943.276050272,E,4,08,1.31,24.503,M,36.997,M,3.5,7107*42
$GPGGA,102050.60,3542.302527864,N,13943.276025008,E,4,08,1.31,24.508,M,36.997,M,3.6,7107*4A
$GPGGA,102050.70,3542.302503848,N,13943.275994504,E,4,09,1.18,24.507,M,36.997,M,3.7,7107*4E
$GPGGA,102050.80,3542.302475147,N,13943.275963718,E,4,09,1.18,24.495,M,36.997,M,3.8,7107*45
$GPGGA,102050.90,3542.302452901,N,13943.275943527,E,4,08,1.31,24.496,M,36.997,M,3.9,7107*4F
$GPGGA,102051.00,3542.302418619,N,13943.275960352,E,4,09,1.24,24.489,M,36.997,M,4.0,7107*4F
$GPGGA,102051.10,3542.302392741,N,13943.275933354,E,4,08,1.31,24.492,M,36.997,M,4.1,7107*49
$GPGGA,102051.20,3542.302382942,N,13943.275909522,E,4,09,1.24,24.532,M,36.997,M,4.2,7107*45
$GPGGA,102051.30,3542.302358847,N,13943.275870471,E,4,09,1.24,24.551,M,36.997,M,4.3,7107*4B
$GPGGA,102051.40,3542.302311402,N,13943.275825944,E,4,10,1.13,24.529,M,36.997,M,4.4,7107*43
$GPGGA,102051.50,3542.302284714,N,13943.275808158,E,4,09,1.18,24.515,M,36.997,M,4.5,7107*4C
$GPGGA,102051.60,3542.302257617,N,13943.275790999,E,4,09,1.18,24.447,M,36.997,M,4.6,7107*4D
$GPGGA,102051.70,3542.302217745,N,13943.275760284,E,5,07,1.66,24.385,M,36.997,M,4.7,7107*48
$GPGGA,102051.80,3542.302191456,N,13943.275739690,E,5,06,1.79,24.380,M,36.997,M,4.8,7107*43
$GPGGA,102051.90,3542.302164953,N,13943.275715693,E,4,09,1.18,24.380,M,36.997,M,4.9,7107*45
$GPGGA,102052.00,3542.302133132,N,13943.275700975,E,4,08,1.31,24.362,M,36.997,M,5.0,7107*4F
$GPGGA,102052.10,3542.302094743,N,13943.275659952,E,4,08,1.31,24.290,M,36.997,M,5.1,7107*47
$GPGGA,102052.20,3542.302067993,N,13943.275649160,E,4,08,1.31,24.334,M,36.997,M,5.2,7107*4F
$GPGGA,102052.30,3542.302034485,N,13943.275622994,E,4,08,1.31,24.354,M,36.997,M,5.3,7107*4B
$GPGGA,102052.40,3542.301998320,N,13943.275601090,E,4,09,1.24,24.397,M,36.997,M,5.4,7107*49
$GPGGA,102052.50,3542.301967760,N,13943.275575955,E,4,09,1.24,24.413,M,36.997,M,5.5,7107*42
$GPGGA,102052.60,3542.301948852,N,13943.275544918,E,4,09,1.24,24.419,M,36.997,M,5.6,7107*40
$GPGGA,102052.70,3542.301926121,N,13943.275510737,E,4,09,1.24,24.471,M,36.997,M,5.7,7107*49
$GPGGA,102052.80,3542.301896665,N,13943.275491492,E,4,09,1.24,24.493,M,36.997,M,5.8,7107*4C
$GPGGA,102052.90,3542.301866119,N,13943.275474001,E,4,09,1.24,24.494,M,36.997,M,5.9,7107*4D
$GPGGA,102053.00,3542.301840492,N,13943.275449753,E,4,09,1.24,24.504,M,36.997,M,6.0,7107*4B
$GPGGA,102053.10,3542.301809534,N,13943.275426985,E,4,09,1.24,24.507,M,36.997,M,6.1,7107*44
$GPGGA,102053.20,3542.301769978,N,13943.275405252,E,4,09,1.24,24.488,M,36.997,M,6.2,7107*4F
$GPGGA,102053.30,3542.301739568,N,13943.275373596,E,4,09,1.24,24.476,M,36.997,M,6.3,7107*4F
$GPGGA,102053.40,3542.301710944,N,13943.275346335,E,4,09,1.24,24.477,M,36.997,M,6.4,7107*4E
$GPGGA,102053.50,3542.301672759,N,13943.275328773,E,4,09,1.24,24.522,M,36.997,M,6.5,7107*46
$GPGGA,102053.60,3542.301638340,N,13943.275311127,E,4,09,1.24,24.512,M,36.997,M,6.6,7107*4A
$GPGGA,102053.70,3542.301606102,N,13943.275276265,E,4,09,1.24,24.480,M,36.997,M,6.7,7107*4C
$GPGGA,102053.80,3542.301585831,N,13943.275252992,E,4,08,2.01,24.485,M,36.997,M,6.8,7107*48
$GPGGA,102053.90,3542.301554831,N,13943.275236349,E,4,08,2.01,24.503,M,36.997,M,6.9,7107*45
$GPGGA,102054.00,3542.301526503,N,13943.275200664,E,5,05,4.50,24.515,M,36.997,M,7.0,7107*4C
$GPGGA,102054.10,3542.301510348,N,13943.275169695,E,5,06,1.79,24.519,M,36.997,M,2.1,7107*46
$GPGGA,102054.20,3542.301484031,N,13943.275147484,E,5,06,1.79,24.524,M,36.997,M,2.2,7107*47
$GPGGA,102054.30,3542.301429919,N,13943.275105278,E,5,05,4.50,24.461,M,36.997,M,2.3,7107*4D
$GPGGA,102054.40,3542.301397733,N,13943.275074707,E,5,05,4.50,24.451,M,36.997,M,2.4,7107*40
$GPGGA,102054.50,3542.301372177,N,13943.275051079,E,5,05,4.50,24.461,M,36.997,M,2.5,7107*47
$GPGGA,102054.60,3542.301321006,N,13943.275004373,E,5,07,2.12,24.489,M,36.997,M,2.6,7107*4B
$GPGGA,102054.70,3542.301283398,N,13943.274976254,E,5,08,1.66,24.501,M,36.997,M,2.7,7107*41
$GPGGA,102054.80,3542.301252626,N,13943.274943052,E,5,08,1.66,24.515,M,36.997,M,2.8,7107*4A
$GPGGA,102054.90,3542.301217730,N,13943.274915501,E,5,08,1.66,24.463,M,36.997,M,2.9,7107*4D
$GPGGA,102055.00,3542.301185316,N,13943.274899234,E,5,08,1.66,24.469,M,36.997,M,3.0,7107*4B
$GPGGA,102055.10,3542.301163853,N,13943.274878814,E,5,07,1.71,24.451,M,36.997,M,3.1,7107*4C
$GPGGA,102055.20,3542.301130144,N,13943.274850204,E,5,07,1.56,24.477,M,36.997,M,3.2,7107*45
$GPGGA,102055.30,3542.301095604,N,13943.274825514,E,5,07,1.78,24.478,M,36.997,M,3.3,7107*4F
$GPGGA,102055.40,3542.301067875,N,13943.274806731,E,5,07,1.78,24.470,M,36.997,M,3.4,7107*46
$GPGGA,102055.50,3542.301037182,N,13943.274785361,E,5,07,1.78,24.448,M,36.997,M,3.5,7107*4C
$GPGGA,102055.60,3542.300997931,N,13943.274751118,E,5,06,1.81,24.457,M,36.997,M,3.6,7107*42
$GPGGA,102055.70,3542.300965017,N,13943.274730524,E,5,06,1.81,24.471,M,36.997,M,3.7,7107*4A
$GPGGA,102055.80,3542.300923809,N,13943.274712919,E,5,05,2.23,24.471,M,36.997,M,3.8,7107*45
$GPGGA,102055.90,3542.300894844,N,13943.274691726,E,5,05,2.23,24.471,M,36.997,M,3.9,7107*49
$GPGGA,102056.00,3542.300862937,N,13943.274666390,E,5,06,2.20,24.473,M,36.997,M,4.0,7107*42
$GPGGA,102056.10,3542.300835507,N,13943.274647484,E,5,05,2.69,24.460,M,36.997,M,4.1,7107*42
$GPGGA,102056.20,3542.300805175,N,13943.274628749,E,5,04,57.42,24.460,M,36.997,M,4.2,7107*73
$GPGGA,102056.30,3542.300778554,N,13943.274606417,E,5,04,57.41,24.458,M,36.997,M,4.3,7107*7D
$GPGGA,102056.40,3542.300748155,N,13943.274578837,E,5,04,57.39,24.444,M,36.997,M,4.4,7107*7D
$GPGGA,102056.50,3542.300719225,N,13943.274569739,E,5,05,4.50,24.458,M,36.997,M,4.5,7107*49
$GPGGA,102056.60,3542.300687073,N,13943.274550570,E,5,04,57.35,24.465,M,36.997,M,4.6,7107*71
$GPGGA,102056.70,3542.300663131,N,13943.274522318,E,5,04,57.34,24.458,M,36.997,M,4.7,7107*7E
$GPGGA,102056.80,3542.300636874,N,13943.274502248,E,5,04,57.32,24.465,M,36.997,M,4.8,7107*78
$GPGGA,102056.90,3542.300606791,N,13943.274484645,E,5,05,57.23,24.451,M,36.997,M,4.9,7107*7F
$GPGGA,102057.00,3542.300582929,N,13943.274465999,E,5,05,57.21,24.438,M,36.997,M,5.0,7107*71
$GPGGA,102057.10,3542.300554471,N,13943.274445265,E,5,05,57.19,24.453,M,36.997,M,5.1,7107*76
$GPGGA,102057.20,3542.300527262,N,13943.274418647,E,5,05,57.17,24.434,M,36.997,M,5.2,7107*75
$GPGGA,102057.30,3542.300510031,N,13943.274399623,E,5,05,57.16,24.444,M,36.997,M,5.3,7107*7F
$GPGGA,102057.40,3542.300465817,N,13943.274371472,E,5,07,1.21,24.463,M,36.997,M,5.4,7107*40
$GPGGA,102057.50,3542.300434758,N,13943.274346568,E,5,07,1.21,24.459,M,36.997,M,5.5,7107*47
$GPGGA,102057.60,3542.300405385,N,13943.274323171,E,4,09,0.92,24.461,M,36.997,M,5.6,7107*43
$GPGGA,102057.70,3542.300368557,N,13943.274296665,E,5,05,2.07,24.473,M,36.997,M,5.7,7107*4B
$GPGGA,102057.80,3542.300339119,N,13943.274274884,E,5,07,1.21,24.450,M,36.997,M,5.8,7107*48
$GPGGA,102057.90,3542.300316954,N,13943.274259298,E,5,06,1.98,24.436,M,36.997,M,5.9,7107*4F
$GPGGA,102058.00,3542.300289137,N,13943.274234993,E,5,06,1.98,24.421,M,36.997,M,6.0,7107*44
$GPGGA,102058.10,3542.300264181,N,13943.274222433,E,5,06,2.03,24.404,M,36.997,M,6.1,7107*4C
$GPGGA,102058.20,3542.300237091,N,13943.274204244,E,5,06,2.03,24.397,M,36.997,M,6.2,7107*45
$GPGGA,102058.30,3542.300206215,N,13943.274180863,E,5,06,2.03,24.391,M,36.997,M,6.3,7107*4F
$GPGGA,102058.40,3542.300179514,N,13943.274159289,E,5,06,2.03,24.389,M,36.997,M,6.4,7107*41
$GPGGA,102058.50,3542.300142900,N,13943.274131927,E,5,06,2.03,24.391,M,36.997,M,6.5,7107*48
$GPGGA,102058.60,3542.300108617,N,13943.274104343,E,5,06,2.03,24.408,M,36.997,M,6.6,7107*46
$GPGGA,102058.70,3542.300083888,N,13943.274087854,E,5,06,2.03,24.412,M,36.997,M,6.7,7107*40
$GPGGA,102058.80,3542.300055264,N,13943.274064274,E,5,05,56.89,24.415,M,36.997,M,6.8,7107*71
$GPGGA,102058.90,3542.300026219,N,13943.274041065,E,5,04,56.96,24.421,M,36.997,M,6.9,7107*72
$GPGGA,102059.00,3542.299999501,N,13943.274019633,E,5,04,56.94,24.424,M,36.997,M,7.0,7107*7F
$GPGGA,102059.10,3542.299966453,N,13943.273994921,E,5,03,99.90,24.425,M,36.997,M,7.1,7107*7F
$GPGGA,102059.20,3542.299940798,N,13943.273980370,E,5,04,6.03,24.406,M,36.997,M,7.2,7107*4E
$GPGGA,102059.30,3542.299904981,N,13943.273944935,E,5,04,6.03,24.436,M,36.997,M,7.3,7107*48
$GPGGA,102059.40,3542.299866519,N,13943.273920004,E,5,04,6.03,24.430,M,36.997,M,7.4,7107*4F
$GPGGA,102059.50,3542.299843940,N,13943.273900893,E,5,05,56.77,24.431,M,36.997,M,7.5,7107*7A
$GPGGA,102059.60,3542.299812254,N,13943.273876336,E,5,05,56.75,24.431,M,36.997,M,7.6,7107*76
$GPGGA,102059.70,3542.299779920,N,13943.273846032,E,5,05,56.74,24.446,M,36.997,M,7.7,7107*79
$GPGGA,102059.80,3542.299743735,N,13943.273826493,E,5,04,56.80,24.487,M,36.997,M,7.8,7107*74
$GPGGA,102059.90,3542.299707866,N,13943.273798767,E,5,04,56.78,24.505,M,36.997,M,7.9,7107*73
$GPGGA,102100.00,3542.299676024,N,13943.273770864,E,5,03,99.90,24.496,M,36.997,M,8.0,7107*7B
$GPGGA,102100.10,3542.299644944,N,13943.273743475,E,5,03,99.90,24.501,M,36.997,M,8.1,7107*76
$GPGGA,102100.20,3542.299600161,N,13943.273722856,E,5,04,56.73,24.497,M,36.997,M,8.2,7107*74
$GPGGA,102100.30,3542.299570101,N,13943.273693408,E,5,03,99.90,24.509,M,36.997,M,8.3,7107*75
$GPGGA,102100.40,3542.299535751,N,13943.273663948,E,5,04,56.70,24.505,M,36.997,M,8.4,7107*77
$GPGGA,102100.50,3542.299503956,N,13943.273640531,E,5,04,56.68,24.497,M,36.997,M,8.5,7107*7B
$GPGGA,102100.60,3542.299502608,N,13943.273639670,E,5,05,2.25,24.395,M,36.997,M,8.6,7107*4A
$GPGGA,102100.70,3542.299472992,N,13943.273621145,E,5,05,2.25,24.394,M,36.997,M,8.7,7107*49
$GPGGA,102100.80,3542.299446069,N,13943.273599656,E,5,03,99.90,24.373,M,36.997,M,8.8,7107*75
$GPGGA,102100.90,3542.299415471,N,13943.273578518,E,5,05,2.25,24.389,M,36.997,M,8.9,7107*47
$GPGGA,102101.00,3542.299373388,N,13943.273533331,E,5,05,2.25,24.384,M,36.997,M,9.0,7107*4E
$GPGGA,102101.10,3542.299349151,N,13943.273507931,E,5,05,2.25,24.390,M,36.997,M,9.1,7107*49
$GPGGA,102101.20,3542.299315711,N,13943.273488150,E,5,04,56.56,24.362,M,36.997,M,9.2,7107*72
$GPGGA,102101.30,3542.299281244,N,13943.273466609,E,5,04,56.55,24.340,M,36.997,M,9.3,7107*73
$GPGGA,102101.40,3542.299251337,N,13943.273445616,E,5,04,56.53,24.333,M,36.997,M,9.4,7107*76
$GPGGA,102101.50,3542.299227904,N,13943.273427417,E,5,04,56.51,24.318,M,36.997,M,9.5,7107*71
$GPGGA,102101.60,3542.299192249,N,13943.273401796,E,5,04,56.49,24.322,M,36.997,M,9.6,7107*70
$GPGGA,102101.70,3542.299181251,N,13943.273397734,E,5,06,1.98,24.274,M,36.997,M,9.7,7107*45
$GPGGA,102101.80,3542.299148362,N,13943.273366202,E,5,05,2.11,24.269,M,36.997,M,9.8,7107*42
$GPGGA,102101.90,3542.299117540,N,13943.273347956,E,5,05,2.11,24.280,M,36.997,M,9.9,7107*40
$GPGGA,102102.00,3542.299081690,N,13943.273329341,E,5,05,2.11,24.276,M,36.997,M,10.0,7107*76
$GPGGA,102102.10,3542.299056195,N,13943.273307001,E,5,06,1.32,24.268,M,36.997,M,10.1,7107*7B
$GPGGA,102102.20,3542.299023269,N,13943.273277403,E,5,06,1.98,24.278,M,36.997,M,10.2,7107*78
$GPGGA,102102.30,3542.298994745,N,13943.273257313,E,5,06,1.98,24.276,M,36.997,M,10.3,7107*7D
$GPGGA,102102.40,3542.298962373,N,13943.273237673,E,5,06,1.98,24.285,M,36.997,M,10.4,7107*7C
$GPGGA,102102.50,3542.298922347,N,13943.273213818,E,5,04,99.90,24.298,M,36.997,M,10.5,7107*4D
$GPGGA,102102.60,3542.298902457,N,13943.273196647,E,5,04,99.90,24.261,M,36.997,M,10.6,7107*45
$GPGGA,102102.70,3542.298876875,N,13943.273165143,E,5,04,99.90,24.272,M,36.997,M,10.7,7107*46
$GPGGA,102102.80,3542.298839784,N,13943.273136501,E,5,02,99.90,24.223,M,36.997,M,10.8,7107*4A
$GPGGA,102102.90,3542.298806648,N,13943.273112791,E,5,07,1.03,24.227,M,36.997,M,10.9,7107*70
$GPGGA,102103.00,3542.298777502,N,13943.273092009,E,5,01,99.90,24.201,M,36.997,M,11.0,7107*42
$GPGGA,102103.10,3542.298752268,N,13943.273070861,E,5,04,99.90,24.207,M,36.997,M,11.1,7107*47
$GPGGA,102103.20,3542.298715231,N,13943.273047488,E,5,04,99.90,24.201,M,36.997,M,11.2,7107*41
$GPGGA,102103.30,3542.298679113,N,13943.273019973,E,5,05,2.11,24.203,M,36.997,M,11.3,7107*73
$GPGGA,102103.40,3542.298651270,N,13943.273001338,E,5,06,1.35,24.224,M,36.997,M,11.4,7107*70
$GPGGA,102103.50,3542.298620676,N,13943.272969501,E,5,05,1.97,24.202,M,36.997,M,11.5,7107*71
$GPGGA,102103.60,3542.298595028,N,13943.272956144,E,5,06,1.86,24.182,M,36.997,M,11.6,7107*70
$GPGGA,102103.70,3542.298567508,N,13943.272945469,E,5,06,1.86,24.157,M,36.997,M,11.7,7107*7A
$GPGGA,102103.80,3542.298541138,N,13943.272908623,E,5,04,2.40,24.178,M,36.997,M,11.8,7107*7A
$GPGGA,102103.90,3542.298510856,N,13943.272889978,E,5,04,2.40,24.182,M,36.997,M,11.9,7107*73
$GPGGA,102104.00,3542.298480387,N,13943.272879526,E,5,04,2.40,24.174,M,36.997,M,12.0,7107*79
$GPGGA,102104.10,3542.298443649,N,13943.272862137,E,5,05,1.97,24.181,M,36.997,M,12.1,7107*7D
$GPGGA,102104.20,3542.298432954,N,13943.272857871,E,5,04,2.74,24.164,M,36.997,M,12.2,7107*71
$GPGGA,102104.30,3542.298405078,N,13943.272831483,E,5,05,1.97,24.171,M,36.997,M,12.3,7107*78
$GPGGA,102104.40,3542.298378867,N,13943.272817077,E,5,05,1.97,24.174,M,36.997,M,12.4,7107*7D
$GPGGA,102104.50,3542.298348883,N,13943.272794258,E,5,05,1.97,24.158,M,36.997,M,12.5,7107*71
$GPGGA,102104.60,3542.298319979,N,13943.272774887,E,5,05,1.97,24.158,M,36.997,M,12.6,7107*77
$GPGGA,102104.70,3542.298283713,N,13943.272746227,E,5,05,1.97,24.147,M,36.997,M,12.7,7107*78
$GPGGA,102104.80,3542.298258197,N,13943.272726954,E,5,03,99.90,24.169,M,36.997,M,12.8,7107*41
$GPGGA,102104.90,3542.298226689,N,13943.272698992,E,5,03,99.90,24.155,M,36.997,M,12.9,7107*41
$GPGGA,102105.00,3542.298200394,N,13943.272671028,E,5,03,99.90,24.141,M,36.997,M,13.0,7107*46
$GPGGA,102105.10,3542.298161702,N,13943.272646838,E,5,02,99.90,24.166,M,36.997,M,13.1,7107*40
$GPGGA,102105.20,3542.298130516,N,13943.272628648,E,5,04,2.74,24.157,M,36.997,M,13.2,7107*7E
$GPGGA,102105.30,3542.298099803,N,13943.272612268,E,5,05,1.97,24.169,M,36.997,M,13.3,7107*78
$GPGGA,102105.40,3542.298069911,N,13943.272594033,E,5,05,1.97,24.170,M,36.997,M,13.4,7107*7C
$GPGGA,102105.50,3542.298021891,N,13943.272546192,E,5,02,99.90,24.198,M,36.997,M,13.5,7107*4B
$GPGGA,102105.60,3542.298003528,N,13943.272531054,E,5,02,99.90,24.205,M,36.997,M,13.6,7107*48
$GPGGA,102105.70,3542.297975074,N,13943.272523330,E,5,03,99.90,24.258,M,36.997,M,13.7,7107*48
$GPGGA,102105.80,3542.297946760,N,13943.272501053,E,5,03,99.90,24.267,M,36.997,M,13.8,7107*40
$GPGGA,102105.90,3542.297916895,N,13943.272473664,E,5,03,99.90,24.304,M,36.997,M,13.9,7107*42
$GPGGA,102106.00,3542.297882524,N,13943.272448161,E,5,03,99.90,24.291,M,36.997,M,14.0,7107*4A
$GPGGA,102106.10,3542.297831967,N,13943.272445752,E,5,01,99.90,24.284,M,36.997,M,14.1,7107*44
$GPGGA,102106.20,3542.297800218,N,13943.272425961,E,5,01,99.90,24.292,M,36.997,M,14.2,7107*4A
$GPGGA,102106.30,3542.297746762,N,13943.272376144,E,5,01,99.90,24.302,M,36.997,M,14.3,7107*49
$GPGGA,102106.40,3542.297711471,N,13943.272363619,E,5,02,99.90,24.318,M,36.997,M,14.4,7107*49
$GPGGA,102106.50,3542.297682362,N,13943.272345094,E,5,02,99.90,24.314,M,36.997,M,14.5,7107*4C
$GPGGA,102106.60,3542.297654650,N,13943.272327004,E,5,02,99.90,24.311,M,36.997,M,14.6,7107*4B
$GPGGA,102106.70,3542.297616878,N,13943.272299940,E,5,02,99.90,24.329,M,36.997,M,14.7,7107*4F
$GPGGA,102106.80,3542.297590029,N,13943.272270694,E,5,07,1.11,24.328,M,36.997,M,14.8,7107*73
$GPGGA,102106.90,3542.297554155,N,13943.272229551,E,5,07,1.11,24.301,M,36.997,M,14.9,7107*7C
$GPGGA,102107.00,3542.297523422,N,13943.272197931,E,5,08,0.97,24.295,M,36.997,M,15.0,7107*79
$GPGGA,102107.10,3542.297486996,N,13943.272166632,E,5,02,99.90,24.318,M,36.997,M,15.1,7107*4E
$GPGGA,102107.20,3542.297436245,N,13943.272120579,E,5,03,99.90,24.280,M,36.997,M,15.2,7107*4F
$GPGGA,102107.30,3542.297406427,N,13943.272101404,E,5,03,99.90,24.285,M,36.997,M,15.3,7107*43
$GPGGA,102107.40,3542.297381679,N,13943.272087020,E,5,04,2.65,24.298,M,36.997,M,15.4,7107*7C
$GPGGA,102107.50,3542.297337653,N,13943.272038223,E,5,04,2.65,24.268,M,36.997,M,15.5,7107*73
$GPGGA,102107.60,3542.297305864,N,13943.272017641,E,5,03,99.90,24.255,M,36.997,M,15.6,7107*44
$GPGGA,102107.70,3542.297288999,N,13943.272000627,E,5,03,99.90,24.258,M,36.997,M,15.7,7107*48
$GPGGA,102107.80,3542.297257647,N,13943.271971080,E,5,02,99.90,24.248,M,36.997,M,15.8,7107*41
$GPGGA,102107.90,3542.297232357,N,13943.271947162,E,5,03,99.90,24.245,M,36.997,M,15.9,7107*42
$GPGGA,102108.00,3542.297219147,N,13943.271940146,E,5,04,2.65,24.243,M,36.997,M,16.0,7107*7C
$GPGGA,102108.10,3542.297198807,N,13943.271926752,E,5,04,2.65,24.241,M,36.997,M,16.1,7107*7A
$GPGGA,102108.20,3542.297168717,N,13943.271886432,E,5,05,2.37,24.228,M,36.997,M,16.2,7107*7C
$GPGGA,102108.30,3542.297147603,N,13943.271862507,E,5,04,2.50,24.202,M,36.997,M,16.3,7107*70
$GPGGA,102108.40,3542.297129096,N,13943.271851681,E,5,04,2.50,24.170,M,36.997,M,16.4,7107*79
$GPGGA,102108.50,3542.297107540,N,13943.271844723,E,5,04,2.50,24.088,M,36.997,M,16.5,7107*70
$GPGGA,102108.60,3542.297069635,N,13943.271811342,E,5,05,1.97,24.100,M,36.997,M,16.6,7107*73
$GPGGA,102108.70,3542.297021334,N,13943.271743811,E,5,05,1.97,24.089,M,36.997,M,16.7,7107*7E
$GPGGA,102108.80,3542.296992918,N,13943.271699419,E,5,05,1.97,24.093,M,36.997,M,16.8,7107*73
$GPGGA,102108.90,3542.296970418,N,13943.271673147,E,5,05,1.97,24.068,M,36.997,M,16.9,7107*7C
$GPGGA,102109.00,3542.296943911,N,13943.271641085,E,5,04,15.86,24.076,M,36.997,M,17.0,7107*4D
$GPGGA,102109.10,3542.296914399,N,13943.271605499,E,5,05,1.42,24.083,M,36.997,M,2.1,7107*4E
$GPGGA,102109.20,3542.296883148,N,13943.271555046,E,5,05,1.42,24.089,M,36.997,M,2.2,7107*45
$GPGGA,102109.30,3542.296857725,N,13943.271520933,E,5,06,1.36,24.071,M,36.997,M,2.3,7107*4F
$GPGGA,102109.40,3542.296835845,N,13943.271493428,E,5,06,1.36,24.090,M,36.997,M,2.4,7107*43
$GPGGA,102109.50,3542.296798440,N,13943.271441953,E,5,06,1.77,24.081,M,36.997,M,2.5,7107*49
$GPGGA,102109.60,3542.296778345,N,13943.271412826,E,5,05,2.11,24.087,M,36.997,M,2.6,7107*46
$GPGGA,102109.70,3542.296753251,N,13943.271379193,E,5,04,3.19,24.082,M,36.997,M,2.7,7107*4B
$GPGGA,102109.80,3542.296738201,N,13943.271352997,E,5,05,2.30,24.077,M,36.997,M,2.8,7107*47
$GPGGA,102109.90,3542.296701431,N,13943.271305340,E,5,05,2.30,24.068,M,36.997,M,2.9,7107*44
$GPGGA,102110.00,3542.296655378,N,13943.271268151,E,5,05,2.30,24.081,M,36.997,M,3.0,7107*48
$GPGGA,102110.10,3542.296630550,N,13943.271243603,E,5,05,2.30,24.090,M,36.997,M,3.1,7107*4E
$GPGGA,102110.20,3542.296599037,N,13943.271191657,E,5,05,2.30,24.097,M,36.997,M,3.2,7107*40
$GPGGA,102110.30,3542.296579366,N,13943.271156065,E,5,05,2.30,24.092,M,36.997,M,3.3,7107*40
$GPGGA,102110.40,3542.296558443,N,13943.271125266,E,5,05,2.30,24.091,M,36.997,M,3.4,7107*45
$GPGGA,102110.50,3542.296534918,N,13943.271076554,E,5,05,2.30,24.082,M,36.997,M,3.5,7107*4F
$GPGGA,102110.60,3542.296515452,N,13943.271041755,E,5,05,2.30,24.098,M,36.997,M,3.6,7107*43
$GPGGA,102110.70,3542.296482015,N,13943.270991907,E,5,06,1.49,24.090,M,36.997,M,3.7,7107*41
$GPGGA,102110.80,3542.296464409,N,13943.270957085,E,5,05,2.31,24.104,M,36.997,M,3.8,7107*4A
$GPGGA,102110.90,3542.296439949,N,13943.270913306,E,5,05,2.31,24.133,M,36.997,M,3.9,7107*47
$GPGGA,102111.00,3542.296419151,N,13943.270873244,E,4,07,1.28,24.169,M,36.997,M,4.0,7107*45
$GPGGA,102111.10,3542.296399222,N,13943.270835201,E,5,06,1.49,24.184,M,36.997,M,4.1,7107*4A
$GPGGA,102111.20,3542.296381392,N,13943.270792247,E,5,06,1.49,24.191,M,36.997,M,4.2,7107*4D
$GPGGA,102111.30,3542.296353665,N,13943.270747933,E,5,06,1.49,24.195,M,36.997,M,4.3,7107*4B
$GPGGA,102111.40,3542.296322851,N,13943.270696113,E,5,06,1.49,24.221,M,36.997,M,4.4,7107*4F
$GPGGA,102111.50,3542.296278705,N,13943.270635614,E,5,06,1.49,24.237,M,36.997,M,4.5,7107*41
$GPGGA,102111.60,3542.296244598,N,13943.270585270,E,5,06,1.49,24.268,M,36.997,M,4.6,7107*4C
$GPGGA,102111.70,3542.296217103,N,13943.270533887,E,5,06,1.49,24.288,M,36.997,M,4.7,7107*4D
$GPGGA,102111.80,3542.296198185,N,13943.270494173,E,5,06,1.49,24.271,M,36.997,M,4.8,7107*4F
$GPGGA,102111.90,3542.296178833,N,13943.270454133,E,5,06,1.49,24.241,M,36.997,M,4.9,7107*4E
$GPGGA,102112.00,3542.296157741,N,13943.270409410,E,5,05,1.60,24.251,M,36.997,M,5.0,7107*4E
$GPGGA,102112.10,3542.296132221,N,13943.270353380,E,5,04,1.79,24.262,M,36.997,M,5.1,7107*41
$GPGGA,102112.20,3542.296113359,N,13943.270314920,E,5,03,99.90,24.278,M,36.997,M,5.2,7107*75
$GPGGA,102112.30,3542.296092056,N,13943.270278399,E,5,05,1.54,24.275,M,36.997,M,5.3,7107*40
$GPGGA,102112.40,3542.296078101,N,13943.270237909,E,5,05,1.54,24.276,M,36.997,M,5.4,7107*4C
$GPGGA,102112.50,3542.296072819,N,13943.270200773,E,5,04,5.15,24.262,M,36.997,M,5.5,7107*44
$GPGGA,102112.60,3542.296063071,N,13943.270168099,E,5,04,5.15,24.282,M,36.997,M,5.6,7107*42
$GPGGA,102112.70,3542.296043429,N,13943.270121100,E,5,05,3.26,24.252,M,36.997,M,5.7,7107*4F
$GPGGA,102112.80,3542.296019780,N,13943.270063985,E,5,06,2.43,24.243,M,36.997,M,5.8,7107*43
$GPGGA,102112.90,3542.296006552,N,13943.270037159,E,5,08,1.68,24.281,M,36.997,M,5.9,7107*42
$GPGGA,102113.00,3542.295985798,N,13943.269988407,E,5,08,1.68,24.275,M,36.997,M,6.0,7107*45
$GPGGA,102113.10,3542.295967515,N,13943.269942437,E,5,08,1.68,24.258,M,36.997,M,6.1,7107*44
$GPGGA,102113.20,3542.295971461,N,13943.269959574,E,5,08,1.68,24.264,M,36.997,M,6.2,7107*42
$GPGGA,102113.30,3542.295951387,N,13943.269900354,E,5,08,1.68,24.261,M,36.997,M,6.3,7107*42
$GPGGA,102113.40,3542.295933524,N,13943.269843483,E,5,08,1.68,24.261,M,36.997,M,6.4,7107*42
$GPGGA,102113.50,3542.295912543,N,13943.269795508,E,5,08,1.68,24.269,M,36.997,M,6.5,7107*4E
$GPGGA,102113.60,3542.295899970,N,13943.269768934,E,5,08,1.68,24.253,M,36.997,M,6.6,7107*48
$GPGGA,102113.70,3542.295889982,N,13943.269727147,E,5,08,1.50,24.273,M,36.997,M,6.7,7107*4A
$GPGGA,102113.80,3542.295872214,N,13943.269685141,E,5,08,1.50,24.274,M,36.997,M,6.8,7107*42
$GPGGA,102113.90,3542.295859810,N,13943.269640751,E,5,09,1.14,24.264,M,36.997,M,6.9,7107*4B
$GPGGA,102114.00,3542.295837661,N,13943.269587279,E,5,08,1.68,24.261,M,36.997,M,7.0,7107*45
$GPGGA,102114.10,3542.295823983,N,13943.269550068,E,5,09,1.44,24.259,M,36.997,M,7.1,7107*4F
$GPGGA,102114.20,3542.295811239,N,13943.269503931,E,5,09,1.44,24.247,M,36.997,M,7.2,7107*48
$GPGGA,102114.30,3542.295793983,N,13943.269458157,E,5,09,1.44,24.258,M,36.997,M,7.3,7107*4E
$GPGGA,102114.40,3542.295778141,N,13943.269412919,E,5,09,1.44,24.276,M,36.997,M,7.4,7107*4D
$GPGGA,102114.50,3542.295771172,N,13943.269363859,E,5,09,1.44,24.254,M,36.997,M,7.5,7107*40
$GPGGA,102114.60,3542.295755498,N,13943.269317143,E,5,09,1.44,24.249,M,36.997,M,7.6,7107*4A
$GPGGA,102114.70,3542.295737325,N,13943.269278430,E,5,09,1.44,24.221,M,36.997,M,7.7,7107*48
$GPGGA,102114.80,3542.295729712,N,13943.269231792,E,5,08,1.96,24.207,M,36.997,M,7.8,7107*4B
$GPGGA,102114.90,3542.295714323,N,13943.269182649,E,5,08,1.96,24.193,M,36.997,M,7.9,7107*41
$GPGGA,102115.00,3542.295702916,N,13943.269137616,E,5,09,1.36,24.204,M,36.997,M,8.0,7107*46
$GPGGA,102115.10,3542.295688468,N,13943.269097207,E,5,09,1.36,24.198,M,36.997,M,8.1,7107*48
$GPGGA,102115.20,3542.295677437,N,13943.269048570,E,5,09,1.36,24.191,M,36.997,M,8.2,7107*4E
$GPGGA,102115.30,3542.295662662,N,13943.269000308,E,5,09,1.36,24.177,M,36.997,M,8.3,7107*45
$GPGGA,102115.40,3542.295634095,N,13943.268920861,E,5,09,1.36,24.170,M,36.997,M,8.4,7107*41
$GPGGA,102115.50,3542.295612075,N,13943.268871251,E,5,09,1.36,24.188,M,36.997,M,8.5,7107*40
$GPGGA,102115.60,3542.295586760,N,13943.268814678,E,5,09,1.36,24.204,M,36.997,M,8.6,7107*46
$GPGGA,102115.70,3542.295571348,N,13943.268776225,E,5,09,1.36,24.194,M,36.997,M,8.7,7107*4D
$GPGGA,102115.80,3542.295554829,N,13943.268721571,E,5,08,1.43,24.182,M,36.997,M,8.8,7107*46
$GPGGA,102115.90,3542.295539255,N,13943.268687499,E,5,08,1.43,24.172,M,36.997,M,8.9,7107*49
$GPGGA,102116.00,3542.295513818,N,13943.268632537,E,5,08,1.43,24.185,M,36.997,M,9.0,7107*43
$GPGGA,102116.10,3542.295493935,N,13943.268596108,E,5,07,2.05,24.160,M,36.997,M,9.1,7107*44
$GPGGA,102116.20,3542.295474769,N,13943.268556776,E,5,07,2.05,24.161,M,36.997,M,9.2,7107*48
$GPGGA,102116.30,3542.295447181,N,13943.268511741,E,5,07,2.05,24.163,M,36.997,M,9.3,7107*4D
$GPGGA,102116.40,3542.295426256,N,13943.268470436,E,5,08,1.96,24.144,M,36.997,M,9.4,7107*45
$GPGGA,102116.50,3542.295405132,N,13943.268433733,E,5,08,1.96,24.162,M,36.997,M,9.5,7107*40
$GPGGA,102116.60,3542.295383697,N,13943.268391500,E,5,08,1.96,24.155,M,36.997,M,9.6,7107*48
$GPGGA,102116.70,3542.295359272,N,13943.268351215,E,5,09,1.14,24.153,M,36.997,M,9.7,7107*42
$GPGGA,102116.80,3542.295329720,N,13943.268313451,E,5,09,1.14,24.139,M,36.997,M,9.8,7107*4B
$GPGGA,102116.90,3542.295303606,N,13943.268287622,E,5,09,1.14,24.178,M,36.997,M,9.9,7107*49
$GPGGA,102117.00,3542.295272320,N,13943.268244037,E,5,10,0.95,24.199,M,36.997,M,10.0,7107*74
$GPGGA,102117.10,3542.295253901,N,13943.268229126,E,5,09,1.14,24.183,M,36.997,M,10.1,7107*7F
$GPGGA,102117.20,3542.295219776,N,13943.268185913,E,5,09,1.02,24.192,M,36.997,M,10.2,7107*73
$GPGGA,102117.30,3542.295194685,N,13943.268147260,E,5,08,1.25,24.181,M,36.997,M,10.3,7107*7F
$GPGGA,102117.40,3542.295163890,N,13943.268107968,E,5,08,1.25,24.168,M,36.997,M,10.4,7107*7D
$GPGGA,102117.50,3542.295145485,N,13943.268082382,E,5,08,1.25,24.140,M,36.997,M,10.5,7107*79
$GPGGA,102117.60,3542.295120806,N,13943.268042559,E,5,07,1.42,24.119,M,36.997,M,10.6,7107*73
$GPGGA,102117.70,3542.295096187,N,13943.268016087,E,5,07,1.42,24.120,M,36.997,M,10.7,7107*72
$GPGGA,102117.80,3542.295071642,N,13943.267985153,E,5,07,1.42,24.129,M,36.997,M,10.8,7107*78
$GPGGA,102117.90,3542.295046838,N,13943.267950323,E,5,07,1.42,24.123,M,36.997,M,10.9,7107*78
$GPGGA,102118.00,3542.295023210,N,13943.267920892,E,5,07,1.42,24.136,M,36.997,M,11.0,7107*77
$GPGGA,102118.10,3542.294990674,N,13943.267886455,E,5,07,1.42,24.124,M,36.997,M,11.1,7107*78
$GPGGA,102118.20,3542.294964902,N,13943.267860288,E,5,07,1.42,24.128,M,36.997,M,11.2,7107*7F
$GPGGA,102118.30,3542.294951372,N,13943.267836002,E,5,07,1.42,24.128,M,36.997,M,11.3,7107*77
$GPGGA,102118.40,3542.294929947,N,13943.267817276,E,5,08,1.25,24.120,M,36.997,M,11.4,7107*70
$GPGGA,102118.50,3542.294911334,N,13943.267800766,E,5,08,1.25,24.100,M,36.997,M,11.5,7107*75
$GPGGA,102118.60,3542.294887369,N,13943.267781438,E,5,08,1.25,24.147,M,36.997,M,11.6,7107*7E
$GPGGA,102118.70,3542.294865368,N,13943.267738280,E,5,10,1.07,24.114,M,36.997,M,11.7,7107*7B
$GPGGA,102118.80,3542.294827957,N,13943.267688214,E,4,09,1.17,24.146,M,36.997,M,11.8,7107*73
$GPGGA,102118.90,3542.294626644,N,13943.267638330,E,4,14,0.75,23.587,M,36.997,M,11.9,7107*7A
$GPGGA,102119.00,3542.294596723,N,13943.267609135,E,4,14,0.75,23.577,M,36.997,M,12.0,7107*7A
$GPGGA,102119.10,3542.294565142,N,13943.267565594,E,4,14,0.75,23.571,M,36.997,M,12.1,7107*77
$GPGGA,102119.20,3542.294528824,N,13943.267529416,E,4,15,0.72,23.590,M,36.997,M,12.2,7107*7D
$GPGGA,102119.30,3542.294497056,N,13943.267511575,E,4,13,0.79,23.594,M,36.997,M,12.3,7107*73
$GPGGA,102119.40,3542.294467521,N,13943.267481500,E,4,14,0.75,23.593,M,36.997,M,12.4,7107*7F
$GPGGA,102119.50,3542.294435885,N,13943.267465078,E,4,15,0.72,23.584,M,36.997,M,12.5,7107*7B
$GPGGA,102119.60,3542.294404807,N,13943.267450022,E,4,15,0.72,23.599,M,36.997,M,12.6,7107*76
$GPGGA,102119.70,3542.294374939,N,13943.267422902,E,4,15,0.72,23.585,M,36.997,M,12.7,7107*79
$GPGGA,102119.80,3542.294349224,N,13943.267383440,E,4,14,0.75,23.592,M,36.997,M,12.8,7107*77
$GPGGA,102119.90,3542.294326679,N,13943.267373788,E,4,14,0.76,23.574,M,36.997,M,12.9,7107*71
$GPGGA,102120.00,3542.294292776,N,13943.267353490,E,4,14,0.76,23.587,M,36.997,M,13.0,7107*7E
$GPGGA,102120.10,3542.294261870,N,13943.267315630,E,4,14,0.76,23.576,M,36.997,M,13.1,7107*7F
$GPGGA,102120.20,3542.294237723,N,13943.267276989,E,4,15,0.72,23.576,M,36.997,M,13.2,7107*79
$GPGGA,102120.30,3542.294210328,N,13943.267246588,E,4,15,0.72,23.574,M,36.997,M,13.3,7107*7F
$GPGGA,102120.40,3542.294183047,N,13943.267232652,E,4,14,0.76,23.570,M,36.997,M,13.4,7107*7A
$GPGGA,102120.50,3542.294150672,N,13943.267207604,E,4,13,0.81,23.574,M,36.997,M,13.5,7107*7A
$GPGGA,102120.60,3542.294121258,N,13943.267179192,E,4,13,0.81,23.572,M,36.997,M,13.6,7107*74
$GPGGA,102120.70,3542.294094272,N,13943.267150948,E,4,13,0.81,23.583,M,36.997,M,13.7,7107*79
$GPGGA,102120.80,3542.294060377,N,13943.267126352,E,4,13,0.81,23.573,M,36.997,M,13.8,7107*79
$GPGGA,102120.90,3542.294029156,N,13943.267103277,E,4,14,0.77,23.578,M,36.997,M,13.9,7107*71
$GPGGA,102121.00,3542.294000764,N,13943.267073159,E,4,13,0.81,23.568,M,36.997,M,14.0,7107*7D
$GPGGA,102121.10,3542.293972194,N,13943.267039439,E,4,13,0.81,23.570,M,36.997,M,14.1,7107*7B
$GPGGA,102121.20,3542.293944317,N,13943.267021252,E,4,13,0.81,23.557,M,36.997,M,14.2,7107*70
$GPGGA,102121.30,3542.293910189,N,13943.266995139,E,4,13,0.85,23.551,M,36.997,M,14.3,7107*7F
$GPGGA,102121.40,3542.293876671,N,13943.266961345,E,4,13,0.85,23.580,M,36.997,M,14.4,7107*70
$GPGGA,102121.50,3542.293848418,N,13943.266944071,E,4,11,0.94,23.564,M,36.997,M,14.5,7107*7B
$GPGGA,102121.60,3542.293812954,N,13943.266924822,E,4,13,0.79,23.557,M,36.997,M,14.6,7107*78
$GPGGA,102121.70,3542.293778596,N,13943.266906605,E,4,13,0.79,23.560,M,36.997,M,14.7,7107*76
$GPGGA,102121.80,3542.293744364,N,13943.266882096,E,4,13,0.79,23.573,M,36.997,M,14.8,7107*71
$GPGGA,102121.90,3542.293710228,N,13943.266870340,E,4,13,0.79,23.582,M,36.997,M,14.9,7107*72
$GPGGA,102122.00,3542.293674424,N,13943.266853662,E,4,13,0.79,23.564,M,36.997,M,15.0,7107*75
$GPGGA,102122.10,3542.293636381,N,13943.266830373,E,4,13,0.79,23.570,M,36.997,M,15.1,7107*7E
$GPGGA,102122.20,3542.293602714,N,13943.266822865,E,4,13,0.79,23.571,M,36.997,M,15.2,7107*7F
$GPGGA,102122.30,3542.293567140,N,13943.266810294,E,4,13,0.79,23.562,M,36.997,M,15.3,7107*7F
$GPGGA,102122.40,3542.293525251,N,13943.266793149,E,4,13,0.79,23.575,M,36.997,M,15.4,7107*7B
$GPGGA,102122.50,3542.293487175,N,13943.266776634,E,4,14,0.75,23.579,M,36.997,M,15.5,7107*76
$GPGGA,102122.60,3542.293451574,N,13943.266768909,E,4,14,0.75,23.570,M,36.997,M,15.6,7107*7F
$GPGGA,102122.70,3542.293417120,N,13943.266757521,E,4,13,0.79,23.578,M,36.997,M,15.7,7107*71
$GPGGA,102122.80,3542.293379015,N,13943.266744385,E,4,12,0.96,23.578,M,36.997,M,15.8,7107*73
$GPGGA,102122.90,3542.293349385,N,13943.266733991,E,4,12,0.96,23.575,M,36.997,M,15.9,7107*78
$GPGGA,102123.00,3542.293309649,N,13943.266720172,E,4,12,0.96,23.567,M,36.997,M,16.0,7107*7F
$GPGGA,102123.10,3542.293274899,N,13943.266713012,E,4,13,0.79,23.568,M,36.997,M,16.1,7107*7F
$GPGGA,102123.20,3542.293233266,N,13943.266696920,E,4,13,0.79,23.576,M,36.997,M,16.2,7107*7D
$GPGGA,102123.30,3542.293200544,N,13943.266694062,E,4,13,0.79,23.577,M,36.997,M,16.3,7107*76
$GPGGA,102123.40,3542.293165715,N,13943.266683323,E,4,12,0.96,23.569,M,36.997,M,16.4,7107*7F
$GPGGA,102123.50,3542.293124852,N,13943.266674185,E,4,12,0.96,23.583,M,36.997,M,16.5,7107*74
$GPGGA,102123.60,3542.293092319,N,13943.266666839,E,4,12,0.96,23.582,M,36.997,M,16.6,7107*70
$GPGGA,102123.70,3542.293051744,N,13943.266655475,E,4,13,0.85,23.576,M,36.997,M,16.7,7107*7F
$GPGGA,102123.80,3542.293014119,N,13943.266651823,E,4,12,0.96,23.577,M,36.997,M,16.8,7107*79
$GPGGA,102123.90,3542.292976136,N,13943.266642865,E,4,12,0.96,23.577,M,36.997,M,16.9,7107*78
$GPGGA,102124.00,3542.292941733,N,13943.266632684,E,4,13,0.85,23.578,M,36.997,M,17.0,7107*73
$GPGGA,102124.10,3542.292905770,N,13943.266620167,E,4,12,0.92,23.578,M,36.997,M,17.1,7107*7A
$GPGGA,102124.20,3542.292867803,N,13943.266604832,E,4,13,0.85,23.582,M,36.997,M,17.2,7107*79
$GPGGA,102124.30,3542.292834770,N,13943.266592504,E,4,13,0.85,23.595,M,36.997,M,17.3,7107*76
$GPGGA,102124.40,3542.292794823,N,13943.266586275,E,4,13,0.83,23.595,M,36.997,M,17.4,7107*78
$GPGGA,102124.50,3542.292760881,N,13943.266573257,E,4,14,0.77,23.593,M,36.997,M,17.5,7107*7B
