$GPGGA,071126.10,3542.300763982,N,13943.273855682,E,5,06,3.61,23.703,M,36.997,M,4.1,7107*49
$GPGGA,071126.20,3542.300763978,N,13943.273855688,E,5,06,3.61,23.703,M,36.997,M,4.2,7107*46
$GPGGA,071126.30,3542.300763974,N,13943.273855686,E,5,06,3.61,23.703,M,36.997,M,4.3,7107*44
$GPGGA,071126.40,3542.300763967,N,13943.273855689,E,5,06,3.61,23.703,M,36.997,M,4.4,7107*49
$GPGGA,071126.50,3542.300763964,N,13943.273855689,E,5,06,3.61,23.703,M,36.997,M,4.5,7107*4A
$GPGGA,071126.60,3542.300763955,N,13943.273855687,E,5,06,3.61,23.703,M,36.997,M,4.6,7107*46
$GPGGA,071126.70,3542.300763949,N,13943.273855690,E,5,06,3.61,23.703,M,36.997,M,4.7,7107*4D
$GPGGA,071126.80,3542.300763943,N,13943.273855695,E,5,06,3.61,23.703,M,36.997,M,4.8,7107*42
$GPGGA,071126.90,3542.300763937,N,13943.273855699,E,5,06,3.61,23.703,M,36.997,M,4.9,7107*4D
$GPGGA,071127.00,3542.300763932,N,13943.273855702,E,5,06,3.61,23.703,M,36.997,M,5.0,7107*4B
$GPGGA,071127.10,3542.300763925,N,13943.273855700,E,5,06,3.61,23.703,M,36.997,M,5.1,7107*4F
$GPGGA,071127.20,3542.300763922,N,13943.273855702,E,5,06,3.61,23.703,M,36.997,M,5.2,7107*4A
$GPGGA,071127.30,3542.300763916,N,13943.273855698,E,5,06,3.61,23.703,M,36.997,M,5.3,7107*4F
$GPGGA,071127.40,3542.300763912,N,13943.273855697,E,5,06,3.61,23.703,M,36.997,M,5.4,7107*44
$GPGGA,071127.50,3542.300763908,N,13943.273855701,E,5,06,3.61,23.703,M,36.997,M,5.5,7107*41
$GPGGA,071127.60,3542.300763903,N,13943.273855700,E,5,06,3.61,23.703,M,36.997,M,5.6,7107*4B
$GPGGA,071127.70,3542.300763900,N,13943.273855702,E,5,06,3.61,23.703,M,36.997,M,5.7,7107*4A
$GPGGA,071127.80,3542.300763894,N,13943.273855705,E,5,06,3.61,23.703,M,36.997,M,5.8,7107*41
$GPGGA,071127.90,3542.300763886,N,13943.273855706,E,5,06,3.61,23.703,M,36.997,M,5.9,7107*41
$GPGGA,071128.00,3542.300763885,N,13943.273855705,E,5,06,3.61,23.703,M,36.997,M,6.0,7107*4D
$GPGGA,071128.10,3542.300763881,N,13943.273855697,E,5,06,3.61,23.703,M,36.997,M,6.1,7107*43
$GPGGA,071128.20,3542.300763879,N,13943.273855699,E,5,06,3.61,23.703,M,36.997,M,6.2,7107*4A
$GPGGA,071128.30,3542.300763875,N,13943.273855699,E,5,06,3.61,23.703,M,36.997,M,6.3,7107*46
$GPGGA,071128.40,3542.300763870,N,13943.273855698,E,5,06,3.61,23.703,M,36.997,M,6.4,7107*42
$GPGGA,071128.50,3542.300763863,N,13943.273855703,E,5,06,3.61,23.704,M,36.997,M,6.5,7107*44
$GPGGA,071128.60,3542.300763860,N,13943.273855701,E,5,06,3.61,23.704,M,36.997,M,6.6,7107*45
$GPGGA,071128.70,3542.300763853,N,13943.273855699,E,5,06,3.61,23.704,M,36.997,M,6.7,7107*45
$GPGGA,071128.80,3542.300763849,N,13943.273855696,E,5,06,3.61,23.704,M,36.997,M,6.8,7107*41
$GPGGA,071128.90,3542.300763844,N,13943.273855696,E,5,06,3.61,23.704,M,36.997,M,6.9,7107*4C
$GPGGA,071129.00,3542.300763835,N,13943.273855704,E,5,06,3.61,23.704,M,36.997,M,7.0,7107*40
$GPGGA,071129.10,3542.300763830,N,13943.273855709,E,5,06,3.61,23.704,M,36.997,M,2.1,7107*4D
$GPGGA,071129.20,3542.300763823,N,13943.273855714,E,5,06,3.61,23.704,M,36.997,M,2.2,7107*43
$GPGGA,071129.30,3542.300763817,N,13943.273855713,E,5,06,3.61,23.704,M,36.997,M,2.3,7107*43
$GPGGA,071129.40,3542.300763814,N,13943.273855712,E,5,06,3.61,23.704,M,36.997,M,2.4,7107*41
$GPGGA,071129.50,3542.300763815,N,13943.273855712,E,5,06,3.61,23.704,M,36.997,M,2.5,7107*40
$GPGGA,071129.60,3542.300763811,N,13943.273855714,E,5,06,3.61,23.704,M,36.997,M,2.6,7107*42
$GPGGA,071129.70,3542.300763806,N,13943.273855714,E,5,06,3.62,23.704,M,36.997,M,2.7,7107*47
$GPGGA,071129.80,3542.300763807,N,13943.273855715,E,5,06,3.62,23.704,M,36.997,M,2.8,7107*47
$GPGGA,071129.90,3542.300763807,N,13943.273855714,E,5,06,3.62,23.704,M,36.997,M,2.9,7107*46
$GPGGA,071130.00,3542.300763806,N,13943.273855717,E,5,06,3.62,23.704,M,36.997,M,3.0,7107*4D
$GPGGA,071130.10,3542.300763807,N,13943.273855719,E,5,06,3.62,23.704,M,36.997,M,3.1,7107*42
$GPGGA,071130.20,3542.300763806,N,13943.273855712,E,5,06,3.62,23.704,M,36.997,M,3.2,7107*48
$GPGGA,071130.30,3542.300763807,N,13943.273855715,E,5,06,3.62,23.704,M,36.997,M,3.3,7107*4E
$GPGGA,071130.40,3542.300763805,N,13943.273855711,E,5,06,3.62,23.704,M,36.997,M,3.4,7107*48
$GPGGA,071130.50,3542.300763809,N,13943.273855704,E,5,06,3.62,23.704,M,36.997,M,3.5,7107*40
$GPGGA,071130.60,3542.300763808,N,13943.273855712,E,5,06,3.62,23.704,M,36.997,M,3.6,7107*46
$GPGGA,071130.70,3542.300763805,N,13943.273855709,E,5,06,3.62,23.704,M,36.997,M,3.7,7107*41
$GPGGA,071130.80,3542.300763800,N,13943.273855714,E,5,06,3.62,23.704,M,36.997,M,3.8,7107*48
$GPGGA,071130.90,3542.300763796,N,13943.273855716,E,5,06,3.62,23.704,M,36.997,M,3.9,7107*4A
$GPGGA,071131.00,3542.300763790,N,13943.273855721,E,5,06,3.62,23.704,M,36.997,M,4.0,7107*4E
$GPGGA,071131.10,3542.300763791,N,13943.273855725,E,5,06,3.62,23.704,M,36.997,M,4.1,7107*4B
$GPGGA,071131.20,3542.300763785,N,13943.273855723,E,4,09,1.08,23.704,M,36.997,M,4.2,7107*48
$GPGGA,071131.30,3542.300762920,N,13943.273854976,E,4,09,1.08,23.705,M,36.997,M,4.3,7107*46
$GPGGA,071131.40,3542.300761970,N,13943.273853917,E,4,09,1.08,23.707,M,36.997,M,4.4,7107*42
$GPGGA,071131.50,3542.300761205,N,13943.273853179,E,4,09,1.08,23.707,M,36.997,M,4.5,7107*4B
$GPGGA,071131.60,3542.300760747,N,13943.273853113,E,4,09,1.08,23.708,M,36.997,M,4.6,7107*4A
$GPGGA,071131.70,3542.300760206,N,13943.273852721,E,4,09,1.08,23.709,M,36.997,M,4.7,7107*4D
$GPGGA,071131.80,3542.300759787,N,13943.273852459,E,4,09,1.08,23.710,M,36.997,M,4.8,7107*4F
$GPGGA,071131.90,3542.300759393,N,13943.273852305,E,4,09,1.08,23.710,M,36.997,M,4.9,7107*40
$GPGGA,071132.00,3542.300759154,N,13943.273852374,E,4,09,1.08,23.711,M,36.997,M,5.0,7107*4C
$GPGGA,071132.10,3542.300758823,N,13943.273852115,E,4,09,1.08,23.711,M,36.997,M,5.1,7107*41
$GPGGA,071132.20,3542.300758549,N,13943.273852236,E,4,09,1.08,23.712,M,36.997,M,5.2,7107*41
$GPGGA,071132.30,3542.300758401,N,13943.273852395,E,4,09,1.08,23.712,M,36.997,M,5.3,7107*44
$GPGGA,071132.40,3542.300757926,N,13943.273852002,E,4,09,1.08,23.712,M,36.997,M,5.4,7107*4E
$GPGGA,071132.50,3542.300757766,N,13943.273852220,E,4,09,1.08,23.713,M,36.997,M,5.5,7107*47
$GPGGA,071132.60,3542.300757633,N,13943.273852311,E,4,09,1.08,23.713,M,36.997,M,5.6,7107*45
$GPGGA,071132.70,3542.300757498,N,13943.273852382,E,4,09,1.08,23.713,M,36.997,M,5.7,7107*4C
$GPGGA,071132.80,3542.300757351,N,13943.273852601,E,4,09,1.08,23.714,M,36.997,M,5.8,7107*47
$GPGGA,071132.90,3542.300757113,N,13943.273852662,E,4,10,1.01,23.714,M,36.997,M,5.9,7107*47
$GPGGA,071133.00,3542.300756962,N,13943.273852702,E,4,10,1.01,23.714,M,36.997,M,6.0,7107*4D
$GPGGA,071133.10,3542.300756702,N,13943.273852682,E,4,10,1.01,23.715,M,36.997,M,6.1,7107*4D
$GPGGA,071133.20,3542.300756437,N,13943.273852644,E,4,10,1.01,23.715,M,36.997,M,6.2,7107*42
$GPGGA,071133.30,3542.300756271,N,13943.273852707,E,4,10,1.01,23.715,M,36.997,M,6.3,7107*40
$GPGGA,071133.40,3542.300756220,N,13943.273852872,E,4,09,1.08,23.715,M,36.997,M,6.4,7107*48
$GPGGA,071133.50,3542.300756098,N,13943.273853036,E,4,09,1.08,23.716,M,36.997,M,6.5,7107*43
$GPGGA,071133.60,3542.300755946,N,13943.273853020,E,4,09,1.08,23.716,M,36.997,M,6.6,7107*4D
$GPGGA,071133.70,3542.300755836,N,13943.273853057,E,4,09,1.08,23.716,M,36.997,M,6.7,7107*4B
$GPGGA,071133.80,3542.300755695,N,13943.273853103,E,4,10,1.01,23.716,M,36.997,M,6.8,7107*4D
$GPGGA,071133.90,3542.300755359,N,13943.273852850,E,4,10,1.01,23.716,M,36.997,M,6.9,7107*46
$GPGGA,071134.00,3542.300755243,N,13943.273853061,E,4,10,1.01,23.716,M,36.997,M,7.0,7107*41
$GPGGA,071134.10,3542.300755028,N,13943.273853032,E,4,10,1.01,23.717,M,36.997,M,2.1,7107*4C
$GPGGA,071134.20,3542.300755040,N,13943.273853390,E,4,10,1.01,23.717,M,36.997,M,2.2,7107*49
$GPGGA,071134.30,3542.300754921,N,13943.273853638,E,4,10,1.01,23.717,M,36.997,M,2.3,7107*41
$GPGGA,071134.40,3542.300754886,N,13943.273854066,E,4,10,1.01,23.718,M,36.997,M,2.4,7107*48
$GPGGA,071134.50,3542.300754804,N,13943.273854276,E,4,10,1.01,23.718,M,36.997,M,2.5,7107*41
$GPGGA,071134.60,3542.300754703,N,13943.273854392,E,4,10,1.01,23.719,M,36.997,M,2.6,7107*43
$GPGGA,071134.70,3542.300754580,N,13943.273854607,E,4,10,1.01,23.719,M,36.997,M,2.7,7107*43
$GPGGA,071134.80,3542.300754405,N,13943.273854711,E,4,10,1.01,23.720,M,36.997,M,2.8,7107*43
$GPGGA,071134.90,3542.300754375,N,13943.273854887,E,4,10,1.01,23.720,M,36.997,M,2.9,7107*43
$GPGGA,071135.00,3542.300754198,N,13943.273854948,E,4,10,1.01,23.720,M,36.997,M,3.0,7107*40
$GPGGA,071135.10,3542.300754174,N,13943.273855176,E,4,10,1.01,23.721,M,36.997,M,3.1,7107*47
$GPGGA,071135.20,3542.300754015,N,13943.273855227,E,4,10,1.01,23.721,M,36.997,M,3.2,7107*46
$GPGGA,071135.30,3542.300754035,N,13943.273855567,E,4,10,1.01,23.721,M,36.997,M,3.3,7107*47
$GPGGA,071135.40,3542.300753878,N,13943.273855648,E,4,10,1.01,23.722,M,36.997,M,3.4,7107*4C
$GPGGA,071135.50,3542.300753769,N,13943.273855708,E,4,10,1.01,23.722,M,36.997,M,3.5,7107*46
$GPGGA,071135.60,3542.300753625,N,13943.273855811,E,4,10,1.01,23.722,M,36.997,M,3.6,7107*48
$GPGGA,071135.70,3542.300753449,N,13943.273855759,E,4,10,1.01,23.722,M,36.997,M,3.7,7107*43
$GPGGA,071135.80,3542.300753258,N,13943.273855698,E,4,10,1.01,23.722,M,36.997,M,3.8,7107*49
$GPGGA,071135.90,3542.300753122,N,13943.273855868,E,4,10,1.01,23.723,M,36.997,M,3.9,7107*47
$GPGGA,071136.00,3542.300753002,N,13943.273855949,E,4,10,1.01,23.723,M,36.997,M,4.0,7107*42
$GPGGA,071136.10,3542.300752935,N,13943.273856083,E,4,10,1.01,23.723,M,36.997,M,4.1,7107*42
$GPGGA,071136.20,3542.300752692,N,13943.273856067,E,4,10,1.01,23.724,M,36.997,M,4.2,7107*4D
$GPGGA,071136.30,3542.300752526,N,13943.273856158,E,4,10,1.01,23.724,M,36.997,M,4.3,7107*4C
$GPGGA,071136.40,3542.300752452,N,13943.273856353,E,4,10,1.01,23.725,M,36.997,M,4.4,7107*46
$GPGGA,071136.50,3542.300752336,N,13943.273856399,E,4,10,1.01,23.725,M,36.997,M,4.5,7107*45
$GPGGA,071136.60,3542.300752220,N,13943.273856498,E,4,10,1.01,23.725,M,36.997,M,4.6,7107*45
$GPGGA,071136.70,3542.300752279,N,13943.273856780,E,4,10,1.01,23.725,M,36.997,M,4.7,7107*43
$GPGGA,071136.80,3542.300752161,N,13943.273856737,E,4,10,1.01,23.726,M,36.997,M,4.8,7107*46
$GPGGA,071136.90,3542.300751979,N,13943.273856789,E,4,10,1.01,23.726,M,36.997,M,4.9,7107*41
$GPGGA,071137.00,3542.300751933,N,13943.273857176,E,4,10,1.01,23.726,M,36.997,M,5.0,7107*48
$GPGGA,071137.10,3542.300751767,N,13943.273857265,E,4,10,1.01,23.726,M,36.997,M,5.1,7107*46
$GPGGA,071137.20,3542.300751662,N,13943.273857276,E,4,10,1.01,23.727,M,36.997,M,5.2,7107*41
$GPGGA,071137.30,3542.300751533,N,13943.273857454,E,4,10,1.01,23.727,M,36.997,M,5.3,7107*40
$GPGGA,071137.40,3542.300751393,N,13943.273857576,E,4,10,1.01,23.727,M,36.997,M,5.4,7107*4D
$GPGGA,071137.50,3542.300751285,N,13943.273857633,E,4,10,1.01,23.727,M,36.997,M,5.5,7107*49
$GPGGA,071137.60,3542.300751087,N,13943.273857750,E,4,10,1.01,23.727,M,36.997,M,5.6,7107*4D
$GPGGA,071137.70,3542.300750897,N,13943.273857689,E,4,10,1.01,23.728,M,36.997,M,5.7,7107*4F
$GPGGA,071137.80,3542.300750770,N,13943.273857720,E,4,10,1.01,23.728,M,36.997,M,5.8,7107*4B
$GPGGA,071137.90,3542.300750671,N,13943.273857862,E,4,10,1.01,23.728,M,36.997,M,5.9,7107*42
$GPGGA,071138.00,3542.300750659,N,13943.273858001,E,4,10,1.01,23.728,M,36.997,M,6.0,7107*46
$GPGGA,071138.10,3542.300750494,N,13943.273858143,E,4,10,1.01,23.729,M,36.997,M,6.1,7107*43
$GPGGA,071138.20,3542.300750221,N,13943.273858029,E,4,10,1.01,23.729,M,36.997,M,6.2,7107*46
$GPGGA,071138.30,3542.300750064,N,13943.273858102,E,4,10,1.01,23.729,M,36.997,M,6.3,7107*4D
$GPGGA,071138.40,3542.300749984,N,13943.273857974,E,4,10,1.01,23.729,M,36.997,M,6.4,7107*44
$GPGGA,071138.50,3542.300749877,N,13943.273858232,E,4,10,1.01,23.729,M,36.997,M,6.5,7107*4F
$GPGGA,071138.60,3542.300749890,N,13943.273858405,E,4,10,1.01,23.729,M,36.997,M,6.6,7107*44
$GPGGA,071138.70,3542.300749748,N,13943.273858372,E,4,10,1.01,23.729,M,36.997,M,6.7,7107*49
$GPGGA,071138.80,3542.300749517,N,13943.273858413,E,4,10,1.01,23.730,M,36.997,M,6.8,7107*49
$GPGGA,071138.90,3542.300749364,N,13943.273858627,E,4,10,1.01,23.730,M,36.997,M,6.9,7107*4E
$GPGGA,071139.00,3542.300749231,N,13943.273858679,E,4,10,1.01,23.730,M,36.997,M,7.0,7107*44
$GPGGA,071139.10,3542.300749291,N,13943.273858810,E,4,10,1.01,23.731,M,36.997,M,2.1,7107*4B
$GPGGA,071139.20,3542.300749060,N,13943.273858739,E,4,10,1.01,23.731,M,36.997,M,2.2,7107*43
$GPGGA,071139.30,3542.300749079,N,13943.273859029,E,4,10,1.01,23.731,M,36.997,M,2.3,7107*4C
$GPGGA,071139.40,3542.300748863,N,13943.273858861,E,4,10,1.01,23.731,M,36.997,M,2.4,7107*4B
$GPGGA,071139.50,3542.300748773,N,13943.273858894,E,4,10,1.01,23.731,M,36.997,M,2.5,7107*4F
$GPGGA,071139.60,3542.300748736,N,13943.273859115,E,4,10,1.01,23.731,M,36.997,M,2.6,7107*4F
$GPGGA,071139.70,3542.300748606,N,13943.273859207,E,4,10,1.01,23.731,M,36.997,M,2.7,7107*4D
$GPGGA,071139.80,3542.300748412,N,13943.273859078,E,4,10,1.01,23.731,M,36.997,M,2.8,7107*40
$GPGGA,071139.90,3542.300748256,N,13943.273859237,E,4,10,1.01,23.731,M,36.997,M,2.9,7107*4F
$GPGGA,071140.00,3542.300748197,N,13943.273859322,E,4,10,1.01,23.731,M,36.997,M,3.0,7107*4B
$GPGGA,071140.10,3542.300748010,N,13943.273859215,E,4,10,1.01,23.732,M,36.997,M,3.1,7107*43
$GPGGA,071140.20,3542.300747784,N,13943.273859424,E,4,10,1.01,23.732,M,36.997,M,3.2,7107*42
$GPGGA,071140.30,3542.300747693,N,13943.273859556,E,4,10,1.01,23.732,M,36.997,M,3.3,7107*41
$GPGGA,071140.40,3542.300747391,N,13943.273859222,E,4,10,1.01,23.732,M,36.997,M,3.4,7107*42
$GPGGA,071140.50,3542.300747262,N,13943.273859301,E,4,10,1.01,23.732,M,36.997,M,3.5,7107*4F
$GPGGA,071140.60,3542.300747114,N,13943.273859323,E,4,10,1.01,23.732,M,36.997,M,3.6,7107*4D
$GPGGA,071140.70,3542.300746996,N,13943.273859397,E,4,10,1.01,23.732,M,36.997,M,3.7,7107*41
$GPGGA,071140.80,3542.300746934,N,13943.273859488,E,4,10,1.01,23.732,M,36.997,M,3.8,7107*40
$GPGGA,071140.90,3542.300746892,N,13943.273859729,E,4,10,1.01,23.732,M,36.997,M,3.9,7107*45
$GPGGA,071141.00,3542.300746769,N,13943.273859818,E,4,10,1.01,23.732,M,36.997,M,4.0,7107*45
$GPGGA,071141.10,3542.300746705,N,13943.273860001,E,4,10,1.01,23.732,M,36.997,M,4.1,7107*45
$GPGGA,071141.20,3542.300746476,N,13943.273859983,E,4,10,1.01,23.732,M,36.997,M,4.2,7107*4B
$GPGGA,071141.30,3542.300746388,N,13943.273860127,E,4,10,1.01,23.733,M,36.997,M,4.3,7107*40
$GPGGA,071141.40,3542.300746260,N,13943.273860221,E,4,10,1.01,23.733,M,36.997,M,4.4,7107*42
$GPGGA,071141.50,3542.300746171,N,13943.273860413,E,4,10,1.01,23.733,M,36.997,M,4.5,7107*46
$GPGGA,071141.60,3542.300746102,N,13943.273860526,E,4,10,1.01,23.733,M,36.997,M,4.6,7107*45
$GPGGA,071141.70,3542.300745906,N,13943.273860486,E,4,10,1.01,23.733,M,36.997,M,4.7,7107*41
$GPGGA,071141.80,3542.300745758,N,13943.273860516,E,4,10,1.01,23.733,M,36.997,M,4.8,7107*4C
$GPGGA,071141.90,3542.300745703,N,13943.273860757,E,4,10,1.01,23.734,M,36.997,M,4.9,7107*42
$GPGGA,071142.00,3542.300745437,N,13943.273860764,E,4,10,1.01,23.734,M,36.997,M,5.0,7107*44
$GPGGA,071142.10,3542.300745414,N,13943.273860971,E,4,10,1.01,23.734,M,36.997,M,5.1,7107*4F
$GPGGA,071142.20,3542.300745351,N,13943.273861213,E,4,10,1.01,23.734,M,36.997,M,5.2,7107*47
$GPGGA,071142.30,3542.300745235,N,13943.273861421,E,4,10,1.01,23.735,M,36.997,M,5.3,7107*42
$GPGGA,071142.40,3542.300745168,N,13943.273861710,E,4,10,1.01,23.735,M,36.997,M,5.4,7107*48
$GPGGA,071142.50,3542.300745092,N,13943.273861742,E,4,10,1.01,23.735,M,36.997,M,5.5,7107*4B
$GPGGA,071142.60,3542.300745018,N,13943.273861911,E,4,10,1.01,23.735,M,36.997,M,5.6,7107*41
$GPGGA,071142.70,3542.300745042,N,13943.273862167,E,4,10,1.01,23.735,M,36.997,M,5.7,7107*44
$GPGGA,071142.80,3542.300744860,N,13943.273862242,E,4,10,1.01,23.736,M,36.997,M,5.8,7107*4A
$GPGGA,071142.90,3542.300744755,N,13943.273862231,E,4,10,1.01,23.736,M,36.997,M,5.9,7107*47
$GPGGA,071143.00,3542.300744641,N,13943.273862341,E,4,10,1.01,23.736,M,36.997,M,6.0,7107*47
$GPGGA,071143.10,3542.300744433,N,13943.273862308,E,4,09,1.08,23.736,M,36.997,M,6.1,7107*4C
$GPGGA,071143.20,3542.300744324,N,13943.273862460,E,4,09,1.08,23.736,M,36.997,M,6.2,7107*44
$GPGGA,071143.30,3542.300744262,N,13943.273862583,E,4,09,1.08,23.736,M,36.997,M,6.3,7107*4B
$GPGGA,071143.40,3542.300744100,N,13943.273862607,E,4,09,1.08,23.736,M,36.997,M,6.4,7107*43
$GPGGA,071143.50,3542.300743989,N,13943.273862773,E,4,10,1.01,23.736,M,36.997,M,6.5,7107*4E
$GPGGA,071143.60,3542.300743929,N,13943.273862910,E,4,10,1.01,23.737,M,36.997,M,6.6,7107*4E
$GPGGA,071143.70,3542.300743834,N,13943.273863001,E,4,10,1.01,23.737,M,36.997,M,6.7,7107*4B
$GPGGA,071143.80,3542.300743618,N,13943.273863065,E,4,10,1.01,23.737,M,36.997,M,6.8,7107*49
$GPGGA,071143.90,3542.300743452,N,13943.273863269,E,4,09,1.08,23.737,M,36.997,M,6.9,7107*4A
$GPGGA,071144.00,3542.300743348,N,13943.273863319,E,4,09,1.08,23.737,M,36.997,M,7.0,7107*46
$GPGGA,071144.10,3542.300743166,N,13943.273863310,E,4,09,1.08,23.738,M,36.997,M,7.1,7107*4E
$GPGGA,071144.20,3542.300742982,N,13943.273863323,E,4,09,1.08,23.738,M,36.997,M,7.2,7107*4D
$GPGGA,071144.30,3542.300742697,N,13943.273863276,E,4,09,1.08,23.738,M,36.997,M,7.3,7107*47
$GPGGA,071144.40,3542.300742636,N,13943.273863248,E,4,09,1.08,23.738,M,36.997,M,7.4,7107*41
$GPGGA,071144.50,3542.300742519,N,13943.273863371,E,4,10,1.01,23.738,M,36.997,M,7.5,7107*45
$GPGGA,071144.60,3542.300742302,N,13943.273863386,E,4,10,1.01,23.738,M,36.997,M,7.6,7107*41
$GPGGA,071144.70,3542.300742183,N,13943.273863460,E,4,10,1.01,23.738,M,36.997,M,7.7,7107*45
$GPGGA,071144.80,3542.300741882,N,13943.273863416,E,4,10,1.01,23.738,M,36.997,M,7.8,7107*4F
$GPGGA,071144.90,3542.300741624,N,13943.273863451,E,4,10,1.01,23.738,M,36.997,M,7.9,7107*4E
$GPGGA,071145.00,3542.300741484,N,13943.273863426,E,4,10,1.01,23.738,M,36.997,M,8.0,7107*48
$GPGGA,071145.10,3542.300741396,N,13943.273863524,E,4,10,1.01,23.739,M,36.997,M,3.1,7107*45
$GPGGA,071145.20,3542.300741389,N,13943.273863505,E,4,10,1.01,23.739,M,36.997,M,3.2,7107*48
$GPGGA,071145.30,3542.300741337,N,13943.273863442,E,4,10,1.01,23.739,M,36.997,M,3.3,7107*4F
$GPGGA,071145.40,3542.300741167,N,13943.273863435,E,4,10,1.01,23.739,M,36.997,M,3.4,7107*48
$GPGGA,071145.50,3542.300741071,N,13943.273863495,E,4,10,1.01,23.739,M,36.997,M,3.5,7107*44
$GPGGA,071145.60,3542.300740887,N,13943.273863492,E,4,10,1.01,23.739,M,36.997,M,3.6,7107*43
$GPGGA,071145.70,3542.300740819,N,13943.273863659,E,4,10,1.01,23.740,M,36.997,M,3.7,7107*4F
$GPGGA,071145.80,3542.300740746,N,13943.273863782,E,4,10,1.01,23.740,M,36.997,M,3.8,7107*4D
$GPGGA,071145.90,3542.300740540,N,13943.273863726,E,4,10,1.01,23.740,M,36.997,M,3.9,7107*47
$GPGGA,071146.00,3542.300740461,N,13943.273863843,E,4,10,1.01,23.740,M,36.997,M,4.0,7107*4D
$GPGGA,071146.10,3542.300740243,N,13943.273863695,E,4,10,1.01,23.740,M,36.997,M,4.1,7107*4E
$GPGGA,071146.20,3542.300739984,N,13943.273863694,E,4,10,1.01,23.740,M,36.997,M,4.2,7107*41
$GPGGA,071146.30,3542.300739932,N,13943.273863823,E,4,10,1.01,23.740,M,36.997,M,4.3,7107*4E
$GPGGA,071146.40,3542.300739624,N,13943.273863815,E,4,10,1.01,23.740,M,36.997,M,4.4,7107*43
$GPGGA,071146.50,3542.300739394,N,13943.273863889,E,4,10,1.01,23.740,M,36.997,M,4.5,7107*48
$GPGGA,071146.60,3542.300739272,N,13943.273863900,E,4,10,1.01,23.741,M,36.997,M,4.6,7107*40
$GPGGA,071146.70,3542.300739201,N,13943.273863995,E,4,10,1.01,23.741,M,36.997,M,4.7,7107*48
$GPGGA,071146.80,3542.300739030,N,13943.273863934,E,4,10,1.01,23.741,M,36.997,M,4.8,7107*43
$GPGGA,071146.90,3542.300738993,N,13943.273864101,E,4,10,1.01,23.741,M,36.997,M,4.9,7107*4B
$GPGGA,071147.00,3542.300738861,N,13943.273863935,E,4,10,1.01,23.741,M,36.997,M,5.0,7107*4F
$GPGGA,071147.10,3542.300738729,N,13943.273863999,E,4,10,1.01,23.741,M,36.997,M,5.1,7107*4A
$GPGGA,071147.20,3542.300738650,N,13943.273864010,E,4,10,1.01,23.741,M,36.997,M,5.2,7107*4A
$GPGGA,071147.30,3542.300738324,N,13943.273864073,E,4,10,1.01,23.741,M,36.997,M,5.3,7107*49
$GPGGA,071147.40,3542.300738092,N,13943.273864114,E,4,10,1.01,23.741,M,36.997,M,5.4,7107*47
$GPGGA,071147.50,3542.300737918,N,13943.273864039,E,4,10,1.01,23.741,M,36.997,M,5.5,7107*4D
$GPGGA,071147.60,3542.300737807,N,13943.273864167,E,4,10,1.01,23.741,M,36.997,M,5.6,7107*48
$GPGGA,071147.70,3542.300737543,N,13943.273864111,E,4,09,1.08,23.742,M,36.997,M,5.7,7107*46
$GPGGA,071147.80,3542.300737482,N,13943.273864275,E,4,09,1.08,23.742,M,36.997,M,5.8,7107*4B
$GPGGA,071147.90,3542.300737271,N,13943.273864230,E,4,09,1.08,23.742,M,36.997,M,5.9,7107*40
$GPGGA,071148.00,3542.300736927,N,13943.273864330,E,4,09,1.08,23.742,M,36.997,M,6.0,7107*44
$GPGGA,071148.10,3542.300736711,N,13943.273864360,E,4,09,1.08,23.742,M,36.997,M,6.1,7107*4A
$GPGGA,071148.20,3542.300736422,N,13943.273864269,E,4,09,1.08,23.742,M,36.997,M,6.2,7107*41
$GPGGA,071148.30,3542.300736226,N,13943.273864246,E,4,10,1.01,23.742,M,36.997,M,6.3,7107*4F
$GPGGA,071148.40,3542.300736005,N,13943.273864262,E,5,09,0.97,23.743,M,36.997,M,6.4,7107*4C
$GPGGA,071148.50,3542.300735871,N,13943.273864238,E,5,09,0.97,23.743,M,36.997,M,6.5,7107*4B
$GPGGA,071148.60,3542.300735871,N,13943.273864241,E,5,09,0.97,23.743,M,36.997,M,6.6,7107*45
$GPGGA,071148.70,3542.300735872,N,13943.273864240,E,5,09,0.97,23.743,M,36.997,M,6.7,7107*47
$GPGGA,071148.80,3542.300735870,N,13943.273864245,E,4,10,0.97,23.743,M,36.997,M,6.8,7107*49
$GPGGA,071148.90,3542.300735747,N,13943.273864282,E,4,10,0.97,23.743,M,36.997,M,6.9,7107*49
$GPGGA,071149.00,3542.300735630,N,13943.273864408,E,4,10,0.97,23.743,M,36.997,M,7.0,7107*4C
$GPGGA,071149.10,3542.300735516,N,13943.273864426,E,4,10,0.97,23.742,M,36.997,M,2.1,7107*43
$GPGGA,071149.20,3542.300735365,N,13943.273864352,E,4,10,0.97,23.742,M,36.997,M,2.2,7107*45
$GPGGA,071149.30,3542.300735129,N,13943.273864357,E,4,10,0.97,23.742,M,36.997,M,2.3,7107*4A
$GPGGA,071149.40,3542.300735084,N,13943.273864533,E,4,10,0.97,23.742,M,36.997,M,2.4,7107*48
$GPGGA,071149.50,3542.300734949,N,13943.273864617,E,4,10,0.97,23.742,M,36.997,M,2.5,7107*44
$GPGGA,071149.60,3542.300734874,N,13943.273864841,E,4,10,0.97,23.742,M,36.997,M,2.6,7107*46
$GPGGA,071149.70,3542.300734630,N,13943.273864900,E,4,10,0.97,23.742,M,36.997,M,2.7,7107*4C
$GPGGA,071149.80,3542.300734554,N,13943.273865055,E,4,10,0.97,23.743,M,36.997,M,2.8,7107*44
$GPGGA,071149.90,3542.300734473,N,13943.273865266,E,4,10,0.97,23.743,M,36.997,M,2.9,7107*42
$GPGGA,071150.00,3542.300734370,N,13943.273865411,E,4,10,0.97,23.743,M,36.997,M,3.0,7107*49
$GPGGA,071150.10,3542.300734330,N,13943.273865415,E,5,09,0.97,23.742,M,36.997,M,3.1,7107*41
$GPGGA,071150.20,3542.300734176,N,13943.273865441,E,5,09,0.97,23.742,M,36.997,M,3.2,7107*40
$GPGGA,071150.30,3542.300734175,N,13943.273865452,E,5,09,0.97,23.742,M,36.997,M,3.3,7107*41
$GPGGA,071150.40,3542.300734172,N,13943.273865455,E,5,09,0.97,23.742,M,36.997,M,3.4,7107*41
$GPGGA,071150.50,3542.300734173,N,13943.273865453,E,5,09,0.97,23.742,M,36.997,M,3.5,7107*46
$GPGGA,071150.60,3542.300734166,N,13943.273865465,E,5,09,0.97,23.742,M,36.997,M,3.6,7107*47
$GPGGA,071150.70,3542.300734157,N,13943.273865474,E,5,10,0.91,23.742,M,36.997,M,3.7,7107*4B
$GPGGA,071150.80,3542.300734135,N,13943.273865487,E,5,10,0.91,23.742,M,36.997,M,3.8,7107*43
$GPGGA,071150.90,3542.300734118,N,13943.273865501,E,5,10,0.91,23.742,M,36.997,M,3.9,7107*43
$GPGGA,071151.00,3542.300734100,N,13943.273865515,E,5,10,0.91,23.742,M,36.997,M,4.0,7107*49
$GPGGA,071151.10,3542.300734080,N,13943.273865531,E,5,10,0.91,23.743,M,36.997,M,4.1,7107*47
$GPGGA,071151.20,3542.300734064,N,13943.273865543,E,5,10,0.91,23.743,M,36.997,M,4.2,7107*48
$GPGGA,071151.30,3542.300734067,N,13943.273865546,E,5,10,0.91,23.743,M,36.997,M,4.3,7107*4E
$GPGGA,071151.40,3542.300734065,N,13943.273865549,E,5,09,0.97,23.743,M,36.997,M,4.4,7107*4D
$GPGGA,071151.50,3542.300734063,N,13943.273865560,E,5,09,0.97,23.743,M,36.997,M,4.5,7107*40
$GPGGA,071151.60,3542.300734063,N,13943.273865568,E,5,09,0.97,23.743,M,36.997,M,4.6,7107*48
$GPGGA,071151.70,3542.300734056,N,13943.273865571,E,5,09,0.97,23.743,M,36.997,M,4.7,7107*46
$GPGGA,071151.80,3542.300734050,N,13943.273865579,E,5,09,0.97,23.743,M,36.997,M,4.8,7107*48
$GPGGA,071151.90,3542.300734045,N,13943.273865585,E,5,09,0.97,23.743,M,36.997,M,4.9,7107*4F
$GPGGA,071152.00,3542.300734044,N,13943.273865598,E,5,09,0.97,23.743,M,36.997,M,5.0,7107*40
$GPGGA,071152.10,3542.300734041,N,13943.273865604,E,4,10,0.97,23.743,M,36.997,M,5.1,7107*4A
$GPGGA,071152.20,3542.300733956,N,13943.273865653,E,4,10,0.97,23.742,M,36.997,M,5.2,7107*41
$GPGGA,071152.30,3542.300733767,N,13943.273865718,E,4,10,0.97,23.742,M,36.997,M,5.3,7107*43
$GPGGA,071152.40,3542.300733544,N,13943.273865716,E,4,10,0.97,23.742,M,36.997,M,5.4,7107*4E
$GPGGA,071152.50,3542.300733174,N,13943.273865667,E,4,10,0.97,23.742,M,36.997,M,5.5,7107*4E
$GPGGA,071152.60,3542.300733104,N,13943.273865834,E,4,10,0.97,23.742,M,36.997,M,5.6,7107*41
$GPGGA,071152.70,3542.300732866,N,13943.273865730,E,4,10,0.97,23.741,M,36.997,M,5.7,7107*45
$GPGGA,071152.80,3542.300732682,N,13943.273865757,E,4,10,0.97,23.741,M,36.997,M,5.8,7107*40
$GPGGA,071152.90,3542.300732562,N,13943.273865941,E,4,10,0.97,23.741,M,36.997,M,5.9,7107*44
$GPGGA,071153.00,3542.300732342,N,13943.273866009,E,4,10,0.97,23.741,M,36.997,M,6.0,7107*44
$GPGGA,071153.10,3542.300732100,N,13943.273866075,E,4,10,0.97,23.740,M,36.997,M,6.1,7107*4A
$GPGGA,071153.20,3542.300731980,N,13943.273866174,E,4,10,0.97,23.740,M,36.997,M,6.2,7107*49
$GPGGA,071153.30,3542.300731808,N,13943.273866154,E,4,10,0.97,23.740,M,36.997,M,6.3,7107*4A
$GPGGA,071153.40,3542.300731662,N,13943.273866262,E,4,10,0.97,23.740,M,36.997,M,6.4,7107*4E
$GPGGA,071153.50,3542.300731432,N,13943.273866292,E,5,09,0.97,23.740,M,36.997,M,6.5,7107*4F
$GPGGA,071153.60,3542.300731105,N,13943.273866184,E,5,09,0.97,23.740,M,36.997,M,6.6,7107*4A
$GPGGA,071153.70,3542.300731102,N,13943.273866190,E,5,09,0.97,23.740,M,36.997,M,6.7,7107*48
$GPGGA,071153.80,3542.300731101,N,13943.273866202,E,5,09,0.97,23.740,M,36.997,M,6.8,7107*43
$GPGGA,071153.90,3542.300731095,N,13943.273866207,E,5,09,0.97,23.740,M,36.997,M,6.9,7107*4A
$GPGGA,071154.00,3542.300731091,N,13943.273866213,E,5,09,0.97,23.740,M,36.997,M,7.0,7107*4D
$GPGGA,071154.10,3542.300731085,N,13943.273866224,E,5,09,0.97,23.740,M,36.997,M,2.1,7107*49
$GPGGA,071154.20,3542.300731076,N,13943.273866233,E,4,11,0.93,23.740,M,36.997,M,2.2,7107*4F
$GPGGA,071154.30,3542.300730956,N,13943.273866336,E,4,11,0.93,23.740,M,36.997,M,2.3,7107*41
$GPGGA,071154.40,3542.300730708,N,13943.273866149,E,4,11,0.93,23.740,M,36.997,M,2.4,7107*4E
$GPGGA,071154.50,3542.300730608,N,13943.273866241,E,4,11,0.93,23.739,M,36.997,M,2.5,7107*4A
$GPGGA,071154.60,3542.300730430,N,13943.273866242,E,4,11,0.93,23.739,M,36.997,M,2.6,7107*40
$GPGGA,071154.70,3542.300730243,N,13943.273866304,E,4,11,0.93,23.739,M,36.997,M,2.7,7107*41
$GPGGA,071154.80,3542.300730131,N,13943.273866359,E,4,11,0.93,23.738,M,36.997,M,2.8,7107*4E
$GPGGA,071154.90,3542.300729993,N,13943.273866416,E,4,11,0.93,23.738,M,36.997,M,2.9,7107*4A
$GPGGA,071155.00,3542.300729791,N,13943.273866440,E,4,11,0.93,23.737,M,36.997,M,3.0,7107*4A
$GPGGA,071155.10,3542.300729648,N,13943.273866522,E,4,11,0.93,23.737,M,36.997,M,3.1,7107*4A
$GPGGA,071155.20,3542.300729599,N,13943.273866577,E,5,08,1.03,23.737,M,36.997,M,3.2,7107*44
$GPGGA,071155.30,3542.300729308,N,13943.273866445,E,4,11,0.93,23.736,M,36.997,M,3.3,7107*4A
$GPGGA,071155.40,3542.300729149,N,13943.273866334,E,4,11,0.93,23.736,M,36.997,M,3.4,7107*4C
$GPGGA,071155.50,3542.300728978,N,13943.273866397,E,4,11,0.93,23.735,M,36.997,M,3.5,7107*4D
$GPGGA,071155.60,3542.300728809,N,13943.273866429,E,4,11,0.93,23.735,M,36.997,M,3.6,7107*48
$GPGGA,071155.70,3542.300728690,N,13943.273866488,E,4,11,0.93,23.735,M,36.997,M,3.7,7107*4D
$GPGGA,071155.80,3542.300728417,N,13943.273866343,E,4,11,0.93,23.734,M,36.997,M,3.8,7107*41
$GPGGA,071155.90,3542.300728249,N,13943.273866487,E,4,11,0.93,23.734,M,36.997,M,3.9,7107*43
$GPGGA,071156.00,3542.300728038,N,13943.273866504,E,4,11,0.93,23.733,M,36.997,M,4.0,7107*4E
$GPGGA,071156.10,3542.300728021,N,13943.273866692,E,4,11,0.93,23.733,M,36.997,M,4.1,7107*4A
$GPGGA,071156.20,3542.300727932,N,13943.273866863,E,4,11,0.93,23.732,M,36.997,M,4.2,7107*4F
$GPGGA,071156.30,3542.300727669,N,13943.273866947,E,4,11,0.93,23.732,M,36.997,M,4.3,7107*49
$GPGGA,071156.40,3542.300727715,N,13943.273867097,E,4,11,0.93,23.732,M,36.997,M,4.4,7107*46
$GPGGA,071156.50,3542.300727541,N,13943.273867165,E,4,11,0.93,23.732,M,36.997,M,4.5,7107*49
$GPGGA,071156.60,3542.300727523,N,13943.273867364,E,4,11,0.93,23.731,M,36.997,M,4.6,7107*4D
$GPGGA,071156.70,3542.300727237,N,13943.273867402,E,4,10,0.97,23.731,M,36.997,M,4.7,7107*4D
$GPGGA,071156.80,3542.300727138,N,13943.273867489,E,4,10,0.97,23.731,M,36.997,M,4.8,7107*42
$GPGGA,071156.90,3542.300727049,N,13943.273867694,E,4,10,0.97,23.731,M,36.997,M,4.9,7107*4B
$GPGGA,071157.00,3542.300726931,N,13943.273867762,E,4,10,0.97,23.730,M,36.997,M,5.0,7107*45
$GPGGA,071157.10,3542.300726748,N,13943.273867702,E,4,10,0.97,23.730,M,36.997,M,5.1,7107*43
$GPGGA,071157.20,3542.300726636,N,13943.273867884,E,4,10,0.97,23.730,M,36.997,M,5.2,7107*4A
$GPGGA,071157.30,3542.300726578,N,13943.273867895,E,4,10,0.97,23.729,M,36.997,M,5.3,7107*4B
$GPGGA,071157.40,3542.300726294,N,13943.273867883,E,4,10,0.97,23.729,M,36.997,M,5.4,7107*49
$GPGGA,071157.50,3542.300726064,N,13943.273868037,E,4,10,0.97,23.729,M,36.997,M,5.5,7107*4C
$GPGGA,071157.60,3542.300725949,N,13943.273868203,E,4,10,0.97,23.729,M,36.997,M,5.6,7107*4C
$GPGGA,071157.70,3542.300725899,N,13943.273868196,E,4,10,0.97,23.729,M,36.997,M,5.7,7107*4F
$GPGGA,071157.80,3542.300725779,N,13943.273868241,E,4,10,0.97,23.728,M,36.997,M,5.8,7107*46
$GPGGA,071157.90,3542.300725595,N,13943.273868278,E,4,10,0.97,23.728,M,36.997,M,5.9,7107*4C
$GPGGA,071158.00,3542.300725524,N,13943.273868343,E,4,10,0.97,23.728,M,36.997,M,6.0,7107*43
$GPGGA,071158.10,3542.300725485,N,13943.273868229,E,4,10,0.97,23.728,M,36.997,M,6.1,7107*44
$GPGGA,071158.20,3542.300725383,N,13943.273868296,E,4,10,0.97,23.728,M,36.997,M,6.2,7107*41
$GPGGA,071158.30,3542.300725424,N,13943.273868421,E,4,10,0.97,23.728,M,36.997,M,6.3,7107*41
$GPGGA,071158.40,3542.300725015,N,13943.273868499,E,4,10,0.97,23.727,M,36.997,M,6.4,7107*4B
$GPGGA,071158.50,3542.300725009,N,13943.273868584,E,4,10,0.97,23.727,M,36.997,M,6.5,7107*4B
$GPGGA,071158.60,3542.300724891,N,13943.273868649,E,4,10,0.97,23.727,M,36.997,M,6.6,7107*41
$GPGGA,071158.70,3542.300724959,N,13943.273868654,E,4,10,0.97,23.726,M,36.997,M,6.7,7107*49
$GPGGA,071158.80,3542.300724932,N,13943.273868657,E,4,10,0.97,23.726,M,36.997,M,6.8,7107*47
$GPGGA,071158.90,3542.300724562,N,13943.273868633,E,4,10,0.97,23.726,M,36.997,M,6.9,7107*4C
$GPGGA,071159.00,3542.300724418,N,13943.273868702,E,4,10,0.97,23.726,M,36.997,M,7.0,7107*43
$GPGGA,071159.10,3542.300724438,N,13943.273868927,E,4,10,0.97,23.726,M,36.997,M,2.1,7107*4D
$GPGGA,071159.20,3542.300724035,N,13943.273868792,E,4,10,0.97,23.726,M,36.997,M,2.2,7107*44
$GPGGA,071159.30,3542.300724049,N,13943.273868886,E,4,10,0.97,23.725,M,36.997,M,2.3,7107*46
$GPGGA,071159.40,3542.300723774,N,13943.273868727,E,4,10,0.97,23.725,M,36.997,M,2.4,7107*4C
$GPGGA,071159.50,3542.300723728,N,13943.273868785,E,4,10,0.97,23.725,M,36.997,M,2.5,7107*4D
$GPGGA,071159.60,3542.300723560,N,13943.273868779,E,4,10,0.97,23.725,M,36.997,M,2.6,7107*40
$GPGGA,071159.70,3542.300723490,N,13943.273868915,E,4,10,0.97,23.724,M,36.997,M,2.7,7107*4B
$GPGGA,071159.80,3542.300723442,N,13943.273868849,E,4,10,0.97,23.724,M,36.997,M,2.8,7107*4C
$GPGGA,071159.90,3542.300723215,N,13943.273868756,E,4,10,0.97,23.724,M,36.997,M,2.9,7107*49
$GPGGA,071200.00,3542.300723165,N,13943.273868699,E,4,10,0.97,23.723,M,36.997,M,3.0,7107*46
$GPGGA,071200.10,3542.300723089,N,13943.273868760,E,4,10,0.97,23.723,M,36.997,M,3.1,7107*42
$GPGGA,071200.20,3542.300722835,N,13943.273868554,E,4,10,0.97,23.723,M,36.997,M,3.2,7107*49
$GPGGA,071200.30,3542.300722718,N,13943.273868673,E,4,10,0.97,23.722,M,36.997,M,3.3,7107*4E
$GPGGA,071200.40,3542.300722604,N,13943.273868663,E,4,10,0.97,23.722,M,36.997,M,3.4,7107*43
$GPGGA,071200.50,3542.300722476,N,13943.273868564,E,4,10,0.97,23.722,M,36.997,M,3.5,7107*40
$GPGGA,071200.60,3542.300722169,N,13943.273868484,E,4,10,0.97,23.721,M,36.997,M,3.6,7107*47
$GPGGA,071200.70,3542.300722200,N,13943.273868599,E,4,10,0.97,23.721,M,36.997,M,3.7,7107*46
$GPGGA,071200.80,3542.300721966,N,13943.273868433,E,4,10,0.97,23.721,M,36.997,M,3.8,7107*4F
$GPGGA,071200.90,3542.300721740,N,13943.273868347,E,4,10,0.97,23.720,M,36.997,M,3.9,7107*40
$GPGGA,071201.00,3542.300721726,N,13943.273868392,E,4,10,0.97,23.720,M,36.997,M,4.0,7107*4E
$GPGGA,071201.10,3542.300721509,N,13943.273868195,E,4,09,1.08,23.720,M,36.997,M,4.1,7107*4B
$GPGGA,071201.20,3542.300721372,N,13943.273867922,E,4,10,0.97,23.719,M,36.997,M,4.2,7107*4F
$GPGGA,071201.30,3542.300721066,N,13943.273867739,E,4,10,0.97,23.719,M,36.997,M,4.3,7107*4D
$GPGGA,071201.40,3542.300720742,N,13943.273867513,E,4,10,0.97,23.719,M,36.997,M,4.4,7107*47
$GPGGA,071201.50,3542.300720664,N,13943.273867641,E,4,10,0.97,23.719,M,36.997,M,4.5,7107*46
$GPGGA,071201.60,3542.300720583,N,13943.273867870,E,4,10,0.97,23.719,M,36.997,M,4.6,7107*40
$GPGGA,071201.70,3542.300719822,N,13943.273867166,E,4,10,0.97,23.718,M,36.997,M,4.7,7107*43
$GPGGA,071201.80,3542.300719596,N,13943.273867135,E,4,11,0.93,23.718,M,36.997,M,4.8,7107*42
$GPGGA,071201.90,3542.300719328,N,13943.273867027,E,4,11,0.93,23.717,M,36.997,M,4.9,7107*4C
$GPGGA,071202.00,3542.300719034,N,13943.273867013,E,4,11,0.93,23.717,M,36.997,M,5.0,7107*47
$GPGGA,071202.10,3542.300718777,N,13943.273866930,E,4,11,0.93,23.717,M,36.997,M,5.1,7107*4F
$GPGGA,071202.20,3542.300718455,N,13943.273866790,E,4,11,0.93,23.717,M,36.997,M,5.2,7107*48
$GPGGA,071202.30,3542.300718161,N,13943.273866674,E,4,11,0.93,23.716,M,36.997,M,5.3,7107*40
$GPGGA,071202.40,3542.300717945,N,13943.273866632,E,4,11,0.93,23.716,M,36.997,M,5.4,7107*43
$GPGGA,071202.50,3542.300717588,N,13943.273866470,E,4,11,0.93,23.716,M,36.997,M,5.5,7107*4A
$GPGGA,071202.60,3542.300717419,N,13943.273866440,E,4,11,0.93,23.715,M,36.997,M,5.6,7107*43
$GPGGA,071202.70,3542.300717369,N,13943.273866623,E,4,11,0.93,23.715,M,36.997,M,5.7,7107*44
$GPGGA,071202.80,3542.300717235,N,13943.273866860,E,4,11,0.93,23.715,M,36.997,M,5.8,7107*45
$GPGGA,071202.90,3542.300717143,N,13943.273867097,E,4,11,0.93,23.715,M,36.997,M,5.9,7107*46
$GPGGA,071203.00,3542.300716812,N,13943.273866897,E,4,10,0.97,23.715,M,36.997,M,6.0,7107*44
$GPGGA,071203.10,3542.300716560,N,13943.273866864,E,4,10,0.97,23.714,M,36.997,M,6.1,7107*41
$GPGGA,071203.20,3542.300716489,N,13943.273867069,E,4,10,0.97,23.714,M,36.997,M,6.2,7107*43
$GPGGA,071203.30,3542.300716369,N,13943.273867296,E,4,10,0.97,23.714,M,36.997,M,6.3,7107*48
$GPGGA,071203.40,3542.300716296,N,13943.273867497,E,4,10,0.97,23.714,M,36.997,M,6.4,7107*4E
$GPGGA,071203.50,3542.300716276,N,13943.273867691,E,4,10,0.97,23.714,M,36.997,M,6.5,7107*44
$GPGGA,071203.60,3542.300716180,N,13943.273868014,E,4,10,0.97,23.714,M,36.997,M,6.6,7107*4A
$GPGGA,071203.70,3542.300716063,N,13943.273868200,E,4,10,0.97,23.714,M,36.997,M,6.7,7107*41
$GPGGA,071203.80,3542.300715921,N,13943.273868440,E,4,10,0.97,23.714,M,36.997,M,6.8,7107*4F
$GPGGA,071203.90,3542.300715818,N,13943.273868707,E,4,10,0.97,23.714,M,36.997,M,6.9,7107*44
$GPGGA,071204.00,3542.300715719,N,13943.273868888,E,4,10,0.97,23.714,M,36.997,M,7.0,7107*44
$GPGGA,071204.10,3542.300715630,N,13943.273869140,E,4,10,0.97,23.714,M,36.997,M,2.1,7107*47
$GPGGA,071204.20,3542.300715503,N,13943.273869290,E,4,10,0.97,23.714,M,36.997,M,2.2,7107*4A
$GPGGA,071204.30,3542.300715560,N,13943.273869473,E,4,10,0.97,23.714,M,36.997,M,2.3,7107*44
$GPGGA,071204.40,3542.300715408,N,13943.273869681,E,4,10,0.97,23.714,M,36.997,M,2.4,7107*44
$GPGGA,071204.50,3542.300715289,N,13943.273869868,E,4,10,0.97,23.714,M,36.997,M,2.5,7107*42
$GPGGA,071204.60,3542.300715227,N,13943.273869982,E,4,10,0.97,23.714,M,36.997,M,2.6,7107*43
$GPGGA,071204.70,3542.300715247,N,13943.273870107,E,4,10,0.97,23.714,M,36.997,M,2.7,7107*48
$GPGGA,071204.80,3542.300715080,N,13943.273870316,E,4,10,0.97,23.714,M,36.997,M,2.8,7107*43
$GPGGA,071204.90,3542.300715054,N,13943.273870449,E,4,10,0.97,23.714,M,36.997,M,2.9,7107*47
$GPGGA,071205.00,3542.300714911,N,13943.273870546,E,4,10,0.97,23.714,M,36.997,M,3.0,7107*40
$GPGGA,071205.10,3542.300714794,N,13943.273870729,E,4,10,0.97,23.714,M,36.997,M,3.1,7107*48
$GPGGA,071205.20,3542.300714736,N,13943.273870878,E,4,10,0.97,23.714,M,36.997,M,3.2,7107*4B
$GPGGA,071205.30,3542.300714673,N,13943.273870924,E,5,08,1.03,23.714,M,36.997,M,3.3,7107*47
$GPGGA,071205.40,3542.300714586,N,13943.273871030,E,4,10,0.97,23.714,M,36.997,M,3.4,7107*47
$GPGGA,071205.50,3542.300714159,N,13943.273870627,E,4,10,0.97,23.713,M,36.997,M,3.5,7107*47
$GPGGA,071205.60,3542.300713560,N,13943.273870109,E,4,10,0.97,23.713,M,36.997,M,3.6,7107*45
$GPGGA,071205.70,3542.300713165,N,13943.273869784,E,4,10,0.97,23.712,M,36.997,M,3.7,7107*4E
$GPGGA,071205.80,3542.300712938,N,13943.273869604,E,4,10,0.97,23.712,M,36.997,M,3.8,7107*46
$GPGGA,071205.90,3542.300712944,N,13943.273869608,E,4,10,0.97,23.712,M,36.997,M,3.9,7107*41
$GPGGA,071206.00,3542.300712562,N,13943.273869331,E,4,10,0.97,23.712,M,36.997,M,4.0,7107*42
$GPGGA,071206.10,3542.300712200,N,13943.273869065,E,4,10,0.97,23.711,M,36.997,M,4.1,7107*40
$GPGGA,071206.20,3542.300711795,N,13943.273868778,E,4,10,0.97,23.711,M,36.997,M,4.2,7107*40
$GPGGA,071206.30,3542.300711498,N,13943.273868509,E,4,10,0.97,23.710,M,36.997,M,4.3,7107*4B
$GPGGA,071206.40,3542.300711176,N,13943.273868343,E,4,10,0.97,23.710,M,36.997,M,4.4,7107*46
$GPGGA,071206.50,3542.300710914,N,13943.273868260,E,4,10,0.97,23.709,M,36.997,M,4.5,7107*43
$GPGGA,071206.60,3542.300710580,N,13943.273868081,E,4,10,0.97,23.709,M,36.997,M,4.6,7107*4F
$GPGGA,071206.70,3542.300710302,N,13943.273867974,E,4,10,0.97,23.709,M,36.997,M,4.7,7107*4F
$GPGGA,071206.80,3542.300710056,N,13943.273867954,E,4,10,0.97,23.709,M,36.997,M,4.8,7107*4F
$GPGGA,071206.90,3542.300709754,N,13943.273867886,E,4,10,0.97,23.708,M,36.997,M,4.9,7107*4D
$GPGGA,071207.00,3542.300709557,N,13943.273867777,E,4,10,0.97,23.708,M,36.997,M,5.0,7107*4D
$GPGGA,071207.10,3542.300709173,N,13943.273867533,E,4,10,0.97,23.708,M,36.997,M,5.1,7107*4D
$GPGGA,071207.20,3542.300708774,N,13943.273867343,E,4,11,0.93,23.708,M,36.997,M,5.2,7107*49
$GPGGA,071207.30,3542.300708514,N,13943.273867285,E,4,10,0.97,23.707,M,36.997,M,5.3,7107*4C
$GPGGA,071207.40,3542.300708252,N,13943.273867218,E,4,10,0.97,23.707,M,36.997,M,5.4,7107*4D
$GPGGA,071207.50,3542.300708025,N,13943.273867211,E,4,10,0.97,23.707,M,36.997,M,5.5,7107*46
$GPGGA,071207.60,3542.300707738,N,13943.273867136,E,4,10,0.97,23.706,M,36.997,M,5.6,7107*45
$GPGGA,071207.70,3542.300707674,N,13943.273867333,E,4,10,0.97,23.706,M,36.997,M,5.7,7107*4B
$GPGGA,071207.80,3542.300707153,N,13943.273867009,E,4,10,0.97,23.706,M,36.997,M,5.8,7107*43
$GPGGA,071207.90,3542.300706893,N,13943.273867116,E,4,10,0.97,23.705,M,36.997,M,5.9,7107*4B
$GPGGA,071208.00,3542.300706619,N,13943.273867077,E,4,10,0.97,23.705,M,36.997,M,6.0,7107*4D
$GPGGA,071208.10,3542.300706360,N,13943.273866975,E,4,10,0.97,23.705,M,36.997,M,6.1,7107*4C
$GPGGA,071208.20,3542.300706124,N,13943.273867025,E,4,10,0.97,23.705,M,36.997,M,6.2,7107*43
$GPGGA,071208.30,3542.300705846,N,13943.273866928,E,4,10,0.97,23.704,M,36.997,M,6.3,7107*49
$GPGGA,071208.40,3542.300705611,N,13943.273866801,E,4,10,0.97,23.704,M,36.997,M,6.4,7107*4F
$GPGGA,071208.50,3542.300705415,N,13943.273866859,E,4,10,0.97,23.704,M,36.997,M,6.5,7107*44
$GPGGA,071208.60,3542.300705198,N,13943.273866888,E,4,10,0.97,23.703,M,36.997,M,6.6,7107*4F
$GPGGA,071208.70,3542.300705047,N,13943.273866954,E,4,10,0.97,23.703,M,36.997,M,6.7,7107*4C
$GPGGA,071208.80,3542.300704835,N,13943.273866871,E,4,10,0.97,23.703,M,36.997,M,6.8,7107*46
$GPGGA,071208.90,3542.300704665,N,13943.273866879,E,4,10,0.97,23.703,M,36.997,M,6.9,7107*45
$GPGGA,071209.00,3542.300704503,N,13943.273866865,E,4,10,0.97,23.702,M,36.997,M,7.0,7107*4A
$GPGGA,071209.10,3542.300704293,N,13943.273866827,E,4,11,0.93,23.702,M,36.997,M,2.1,7107*42
$GPGGA,071209.20,3542.300704215,N,13943.273866962,E,4,11,0.93,23.702,M,36.997,M,2.2,7107*4C
$GPGGA,071209.30,3542.300703965,N,13943.273866944,E,4,11,0.93,23.702,M,36.997,M,2.3,7107*43
$GPGGA,071209.40,3542.300703791,N,13943.273866995,E,4,11,0.93,23.701,M,36.997,M,2.4,7107*49
$GPGGA,071209.50,3542.300703604,N,13943.273867092,E,4,11,0.93,23.701,M,36.997,M,2.5,7107*4B
$GPGGA,071209.60,3542.300703182,N,13943.273867061,E,4,11,0.93,23.701,M,36.997,M,2.6,7107*4E
$GPGGA,071209.70,3542.300702994,N,13943.273867107,E,4,11,0.93,23.701,M,36.997,M,2.7,7107*41
$GPGGA,071209.80,3542.300702757,N,13943.273867213,E,4,11,0.93,23.701,M,36.997,M,2.8,7107*46
$GPGGA,071209.90,3542.300702437,N,13943.273867231,E,4,11,0.93,23.701,M,36.997,M,2.9,7107*43
$GPGGA,071210.00,3542.300702183,N,13943.273867268,E,4,11,0.93,23.701,M,36.997,M,3.0,7107*4C
$GPGGA,071210.10,3542.300702028,N,13943.273867387,E,4,11,0.93,23.701,M,36.997,M,3.1,7107*4C
$GPGGA,071210.20,3542.300701911,N,13943.273867471,E,4,11,0.93,23.700,M,36.997,M,3.2,7107*43
$GPGGA,071210.30,3542.300701523,N,13943.273867588,E,4,11,0.93,23.700,M,36.997,M,3.3,7107*49
$GPGGA,071210.40,3542.300701396,N,13943.273867740,E,4,11,0.93,23.700,M,36.997,M,3.4,7107*47
$GPGGA,071210.50,3542.300701033,N,13943.273867706,E,4,11,0.93,23.700,M,36.997,M,3.5,7107*49
$GPGGA,071210.60,3542.300700764,N,13943.273867825,E,4,11,0.93,23.700,M,36.997,M,3.6,7107*43
$GPGGA,071210.70,3542.300700485,N,13943.273867903,E,4,11,0.93,23.700,M,36.997,M,3.7,7107*4A
$GPGGA,071210.80,3542.300700426,N,13943.273867976,E,4,11,0.93,23.700,M,36.997,M,3.8,7107*41
$GPGGA,071210.90,3542.300700188,N,13943.273867924,E,4,11,0.93,23.700,M,36.997,M,3.9,7107*47
$GPGGA,071211.00,3542.300700089,N,13943.273868038,E,4,11,0.93,23.700,M,36.997,M,4.0,7107*4A
$GPGGA,071211.10,3542.300699770,N,13943.273868096,E,4,11,0.93,23.700,M,36.997,M,4.1,7107*4E
$GPGGA,071211.20,3542.300699600,N,13943.273868034,E,4,11,0.93,23.700,M,36.997,M,4.2,7107*40
$GPGGA,071211.30,3542.300699434,N,13943.273868093,E,4,11,0.93,23.700,M,36.997,M,4.3,7107*48
$GPGGA,071211.40,3542.300699134,N,13943.273868121,E,4,11,0.93,23.700,M,36.997,M,4.4,7107*45
$GPGGA,071211.50,3542.300698993,N,13943.273868189,E,4,11,0.93,23.700,M,36.997,M,4.5,7107*43
$GPGGA,071211.60,3542.300698748,N,13943.273868274,E,4,11,0.93,23.700,M,36.997,M,4.6,7107*4A
$GPGGA,071211.70,3542.300698657,N,13943.273868360,E,4,11,0.93,23.699,M,36.997,M,4.7,7107*40
$GPGGA,071211.80,3542.300698506,N,13943.273868495,E,4,11,0.93,23.699,M,36.997,M,4.8,7107*4A
$GPGGA,071211.90,3542.300698331,N,13943.273868549,E,4,11,0.93,23.699,M,36.997,M,4.9,7107*48
$GPGGA,071212.00,3542.300698076,N,13943.273868652,E,4,11,0.93,23.699,M,36.997,M,5.0,7107*43
$GPGGA,071212.10,3542.300697973,N,13943.273868701,E,4,11,0.93,23.699,M,36.997,M,5.1,7107*47
$GPGGA,071212.20,3542.300697844,N,13943.273868792,E,4,11,0.93,23.699,M,36.997,M,5.2,7107*48
$GPGGA,071212.30,3542.300697783,N,13943.273868943,E,4,11,0.93,23.699,M,36.997,M,5.3,7107*4E
$GPGGA,071212.40,3542.300697645,N,13943.273869020,E,4,11,0.93,23.699,M,36.997,M,5.4,7107*48
$GPGGA,071212.50,3542.300697442,N,13943.273869005,E,4,11,0.93,23.699,M,36.997,M,5.5,7107*4A
$GPGGA,071212.60,3542.300697403,N,13943.273869097,E,4,11,0.93,23.699,M,36.997,M,5.6,7107*44
$GPGGA,071212.70,3542.300697109,N,13943.273869259,E,4,11,0.93,23.699,M,36.997,M,5.7,7107*4B
$GPGGA,071212.80,3542.300697018,N,13943.273869290,E,4,11,0.93,23.699,M,36.997,M,5.8,7107*4F
$GPGGA,071212.90,3542.300696752,N,13943.273869451,E,4,11,0.93,23.699,M,36.997,M,5.9,7107*4C
$GPGGA,071213.00,3542.300696639,N,13943.273869551,E,4,11,0.93,23.699,M,36.997,M,6.0,7107*43
$GPGGA,071213.10,3542.300696367,N,13943.273869682,E,4,11,0.93,23.699,M,36.997,M,6.1,7107*40
$GPGGA,071213.20,3542.300696194,N,13943.273869851,E,4,11,0.93,23.699,M,36.997,M,6.2,7107*4E
$GPGGA,071213.30,3542.300696006,N,13943.273869889,E,4,11,0.93,23.699,M,36.997,M,6.3,7107*41
$GPGGA,071213.40,3542.300695734,N,13943.273870018,E,4,11,0.93,23.699,M,36.997,M,6.4,7107*4C
$GPGGA,071213.50,3542.300695663,N,13943.273870161,E,4,11,0.93,23.699,M,36.997,M,6.5,7107*40
$GPGGA,071213.60,3542.300695499,N,13943.273870204,E,4,11,0.93,23.699,M,36.997,M,6.6,7107*47
$GPGGA,071213.70,3542.300695511,N,13943.273870303,E,4,11,0.93,23.699,M,36.997,M,6.7,7107*40
$GPGGA,071213.80,3542.300695444,N,13943.273870442,E,4,11,0.93,23.699,M,36.997,M,6.8,7107*43
$GPGGA,071213.90,3542.300695257,N,13943.273870308,E,4,11,0.93,23.699,M,36.997,M,6.9,7107*4E
$GPGGA,071214.00,3542.300695050,N,13943.273870372,E,4,11,0.93,23.699,M,36.997,M,7.0,7107*40
$GPGGA,071214.10,3542.300694984,N,13943.273870461,E,4,11,0.93,23.699,M,36.997,M,7.1,7107*44
$GPGGA,071214.20,3542.300694863,N,13943.273870505,E,5,08,1.02,23.699,M,36.997,M,7.2,7107*4F
$GPGGA,071214.30,3542.300694758,N,13943.273870609,E,4,11,0.93,23.699,M,36.997,M,7.3,7107*47
$GPGGA,071214.40,3542.300694656,N,13943.273870718,E,4,11,0.93,23.699,M,36.997,M,7.4,7107*49
$GPGGA,071214.50,3542.300694532,N,13943.273870861,E,4,11,0.93,23.699,M,36.997,M,7.5,7107*49
$GPGGA,071214.60,3542.300694384,N,13943.273870992,E,4,11,0.93,23.699,M,36.997,M,7.6,7107*4F
$GPGGA,071214.70,3542.300694207,N,13943.273871107,E,4,11,0.93,23.699,M,36.997,M,7.7,7107*40
$GPGGA,071214.80,3542.300694033,N,13943.273871181,E,4,12,0.88,23.699,M,36.997,M,7.8,7107*42
$GPGGA,071214.90,3542.300693855,N,13943.273871363,E,4,12,0.88,23.699,M,36.997,M,7.9,7107*43
$GPGGA,071215.00,3542.300693691,N,13943.273871524,E,4,12,0.88,23.699,M,36.997,M,8.0,7107*4E
$GPGGA,071215.10,3542.300693455,N,13943.273871542,E,4,12,0.88,23.700,M,36.997,M,3.1,7107*4E
$GPGGA,071215.20,3542.300693273,N,13943.273871667,E,4,12,0.88,23.699,M,36.997,M,3.2,7107*49
$GPGGA,071215.30,3542.300692998,N,13943.273871768,E,4,12,0.88,23.699,M,36.997,M,3.3,7107*48
$GPGGA,071215.40,3542.300692750,N,13943.273871794,E,4,12,0.88,23.699,M,36.997,M,3.4,7107*41
$GPGGA,071215.50,3542.300692466,N,13943.273871890,E,4,12,0.88,23.699,M,36.997,M,3.5,7107*4C
$GPGGA,071215.60,3542.300692227,N,13943.273871956,E,4,12,0.88,23.699,M,36.997,M,3.6,7107*44
$GPGGA,071215.70,3542.300692072,N,13943.273872228,E,4,12,0.88,23.699,M,36.997,M,3.7,7107*47
$GPGGA,071215.80,3542.300691813,N,13943.273872373,E,4,12,0.88,23.699,M,36.997,M,3.8,7107*44
$GPGGA,071215.90,3542.300691571,N,13943.273872533,E,4,12,0.88,23.699,M,36.997,M,3.9,7107*4F
$GPGGA,071216.00,3542.300691390,N,13943.273872827,E,4,12,0.88,23.699,M,36.997,M,4.0,7107*4A
$GPGGA,071216.10,3542.300691178,N,13943.273872871,E,4,12,0.88,23.699,M,36.997,M,4.1,7107*4D
$GPGGA,071216.20,3542.300690950,N,13943.273872999,E,4,12,0.88,23.699,M,36.997,M,4.2,7107*49
$GPGGA,071216.30,3542.300690709,N,13943.273873149,E,4,12,0.88,23.699,M,36.997,M,4.3,7107*4F
$GPGGA,071216.40,3542.300690621,N,13943.273873315,E,4,12,0.88,23.699,M,36.997,M,4.4,7107*4F
$GPGGA,071216.50,3542.300690304,N,13943.273873349,E,4,12,0.88,23.699,M,36.997,M,4.5,7107*44
$GPGGA,071216.60,3542.300690218,N,13943.273873510,E,4,12,0.88,23.699,M,36.997,M,4.6,7107*42
$GPGGA,071216.70,3542.300690069,N,13943.273873625,E,4,12,0.88,23.699,M,36.997,M,4.7,7107*43
$GPGGA,071216.80,3542.300690072,N,13943.273873824,E,4,12,0.88,23.699,M,36.997,M,4.8,7107*46
$GPGGA,071216.90,3542.300689942,N,13943.273873901,E,4,12,0.88,23.699,M,36.997,M,4.9,7107*42
$GPGGA,071217.00,3542.300689709,N,13943.273874041,E,4,12,0.88,23.699,M,36.997,M,5.0,7107*49
$GPGGA,071217.10,3542.300689550,N,13943.273874077,E,4,12,0.88,23.699,M,36.997,M,5.1,7107*42
$GPGGA,071217.20,3542.300689469,N,13943.273874282,E,4,12,0.88,23.699,M,36.997,M,5.2,7107*41
$GPGGA,071217.30,3542.300689291,N,13943.273874292,E,5,09,0.97,23.699,M,36.997,M,5.3,7107*44
$GPGGA,071217.40,3542.300689012,N,13943.273874350,E,4,12,0.88,23.699,M,36.997,M,5.4,7107*47
$GPGGA,071217.50,3542.300688899,N,13943.273874499,E,4,12,0.88,23.699,M,36.997,M,5.5,7107*4F
$GPGGA,071217.60,3542.300688780,N,13943.273874621,E,4,12,0.88,23.699,M,36.997,M,5.6,7107*49
$GPGGA,071217.70,3542.300688561,N,13943.273874617,E,4,12,0.88,23.699,M,36.997,M,5.7,7107*41
$GPGGA,071217.80,3542.300688486,N,13943.273874759,E,4,12,0.88,23.699,M,36.997,M,5.8,7107*42
$GPGGA,071217.90,3542.300688318,N,13943.273874901,E,4,12,0.88,23.699,M,36.997,M,5.9,7107*41
$GPGGA,071218.00,3542.300688125,N,13943.273874929,E,4,12,0.88,23.700,M,36.997,M,6.0,7107*4A
$GPGGA,071218.10,3542.300687997,N,13943.273875068,E,4,12,0.88,23.700,M,36.997,M,6.1,7107*49
$GPGGA,071218.20,3542.300687705,N,13943.273875082,E,4,12,0.88,23.700,M,36.997,M,6.2,7107*48
$GPGGA,071218.30,3542.300687494,N,13943.273875057,E,4,12,0.88,23.700,M,36.997,M,6.3,7107*4B
$GPGGA,071218.40,3542.300687247,N,13943.273875150,E,4,10,0.97,23.700,M,36.997,M,6.4,7107*49
$GPGGA,071218.50,3542.300687008,N,13943.273875133,E,4,10,0.97,23.700,M,36.997,M,6.5,7107*45
$GPGGA,071218.60,3542.300686798,N,13943.273875140,E,4,10,0.97,23.700,M,36.997,M,6.6,7107*4E
$GPGGA,071218.70,3542.300686736,N,13943.273875206,E,4,10,0.97,23.700,M,36.997,M,6.7,7107*4B
$GPGGA,071218.80,3542.300686514,N,13943.273875099,E,4,11,0.93,23.700,M,36.997,M,6.8,7107*48
$GPGGA,071218.90,3542.300686412,N,13943.273875202,E,4,10,0.97,23.700,M,36.997,M,6.9,7107*4A
$GPGGA,071219.00,3542.300686145,N,13943.273875227,E,4,11,0.93,23.701,M,36.997,M,7.0,7107*4E
$GPGGA,071219.10,3542.300685935,N,13943.273875228,E,4,11,0.93,23.700,M,36.997,M,2.1,7107*49
$GPGGA,071219.20,3542.300685716,N,13943.273875339,E,4,11,0.93,23.701,M,36.997,M,2.2,7107*46
$GPGGA,071219.30,3542.300685589,N,13943.273875536,E,4,11,0.93,23.701,M,36.997,M,2.3,7107*4B
$GPGGA,071219.40,3542.300685405,N,13943.273875663,E,4,11,0.93,23.701,M,36.997,M,2.4,7107*4D
$GPGGA,071219.50,3542.300685230,N,13943.273875850,E,4,11,0.93,23.701,M,36.997,M,2.5,7107*43
$GPGGA,071219.60,3542.300684990,N,13943.273875888,E,4,11,0.93,23.701,M,36.997,M,2.6,7107*46
$GPGGA,071219.70,3542.300684896,N,13943.273876026,E,4,11,0.93,23.701,M,36.997,M,2.7,7107*4E
$GPGGA,071219.80,3542.300684657,N,13943.273876032,E,4,11,0.93,23.701,M,36.997,M,2.8,7107*48
$GPGGA,071219.90,3542.300684436,N,13943.273876030,E,4,11,0.93,23.701,M,36.997,M,2.9,7107*4F
$GPGGA,071220.00,3542.300684148,N,13943.273876114,E,4,10,0.97,23.702,M,36.997,M,3.0,7107*49
$GPGGA,071220.10,3542.300683888,N,13943.273876131,E,4,10,0.97,23.702,M,36.997,M,3.1,7107*4C
$GPGGA,071220.20,3542.300683613,N,13943.273876148,E,4,10,0.97,23.702,M,36.997,M,3.2,7107*4E
$GPGGA,071220.30,3542.300683285,N,13943.273876052,E,4,10,0.97,23.702,M,36.997,M,3.3,7107*4F
$GPGGA,071220.40,3542.300683173,N,13943.273876212,E,4,10,0.97,23.702,M,36.997,M,3.4,7107*43
$GPGGA,071220.50,3542.300682938,N,13943.273876441,E,4,10,0.97,23.702,M,36.997,M,3.5,7107*45
$GPGGA,071220.60,3542.300682764,N,13943.273876530,E,4,10,0.97,23.702,M,36.997,M,3.6,7107*45
$GPGGA,071220.70,3542.300682505,N,13943.273876593,E,4,10,0.97,23.702,M,36.997,M,3.7,7107*49
$GPGGA,071220.80,3542.300682335,N,13943.273876713,E,4,10,0.97,23.703,M,36.997,M,3.8,7107*47
$GPGGA,071220.90,3542.300682246,N,13943.273876897,E,4,10,0.97,23.702,M,36.997,M,3.9,7107*40
$GPGGA,071221.00,3542.300682120,N,13943.273877103,E,4,10,0.97,23.703,M,36.997,M,4.0,7107*41
$GPGGA,071221.10,3542.300681894,N,13943.273877200,E,4,10,0.97,23.703,M,36.997,M,4.1,7107*44
$GPGGA,071221.20,3542.300681771,N,13943.273877306,E,4,10,0.97,23.703,M,36.997,M,4.2,7107*47
$GPGGA,071221.30,3542.300681513,N,13943.273877352,E,4,10,0.97,23.703,M,36.997,M,4.3,7107*40
$GPGGA,071221.40,3542.300681336,N,13943.273877530,E,4,11,0.93,23.703,M,36.997,M,4.4,7107*46
$GPGGA,071221.50,3542.300681126,N,13943.273877563,E,4,12,0.88,23.703,M,36.997,M,4.5,7107*4A
$GPGGA,071221.60,3542.300680907,N,13943.273877649,E,4,12,0.88,23.703,M,36.997,M,4.6,7107*4B
$GPGGA,071221.70,3542.300680750,N,13943.273877800,E,4,12,0.88,23.703,M,36.997,M,4.7,7107*44
$GPGGA,071221.80,3542.300680471,N,13943.273877800,E,4,12,0.88,23.703,M,36.997,M,4.8,7107*44
$GPGGA,071221.90,3542.300680274,N,13943.273877888,E,4,12,0.88,23.703,M,36.997,M,4.9,7107*47
$GPGGA,071222.00,3542.300680051,N,13943.273878036,E,4,11,0.93,23.703,M,36.997,M,5.0,7107*4B
$GPGGA,071222.10,3542.300679969,N,13943.273878291,E,4,11,0.93,23.704,M,36.997,M,5.1,7107*47
$GPGGA,071222.20,3542.300679866,N,13943.273878373,E,4,11,0.93,23.704,M,36.997,M,5.2,7107*44
$GPGGA,071222.30,3542.300679620,N,13943.273878357,E,4,11,0.93,23.704,M,36.997,M,5.3,7107*4E
$GPGGA,071222.40,3542.300679354,N,13943.273878425,E,4,11,0.93,23.704,M,36.997,M,5.4,7107*4A
$GPGGA,071222.50,3542.300679218,N,13943.273878461,E,4,11,0.93,23.703,M,36.997,M,5.5,7107*44
$GPGGA,071222.60,3542.300679091,N,13943.273878598,E,4,11,0.93,23.704,M,36.997,M,5.6,7107*47
$GPGGA,071222.70,3542.300678919,N,13943.273878658,E,4,11,0.93,23.704,M,36.997,M,5.7,7107*40
$GPGGA,071222.80,3542.300678685,N,13943.273878646,E,4,11,0.93,23.704,M,36.997,M,5.8,7107*45
$GPGGA,071222.90,3542.300678340,N,13943.273878688,E,4,11,0.93,23.704,M,36.997,M,5.9,7107*4B
$GPGGA,071223.00,3542.300678277,N,13943.273878804,E,4,11,0.93,23.704,M,36.997,M,6.0,7107*46
$GPGGA,071223.10,3542.300678040,N,13943.273878704,E,4,11,0.93,23.704,M,36.997,M,6.1,7107*4F
$GPGGA,071223.20,3542.300677829,N,13943.273878717,E,4,11,0.93,23.704,M,36.997,M,6.2,7107*45
$GPGGA,071223.30,3542.300677667,N,13943.273878802,E,4,12,0.88,23.704,M,36.997,M,6.3,7107*43
$GPGGA,071223.40,3542.300677498,N,13943.273878791,E,4,12,0.88,23.704,M,36.997,M,6.4,7107*44
$GPGGA,071223.50,3542.300677346,N,13943.273878984,E,4,12,0.88,23.704,M,36.997,M,6.5,7107*4A
$GPGGA,071223.60,3542.300676979,N,13943.273879012,E,4,12,0.88,23.704,M,36.997,M,6.6,7107*4A
$GPGGA,071223.70,3542.300676863,N,13943.273879067,E,4,12,0.88,23.704,M,36.997,M,6.7,7107*42
$GPGGA,071223.80,3542.300676787,N,13943.273879252,E,4,12,0.88,23.704,M,36.997,M,6.8,7107*43
$GPGGA,071223.90,3542.300676556,N,13943.273879425,E,4,12,0.88,23.704,M,36.997,M,6.9,7107*4B
$GPGGA,071224.00,3542.300676192,N,13943.273879516,E,4,12,0.88,23.704,M,36.997,M,7.0,7107*40
$GPGGA,071224.10,3542.300675997,N,13943.273879439,E,4,12,0.88,23.704,M,36.997,M,2.1,7107*47
$GPGGA,071224.20,3542.300675884,N,13943.273879565,E,4,12,0.88,23.704,M,36.997,M,2.2,7107*4C
$GPGGA,071224.30,3542.300675704,N,13943.273879721,E,4,12,0.88,23.704,M,36.997,M,2.3,7107*49
$GPGGA,071224.40,3542.300675497,N,13943.273879898,E,4,12,0.88,23.704,M,36.997,M,2.4,7107*4D
$GPGGA,071224.50,3542.300675170,N,13943.273879978,E,4,12,0.88,23.705,M,36.997,M,2.5,7107*4F
$GPGGA,071224.60,3542.300675019,N,13943.273880230,E,4,12,0.88,23.705,M,36.997,M,2.6,7107*40
$GPGGA,071224.70,3542.300674834,N,13943.273880272,E,4,12,0.88,23.705,M,36.997,M,2.7,7107*40
$GPGGA,071224.80,3542.300674613,N,13943.273880350,E,4,12,0.88,23.705,M,36.997,M,2.8,7107*4A
$GPGGA,071224.90,3542.300674329,N,13943.273880409,E,4,12,0.88,23.705,M,36.997,M,2.9,7107*4D
$GPGGA,071225.00,3542.300674208,N,13943.273880601,E,4,12,0.88,23.705,M,36.997,M,3.0,7107*45
$GPGGA,071225.10,3542.300674068,N,13943.273880686,E,4,12,0.88,23.705,M,36.997,M,3.1,7107*4E
$GPGGA,071225.20,3542.300673879,N,13943.273880800,E,4,12,0.88,23.705,M,36.997,M,3.2,7107*41
$GPGGA,071225.30,3542.300673799,N,13943.273880960,E,4,12,0.88,23.705,M,36.997,M,3.3,7107*47
$GPGGA,071225.40,3542.300673606,N,13943.273881068,E,4,12,0.88,23.705,M,36.997,M,3.4,7107*40
$GPGGA,071225.50,3542.300673539,N,13943.273881139,E,4,12,0.88,23.705,M,36.997,M,3.5,7107*4A
$GPGGA,071225.60,3542.300673346,N,13943.273881298,E,5,08,1.02,23.705,M,36.997,M,3.6,7107*45
$GPGGA,071225.70,3542.300673363,N,13943.273881310,E,4,12,0.88,23.705,M,36.997,M,3.7,7107*4A
$GPGGA,071225.80,3542.300673280,N,13943.273881389,E,4,12,0.88,23.705,M,36.997,M,3.8,7107*46
$GPGGA,071225.90,3542.300673244,N,13943.273881632,E,4,12,0.88,23.705,M,36.997,M,3.9,7107*4B
$GPGGA,071226.00,3542.300673255,N,13943.273881812,E,5,08,1.02,23.705,M,36.997,M,4.0,7107*4A
$GPGGA,071226.10,3542.300674338,N,13943.273881415,E,5,08,1.02,23.705,M,36.997,M,4.1,7107*4C
$GPGGA,071226.20,3542.300677641,N,13943.273881159,E,5,08,1.02,23.706,M,36.997,M,4.2,7107*4A
$GPGGA,071226.30,3542.300683854,N,13943.273882069,E,5,08,1.02,23.708,M,36.997,M,4.3,7107*44
$GPGGA,071226.40,3542.300692070,N,13943.273885987,E,4,11,0.93,23.711,M,36.997,M,4.4,7107*4C
$GPGGA,071226.50,3542.300702116,N,13943.273888245,E,4,11,0.93,23.717,M,36.997,M,4.5,7107*4B
$GPGGA,071226.60,3542.300716535,N,13943.273896112,E,4,11,0.93,23.724,M,36.997,M,4.6,7107*45
$GPGGA,071226.70,3542.300723709,N,13943.273903801,E,4,11,0.93,23.695,M,36.997,M,4.7,7107*43
$GPGGA,071226.80,3542.300743793,N,13943.273915273,E,4,11,0.93,23.673,M,36.997,M,4.8,7107*46
$GPGGA,071226.90,3542.300766198,N,13943.273938946,E,4,10,1.10,23.673,M,36.997,M,4.9,7107*45
$GPGGA,071227.00,3542.300788696,N,13943.273950611,E,4,11,0.93,23.650,M,36.997,M,5.0,7107*45
$GPGGA,071227.10,3542.300815946,N,13943.273968821,E,4,11,0.93,23.644,M,36.997,M,5.1,7107*4F
$GPGGA,071227.20,3542.300841670,N,13943.273978925,E,4,11,0.93,23.640,M,36.997,M,5.2,7107*44
$GPGGA,071227.30,3542.300858098,N,13943.273997180,E,4,11,0.93,23.636,M,36.997,M,5.3,7107*4B
$GPGGA,071227.40,3542.300874682,N,13943.274023635,E,4,11,0.93,23.643,M,36.997,M,5.4,7107*42
$GPGGA,071227.50,3542.300898556,N,13943.274042826,E,4,11,0.93,23.638,M,36.997,M,5.5,7107*4D
$GPGGA,071227.60,3542.300921529,N,13943.274051165,E,4,12,0.88,23.650,M,36.997,M,5.6,7107*4D
$GPGGA,071227.70,3542.300933327,N,13943.274062135,E,4,11,0.93,23.654,M,36.997,M,5.7,7107*4E
$GPGGA,071227.80,3542.300947557,N,13943.274064352,E,4,10,0.97,23.686,M,36.997,M,5.8,7107*43
$GPGGA,071227.90,3542.300963477,N,13943.274069281,E,5,06,1.61,23.710,M,36.997,M,5.9,7107*44
$GPGGA,071228.00,3542.300978569,N,13943.274079325,E,5,07,1.47,23.684,M,36.997,M,6.0,7107*4B
$GPGGA,071228.10,3542.300993103,N,13943.274093508,E,5,09,0.97,23.690,M,36.997,M,6.1,7107*4C
$GPGGA,071228.20,3542.301005165,N,13943.274110942,E,4,10,0.97,23.700,M,36.997,M,6.2,7107*42
$GPGGA,071228.30,3542.301017694,N,13943.274119752,E,4,10,0.97,23.685,M,36.997,M,6.3,7107*42
$GPGGA,071228.40,3542.301034494,N,13943.274131811,E,4,10,0.97,23.641,M,36.997,M,6.4,7107*4B
$GPGGA,071228.50,3542.301042665,N,13943.274145150,E,4,11,0.92,23.624,M,36.997,M,6.5,7107*4E
$GPGGA,071228.60,3542.301050296,N,13943.274162744,E,4,11,0.92,23.609,M,36.997,M,6.6,7107*4C
$GPGGA,071228.70,3542.301069805,N,13943.274192664,E,5,10,0.91,23.572,M,36.997,M,6.7,7107*46
$GPGGA,071228.80,3542.301090072,N,13943.274210523,E,5,09,0.97,23.563,M,36.997,M,6.8,7107*4F
$GPGGA,071228.90,3542.301111368,N,13943.274232150,E,5,09,0.97,23.561,M,36.997,M,6.9,7107*4D
$GPGGA,071229.00,3542.301136383,N,13943.274257777,E,5,08,1.05,23.551,M,36.997,M,7.0,7107*45
$GPGGA,071229.10,3542.301161774,N,13943.274289639,E,5,08,1.24,23.573,M,36.997,M,2.1,7107*45
$GPGGA,071229.20,3542.301192214,N,13943.274322968,E,5,08,1.24,23.569,M,36.997,M,2.2,7107*4A
$GPGGA,071229.30,3542.301224861,N,13943.274380158,E,5,09,0.97,23.538,M,36.997,M,2.3,7107*43
$GPGGA,071229.40,3542.301240375,N,13943.274428960,E,5,09,0.97,23.532,M,36.997,M,2.4,7107*43
$GPGGA,071229.50,3542.301273709,N,13943.274465931,E,5,09,0.97,23.538,M,36.997,M,2.5,7107*4B
$GPGGA,071229.60,3542.301307768,N,13943.274517276,E,5,09,0.95,23.539,M,36.997,M,2.6,7107*41
$GPGGA,071229.70,3542.301322602,N,13943.274559038,E,5,10,0.91,23.529,M,36.997,M,2.7,7107*44
$GPGGA,071229.80,3542.301343684,N,13943.274601864,E,5,10,0.91,23.557,M,36.997,M,2.8,7107*4B
$GPGGA,071229.90,3542.301364735,N,13943.274637152,E,5,10,0.91,23.561,M,36.997,M,2.9,7107*49
$GPGGA,071230.00,3542.301384393,N,13943.274670903,E,5,10,0.91,23.559,M,36.997,M,3.0,7107*42
$GPGGA,071230.10,3542.301405126,N,13943.274703354,E,5,10,0.91,23.558,M,36.997,M,3.1,7107*4C
$GPGGA,071230.20,3542.301420897,N,13943.274736810,E,5,09,1.03,23.551,M,36.997,M,3.2,7107*4E
$GPGGA,071230.30,3542.301441855,N,13943.274765252,E,5,09,1.03,23.555,M,36.997,M,3.3,7107*49
$GPGGA,071230.40,3542.301460006,N,13943.274797762,E,5,09,1.03,23.550,M,36.997,M,3.4,7107*4A
$GPGGA,071230.50,3542.301479932,N,13943.274818295,E,5,08,1.25,23.553,M,36.997,M,3.5,7107*4F
$GPGGA,071230.60,3542.301503464,N,13943.274842334,E,5,07,1.46,23.552,M,36.997,M,3.6,7107*43
$GPGGA,071230.70,3542.301523627,N,13943.274858842,E,5,07,1.46,23.547,M,36.997,M,3.7,7107*41
$GPGGA,071230.80,3542.301551003,N,13943.274871041,E,5,08,1.08,23.560,M,36.997,M,3.8,7107*44
$GPGGA,071230.90,3542.301580798,N,13943.274887236,E,5,08,1.08,23.570,M,36.997,M,3.9,7107*47
$GPGGA,071231.00,3542.301605789,N,13943.274901098,E,5,08,1.25,23.562,M,36.997,M,4.0,7107*4A
$GPGGA,071231.10,3542.301634737,N,13943.274920718,E,5,08,1.34,23.557,M,36.997,M,4.1,7107*47
$GPGGA,071231.20,3542.301669091,N,13943.274947630,E,5,08,1.34,23.548,M,36.997,M,4.2,7107*40
