Message Type,UTC Time,Latitude,Latitude Direction,Longitude,Longitude Direction,GPS Quality Indicator,Number of Satellites,Horizontal Dilution of Precision (HDOP),Altitude,Altitude Units,Geoid Separation,Geoid Separation Units,DGPS Age,DGPS Station ID,Checksum
$GPGGA,121447,3542.306426,N,13943.28009,E,2,12,1.05,31.971,M,36.998,M,,,62
$GPGGA,121447.1,3542.306426,N,13943.28009,E,2,12,1.05,31.973,M,36.998,M,,,60
$GPGGA,121447.2,3542.306426,N,13943.28009,E,2,12,1.05,31.974,M,36.998,M,,,66
$GPGGA,121447.3,3542.306426,N,13943.28009,E,2,12,1.05,31.976,M,36.998,M,,,60
$GPGGA,121447.4,3542.306426,N,13943.28009,E,2,12,1.05,31.978,M,36.998,M,,,61
$GPGGA,121447.5,3542.306427,N,13943.28009,E,2,12,1.05,31.979,M,36.998,M,,,6C
$GPGGA,121447.6,3542.306427,N,13943.28009,E,2,12,1.05,31.981,M,36.998,M,,,65
$GPGGA,121447.7,3542.306427,N,13943.28009,E,2,12,1.05,31.982,M,36.998,M,,,61
$GPGGA,121447.8,3542.306427,N,13943.28009,E,2,12,1.05,31.984,M,36.998,M,,,6C
$GPGGA,121447.9,3542.306427,N,13943.28009,E,2,12,1.05,31.985,M,36.998,M,,,6E
$GPGGA,121448,3542.306427,N,13943.28009,E,2,12,1.05,31.987,M,36.998,M,,,60
$GPGGA,121448.1,3542.306427,N,13943.28009,E,2,12,1.05,31.988,M,36.998,M,,,63
$GPGGA,121448.2,3542.306427,N,13943.28009,E,2,12,1.05,31.99,M,36.998,M,,,6D
$GPGGA,121448.3,3542.306428,N,13943.28009,E,2,12,1.05,31.991,M,36.998,M,,,60
$GPGGA,121448.4,3542.306428,N,13943.28009,E,2,12,1.05,31.993,M,36.998,M,,,69
$GPGGA,121448.5,3542.306428,N,13943.28009,E,2,12,1.05,31.994,M,36.998,M,,,68
$GPGGA,121448.6,3542.306428,N,13943.28009,E,2,12,1.05,31.996,M,36.998,M,,,63
$GPGGA,121448.7,3542.306429,N,13943.28009,E,2,12,1.05,31.997,M,36.998,M,,,65
$GPGGA,121448.8,3542.306428,N,13943.28009,E,2,12,1.05,31.999,M,36.998,M,,,6E
$GPGGA,121448.9,3542.306428,N,13943.28008,E,2,12,1.05,32,M,36.998,M,,,61
$GPGGA,121449,3542.306427,N,13943.28008,E,2,12,1.05,32.002,M,36.998,M,,,6D
$GPGGA,121449.1,3542.306427,N,13943.28008,E,2,12,1.05,32.003,M,36.998,M,,,69
$GPGGA,121449.2,3542.306426,N,13943.28008,E,2,12,1.05,32.005,M,36.998,M,,,66
$GPGGA,121449.3,3542.306426,N,13943.28008,E,2,12,1.05,32.006,M,36.998,M,,,69
$GPGGA,121449.4,3542.306425,N,13943.28008,E,2,12,1.05,32.008,M,36.998,M,,,62
$GPGGA,121449.5,3542.306424,N,13943.28008,E,2,12,1.05,32.009,M,36.998,M,,,6B
$GPGGA,121449.6,3542.306424,N,13943.28008,E,2,12,1.05,32.011,M,36.998,M,,,62
$GPGGA,121449.7,3542.306423,N,13943.28008,E,2,12,1.05,32.012,M,36.998,M,,,68
$GPGGA,121449.8,3542.306423,N,13943.28008,E,2,12,1.05,32.014,M,36.998,M,,,67
$GPGGA,121449.9,3542.306422,N,13943.28008,E,2,12,1.05,32.015,M,36.998,M,,,6F
$GPGGA,121450,3542.306422,N,13943.28008,E,2,12,1.05,32.017,M,36.998,M,,,63
$GPGGA,121450.1,3542.306422,N,13943.28008,E,2,12,1.05,32.019,M,36.998,M,,,67
$GPGGA,121450.2,3542.306422,N,13943.28008,E,2,12,1.05,32.02,M,36.998,M,,,61
$GPGGA,121450.3,3542.306421,N,13943.28008,E,2,12,1.05,32.022,M,36.998,M,,,6B
$GPGGA,121450.4,3542.306421,N,13943.28008,E,2,12,1.05,32.023,M,36.998,M,,,67
$GPGGA,121450.5,3542.306421,N,13943.28008,E,2,12,1.05,32.025,M,36.998,M,,,65
$GPGGA,121450.6,3542.306421,N,13943.28008,E,2,12,1.05,32.026,M,36.998,M,,,69
$GPGGA,121450.7,3542.306421,N,13943.28008,E,2,12,1.05,32.028,M,36.998,M,,,6B
$GPGGA,121450.8,3542.30642,N,13943.28008,E,2,12,1.05,32.029,M,36.998,M,,,6D
$GPGGA,121450.9,3542.30642,N,13943.28008,E,2,12,1.05,32.031,M,36.998,M,,,60
$GPGGA,121451,3542.30642,N,13943.28008,E,2,12,1.05,32.032,M,36.998,M,,,6A
$GPGGA,121451.1,3542.30642,N,13943.28008,E,2,12,1.05,32.034,M,36.998,M,,,63
$GPGGA,121451.2,3542.30642,N,13943.28008,E,2,12,1.05,32.035,M,36.998,M,,,6F
$GPGGA,121451.3,3542.30642,N,13943.28008,E,2,12,1.05,32.037,M,36.998,M,,,6D
$GPGGA,121451.4,3542.30642,N,13943.28008,E,2,12,1.05,32.038,M,36.998,M,,,6D
$GPGGA,121451.5,3542.306419,N,13943.28008,E,2,12,1.05,32.04,M,36.998,M,,,6A
$GPGGA,121451.6,3542.306419,N,13943.28008,E,2,12,1.05,32.041,M,36.998,M,,,68
$GPGGA,121451.7,3542.306419,N,13943.28007,E,2,12,1.05,32.043,M,36.998,M,,,69
$GPGGA,121451.8,3542.306419,N,13943.28007,E,2,12,1.05,32.044,M,36.998,M,,,6C
$GPGGA,121451.9,3542.306419,N,13943.28007,E,2,12,1.05,32.046,M,36.998,M,,,6D
$GPGGA,121452,3542.306419,N,13943.28007,E,2,12,1.05,32.047,M,36.998,M,,,6F
$GPGGA,121452.1,3542.306419,N,13943.28007,E,2,12,1.05,32.048,M,36.998,M,,,62
$GPGGA,121452.2,3542.306419,N,13943.28007,E,2,12,1.05,32.05,M,36.998,M,,,6D
$GPGGA,121452.3,3542.306419,N,13943.28007,E,2,12,1.05,32.051,M,36.998,M,,,61
$GPGGA,121452.4,3542.306419,N,13943.28007,E,2,12,1.05,32.053,M,36.998,M,,,6D
$GPGGA,121452.5,3542.306419,N,13943.28007,E,2,12,1.05,32.054,M,36.998,M,,,63
$GPGGA,121452.6,3542.306419,N,13943.28007,E,2,12,1.05,32.055,M,36.998,M,,,6F
$GPGGA,121452.7,3542.30642,N,13943.28007,E,2,12,1.05,32.057,M,36.998,M,,,6A
$GPGGA,121452.8,3542.30642,N,13943.28007,E,2,12,1.05,32.058,M,36.998,M,,,6C
$GPGGA,121452.9,3542.30642,N,13943.28007,E,2,12,1.05,32.06,M,36.998,M,,,6E
$GPGGA,121453,3542.30642,N,13943.28007,E,2,12,1.05,32.061,M,36.998,M,,,60
$GPGGA,121453.1,3542.30642,N,13943.28007,E,2,12,1.05,32.062,M,36.998,M,,,6C
$GPGGA,121453.2,3542.30642,N,13943.28007,E,2,12,1.05,32.064,M,36.998,M,,,69
$GPGGA,121453.3,3542.306419,N,13943.28007,E,2,12,1.05,32.065,M,36.998,M,,,6A
$GPGGA,121453.4,3542.306419,N,13943.28007,E,2,12,1.05,32.066,M,36.998,M,,,62
$GPGGA,121453.5,3542.306419,N,13943.28007,E,2,12,1.05,32.068,M,36.998,M,,,64
$GPGGA,121453.6,3542.30642,N,13943.28007,E,2,12,1.05,32.069,M,36.998,M,,,64
$GPGGA,121453.7,3542.30642,N,13943.28007,E,2,12,1.05,32.07,M,36.998,M,,,6A
$GPGGA,121453.8,3542.30642,N,13943.28007,E,2,12,1.05,32.072,M,36.998,M,,,62
$GPGGA,121453.9,3542.30642,N,13943.28007,E,2,12,1.05,32.073,M,36.998,M,,,6A
$GPGGA,121454,3542.306419,N,13943.28007,E,2,12,1.05,32.075,M,36.998,M,,,6F
$GPGGA,121454.1,3542.306418,N,13943.28007,E,2,12,1.05,32.076,M,36.998,M,,,66
$GPGGA,121454.2,3542.306419,N,13943.28006,E,2,12,1.05,32.078,M,36.998,M,,,6D
$GPGGA,121454.3,3542.306418,N,13943.28006,E,2,12,1.05,32.079,M,36.998,M,,,66
$GPGGA,121454.4,3542.306418,N,13943.28006,E,2,12,1.05,32.081,M,36.998,M,,,62
$GPGGA,121454.5,3542.306417,N,13943.28006,E,2,12,1.05,32.082,M,36.998,M,,,68
$GPGGA,121454.6,3542.306417,N,13943.28006,E,2,12,1.05,32.084,M,36.998,M,,,6D
$GPGGA,121454.7,3542.306416,N,13943.28006,E,2,12,1.05,32.085,M,36.998,M,,,61
$GPGGA,121454.8,3542.306416,N,13943.28006,E,2,12,1.05,32.087,M,36.998,M,,,62
$GPGGA,121454.9,3542.306416,N,13943.28006,E,2,12,1.05,32.088,M,36.998,M,,,6E
$GPGGA,121455,3542.306415,N,13943.28006,E,2,12,1.05,32.09,M,36.998,M,,,64
$GPGGA,121455.1,3542.306415,N,13943.28006,E,2,12,1.05,32.092,M,36.998,M,,,6F
$GPGGA,121455.2,3542.306415,N,13943.28006,E,2,12,1.05,32.093,M,36.998,M,,,6E
$GPGGA,121455.3,3542.306415,N,13943.28006,E,2,12,1.05,32.095,M,36.998,M,,,67
$GPGGA,121455.4,3542.306414,N,13943.28006,E,2,12,1.05,32.097,M,36.998,M,,,60
$GPGGA,121455.5,3542.306414,N,13943.28006,E,2,12,1.05,32.099,M,36.998,M,,,62
$GPGGA,121455.6,3542.306414,N,13943.28006,E,2,12,1.05,32.1,M,36.998,M,,,66
$GPGGA,121455.7,3542.306414,N,13943.28006,E,2,12,1.05,32.102,M,36.998,M,,,6D
$GPGGA,121455.8,3542.306414,N,13943.28006,E,2,12,1.05,32.104,M,36.998,M,,,6C
$GPGGA,121455.9,3542.306414,N,13943.28006,E,2,12,1.05,32.106,M,36.998,M,,,63
$GPGGA,121456,3542.306414,N,13943.28006,E,2,12,1.05,32.108,M,36.998,M,,,68
$GPGGA,121456.1,3542.306413,N,13943.28006,E,2,12,1.05,32.11,M,36.998,M,,,62
$GPGGA,121456.2,3542.306414,N,13943.28006,E,2,12,1.05,32.112,M,36.998,M,,,6F
$GPGGA,121456.3,3542.306414,N,13943.28006,E,2,12,1.05,32.114,M,36.998,M,,,60
$GPGGA,121456.4,3542.306414,N,13943.28006,E,2,12,1.05,32.116,M,36.998,M,,,68
$GPGGA,121456.5,3542.306414,N,13943.28006,E,2,12,1.05,32.119,M,36.998,M,,,6D
$GPGGA,121456.6,3542.306414,N,13943.28006,E,2,12,1.05,32.121,M,36.998,M,,,63
$GPGGA,121456.7,3542.306414,N,13943.28006,E,2,12,1.05,32.123,M,36.998,M,,,6D
$GPGGA,121456.8,3542.306414,N,13943.28006,E,2,12,1.05,32.125,M,36.998,M,,,69
$GPGGA,121456.9,3542.306414,N,13943.28006,E,2,12,1.05,32.127,M,36.998,M,,,6B
$GPGGA,121457,3542.306414,N,13943.28006,E,2,12,1.05,32.13,M,36.998,M,,,60
$GPGGA,121457.1,3542.306414,N,13943.28006,E,2,12,1.05,32.132,M,36.998,M,,,64
$GPGGA,121457.2,3542.306414,N,13943.28006,E,2,12,1.05,32.135,M,36.998,M,,,62
$GPGGA,121457.3,3542.306414,N,13943.28006,E,2,12,1.05,32.137,M,36.998,M,,,6A
$GPGGA,121457.4,3542.306414,N,13943.28006,E,2,12,1.05,32.139,M,36.998,M,,,6E
$GPGGA,121457.5,3542.306414,N,13943.28006,E,2,12,1.05,32.142,M,36.998,M,,,6B
$GPGGA,121457.6,3542.306414,N,13943.28006,E,2,12,1.05,32.144,M,36.998,M,,,6D
$GPGGA,121457.7,3542.306414,N,13943.28006,E,2,12,1.05,32.147,M,36.998,M,,,63
$GPGGA,121457.8,3542.306414,N,13943.28006,E,2,12,1.05,32.149,M,36.998,M,,,61
$GPGGA,121457.9,3542.306414,N,13943.28006,E,2,12,1.05,32.151,M,36.998,M,,,62
$GPGGA,121458,3542.306415,N,13943.28006,E,2,12,1.05,32.154,M,36.998,M,,,65
$GPGGA,121458.1,3542.306415,N,13943.28006,E,2,12,1.05,32.156,M,36.998,M,,,66
$GPGGA,121458.2,3542.306415,N,13943.28006,E,2,12,1.05,32.159,M,36.998,M,,,66
$GPGGA,121458.3,3542.306415,N,13943.28006,E,2,12,1.05,32.161,M,36.998,M,,,6C
$GPGGA,121458.4,3542.306415,N,13943.28006,E,2,12,1.05,32.164,M,36.998,M,,,61
$GPGGA,121458.5,3542.306415,N,13943.28006,E,2,12,1.05,32.166,M,36.998,M,,,6A
$GPGGA,121458.6,3542.306415,N,13943.28005,E,2,12,1.05,32.169,M,36.998,M,,,6C
$GPGGA,121458.7,3542.306415,N,13943.28005,E,2,12,1.05,32.171,M,36.998,M,,,6B
$GPGGA,121458.8,3542.306415,N,13943.28005,E,2,12,1.05,32.174,M,36.998,M,,,63
$GPGGA,121458.9,3542.306415,N,13943.28005,E,2,12,1.05,32.176,M,36.998,M,,,65
$GPGGA,121459,3542.306415,N,13943.28005,E,2,12,1.05,32.179,M,36.998,M,,,6A
$GPGGA,121459.1,3542.306415,N,13943.28005,E,2,12,1.05,32.181,M,36.998,M,,,6D
$GPGGA,121459.2,3542.306415,N,13943.28005,E,2,12,1.05,32.184,M,36.998,M,,,68
$GPGGA,121459.3,3542.306415,N,13943.28005,E,2,12,1.05,32.187,M,36.998,M,,,6A
$GPGGA,121459.4,3542.306415,N,13943.28005,E,2,12,1.05,32.189,M,36.998,M,,,69
$GPGGA,121459.5,3542.306415,N,13943.28005,E,2,12,1.05,32.192,M,36.998,M,,,66
$GPGGA,121459.6,3542.306415,N,13943.28005,E,2,12,1.05,32.195,M,36.998,M,,,6E
$GPGGA,121459.7,3542.306415,N,13943.28005,E,2,12,1.05,32.197,M,36.998,M,,,60
$GPGGA,121459.8,3542.306415,N,13943.28005,E,2,12,1.05,32.2,M,36.998,M,,,66
$GPGGA,121459.9,3542.306415,N,13943.28005,E,2,12,1.05,32.203,M,36.998,M,,,6F
$GPGGA,121500,3542.306415,N,13943.28005,E,2,18,0.8,32.206,M,36.998,M,,,6E
$GPGGA,121500.1,3542.306415,N,13943.28005,E,2,20,0.74,32.208,M,36.998,M,,,6D
$GPGGA,121500.2,3542.306415,N,13943.28005,E,2,20,0.74,32.211,M,36.998,M,,,61
$GPGGA,121500.3,3542.306415,N,13943.28005,E,2,20,0.74,32.214,M,36.998,M,,,67
$GPGGA,121500.4,3542.306415,N,13943.28005,E,2,20,0.74,32.217,M,36.998,M,,,6B
$GPGGA,121500.5,3542.306415,N,13943.28005,E,2,20,0.74,32.22,M,36.998,M,,,6C
$GPGGA,121500.6,3542.306415,N,13943.28005,E,2,20,0.74,32.223,M,36.998,M,,,6C
$GPGGA,121500.7,3542.306415,N,13943.28005,E,2,20,0.74,32.226,M,36.998,M,,,65
$GPGGA,121500.8,3542.306415,N,13943.28005,E,2,20,0.74,32.229,M,36.998,M,,,60
$GPGGA,121500.9,3542.306414,N,13943.28005,E,2,20,0.74,32.232,M,36.998,M,,,6F
$GPGGA,121501,3542.306414,N,13943.28005,E,2,20,0.74,32.235,M,36.998,M,,,66
$GPGGA,121501.1,3542.306414,N,13943.28005,E,5,12,0.92,32.237,M,36.998,M,4.1,7107,4B
$GPGGA,121501.2,3542.306146,N,13943.27965,E,5,12,0.92,31.935,M,36.998,M,4.2,7107,41
$GPGGA,121501.3,3542.3061,N,13943.27948,E,5,12,0.92,31.564,M,36.998,M,4.3,7107,4F
$GPGGA,121501.4,3542.306074,N,13943.27944,E,5,12,0.92,31.313,M,36.998,M,4.4,7107,48
$GPGGA,121501.5,3542.306052,N,13943.2794,E,5,12,0.92,31.088,M,36.998,M,4.5,7107,4F
$GPGGA,121501.6,3542.306035,N,13943.27938,E,5,12,0.92,30.935,M,36.998,M,4.6,7107,43
$GPGGA,121501.7,3542.30603,N,13943.27938,E,5,12,0.92,30.809,M,36.998,M,4.7,7107,45
$GPGGA,121501.8,3542.306024,N,13943.27937,E,5,12,0.92,30.717,M,36.998,M,4.8,7107,46
$GPGGA,121501.9,3542.30602,N,13943.27936,E,5,12,0.92,30.624,M,36.998,M,4.9,7107,49
$GPGGA,121502,3542.306017,N,13943.27936,E,5,12,0.92,30.553,M,36.998,M,5,7107,4D
$GPGGA,121502.1,3542.306014,N,13943.27935,E,5,12,0.92,30.488,M,36.998,M,5.1,7107,49
$GPGGA,121502.2,3542.306014,N,13943.27935,E,5,12,0.92,30.433,M,36.998,M,5.2,7107,46
$GPGGA,121502.3,3542.306011,N,13943.27934,E,5,12,0.92,30.381,M,36.998,M,5.3,7107,47
$GPGGA,121502.4,3542.306008,N,13943.27934,E,5,12,0.92,30.325,M,36.998,M,5.4,7107,4A
$GPGGA,121502.5,3542.306005,N,13943.27933,E,5,12,0.92,30.281,M,36.998,M,5.5,7107,4A
$GPGGA,121502.6,3542.306009,N,13943.27933,E,5,12,0.92,30.245,M,36.998,M,5.6,7107,4B
$GPGGA,121502.7,3542.306007,N,13943.27933,E,5,12,0.92,30.217,M,36.998,M,5.7,7107,43
$GPGGA,121502.8,3542.306005,N,13943.27932,E,5,12,0.92,30.179,M,36.998,M,5.8,7107,44
$GPGGA,121502.9,3542.306004,N,13943.27932,E,5,12,0.92,30.139,M,36.998,M,5.9,7107,43
$GPGGA,121503,3542.306005,N,13943.27932,E,5,12,0.92,30.1,M,36.998,M,6,7107,42
$GPGGA,121503.1,3542.305999,N,13943.27932,E,5,12,0.92,30.08,M,36.998,M,1.1,7107,4E
$GPGGA,121503.2,3542.305997,N,13943.27932,E,5,12,0.92,30.058,M,36.998,M,1.2,7107,4A
$GPGGA,121503.3,3542.305994,N,13943.27931,E,5,12,0.92,30.028,M,36.998,M,1.3,7107,4F
$GPGGA,121503.4,3542.305993,N,13943.27931,E,5,12,0.92,30.006,M,36.998,M,1.4,7107,45
$GPGGA,121503.5,3542.30599,N,13943.27931,E,5,12,0.92,29.98,M,36.998,M,1.5,7107,4D
$GPGGA,121503.6,3542.305986,N,13943.27931,E,5,12,0.92,29.951,M,36.998,M,1.6,7107,44
$GPGGA,121503.7,3542.305986,N,13943.2793,E,5,12,0.92,29.935,M,36.998,M,1.7,7107,43
$GPGGA,121503.8,3542.305987,N,13943.2793,E,5,12,0.92,29.906,M,36.998,M,1.8,7107,4B
$GPGGA,121503.9,3542.305985,N,13943.2793,E,5,12,0.92,29.899,M,36.998,M,1.9,7107,47
$GPGGA,121504,3542.305983,N,13943.2793,E,5,12,0.92,29.871,M,36.998,M,2,7107,4B
$GPGGA,121504.1,3542.305982,N,13943.27929,E,5,12,0.92,29.853,M,36.998,M,2.1,7107,49
$GPGGA,121504.2,3542.305981,N,13943.27929,E,5,12,0.92,29.837,M,36.998,M,2.2,7107,42
$GPGGA,121504.3,3542.30598,N,13943.27929,E,5,12,0.92,29.819,M,36.998,M,2.3,7107,4F
$GPGGA,121504.4,3542.305981,N,13943.27929,E,5,12,0.92,29.795,M,36.998,M,2.4,7107,46
$GPGGA,121504.5,3542.305979,N,13943.27929,E,5,12,0.92,29.787,M,36.998,M,2.5,7107,48
$GPGGA,121504.6,3542.305977,N,13943.27929,E,5,12,0.92,29.774,M,36.998,M,2.6,7107,48
$GPGGA,121504.7,3542.305978,N,13943.27929,E,5,12,0.92,29.755,M,36.998,M,2.7,7107,46
$GPGGA,121504.8,3542.30598,N,13943.27928,E,5,12,0.92,29.739,M,36.998,M,2.8,7107,41
$GPGGA,121504.9,3542.305978,N,13943.27928,E,5,12,0.92,29.73,M,36.998,M,2.9,7107,41
$GPGGA,121505,3542.305977,N,13943.27928,E,5,12,0.92,29.712,M,36.998,M,3,7107,48
$GPGGA,121505.1,3542.305978,N,13943.27928,E,5,12,0.92,29.703,M,36.998,M,3.1,7107,43
$GPGGA,121505.2,3542.305977,N,13943.27928,E,5,12,0.92,29.695,M,36.998,M,3.2,7107,49
$GPGGA,121505.3,3542.305978,N,13943.27928,E,5,12,0.92,29.681,M,36.998,M,3.3,7107,47
$GPGGA,121505.4,3542.305977,N,13943.27928,E,5,12,0.92,29.673,M,36.998,M,3.4,7107,4B
$GPGGA,121505.5,3542.305979,N,13943.27928,E,5,12,0.92,29.667,M,36.998,M,3.5,7107,48
$GPGGA,121505.6,3542.305977,N,13943.27928,E,5,12,0.92,29.664,M,36.998,M,3.6,7107,42
$GPGGA,121505.7,3542.305979,N,13943.27928,E,5,12,0.92,29.644,M,36.998,M,3.7,7107,40
$GPGGA,121505.8,3542.305983,N,13943.27928,E,5,12,0.92,29.634,M,36.998,M,3.8,7107,4E
$GPGGA,121505.9,3542.30598,N,13943.27927,E,5,12,0.92,29.624,M,36.998,M,3.9,7107,4C
$GPGGA,121506,3542.305979,N,13943.27927,E,5,12,0.92,29.626,M,36.998,M,4,7107,41
$GPGGA,121506.1,3542.305978,N,13943.27927,E,5,12,0.92,29.615,M,36.998,M,4.1,7107,4B
$GPGGA,121506.2,3542.30598,N,13943.27927,E,5,12,0.92,29.607,M,36.998,M,4.2,7107,4B
$GPGGA,121506.3,3542.30598,N,13943.27927,E,5,12,0.92,29.599,M,36.998,M,4.3,7107,4A
$GPGGA,121506.4,3542.30598,N,13943.27927,E,5,12,0.92,29.597,M,36.998,M,4.4,7107,47
$GPGGA,121506.5,3542.305983,N,13943.27927,E,5,12,0.92,29.584,M,36.998,M,4.5,7107,4B
$GPGGA,121506.6,3542.305981,N,13943.27927,E,5,12,0.92,29.571,M,36.998,M,4.6,7107,47
$GPGGA,121506.7,3542.305979,N,13943.27927,E,5,12,0.92,29.566,M,36.998,M,4.7,7107,47
$GPGGA,121506.8,3542.30598,N,13943.27927,E,5,12,0.92,29.558,M,36.998,M,4.8,7107,4D
$GPGGA,121506.9,3542.30598,N,13943.27926,E,5,12,0.92,29.549,M,36.998,M,4.9,7107,43
$GPGGA,121507,3542.305983,N,13943.27926,E,5,12,0.92,29.546,M,36.998,M,5,7107,44
$GPGGA,121507.1,3542.305984,N,13943.27926,E,5,12,0.92,29.544,M,36.998,M,5.1,7107,42
$GPGGA,121507.2,3542.305982,N,13943.27926,E,5,12,0.92,29.534,M,36.998,M,5.2,7107,46
$GPGGA,121507.3,3542.305984,N,13943.27926,E,5,12,0.92,29.525,M,36.998,M,5.3,7107,46
$GPGGA,121507.4,3542.305984,N,13943.27926,E,5,12,0.92,29.517,M,36.998,M,5.4,7107,47
$GPGGA,121507.5,3542.305984,N,13943.27926,E,5,12,0.92,29.502,M,36.998,M,5.5,7107,40
$GPGGA,121507.6,3542.305983,N,13943.27926,E,5,12,0.92,29.496,M,36.998,M,5.6,7107,43
$GPGGA,121507.7,3542.305984,N,13943.27926,E,5,12,0.92,29.483,M,36.998,M,5.7,7107,4B
$GPGGA,121507.8,3542.305985,N,13943.27926,E,5,12,0.92,29.474,M,36.998,M,5.8,7107,49
$GPGGA,121507.9,3542.305987,N,13943.27926,E,5,12,0.92,29.472,M,36.998,M,5.9,7107,49
$GPGGA,121508,3542.305985,N,13943.27926,E,5,12,0.92,29.46,M,36.998,M,6,7107,41
$GPGGA,121508.1,3542.305986,N,13943.27926,E,5,12,0.92,29.45,M,36.998,M,1.1,7107,42
$GPGGA,121508.2,3542.305989,N,13943.27926,E,5,12,0.92,29.445,M,36.998,M,1.2,7107,4D
$GPGGA,121508.3,3542.305989,N,13943.27926,E,5,12,0.92,29.44,M,36.998,M,1.3,7107,4A
$GPGGA,121508.4,3542.305991,N,13943.27926,E,5,12,0.92,29.429,M,36.998,M,1.4,7107,47
$GPGGA,121508.5,3542.305989,N,13943.27926,E,5,12,0.92,29.424,M,36.998,M,1.5,7107,45
$GPGGA,121508.6,3542.30599,N,13943.27926,E,5,12,0.92,29.418,M,36.998,M,1.6,7107,40
$GPGGA,121508.7,3542.305991,N,13943.27925,E,5,12,0.92,29.412,M,36.998,M,1.7,7107,49
$GPGGA,121508.8,3542.305993,N,13943.27926,E,5,12,0.92,29.401,M,36.998,M,1.8,7107,44
$GPGGA,121508.9,3542.305994,N,13943.27926,E,5,12,0.92,29.39,M,36.998,M,1.9,7107,4D
$GPGGA,121509,3542.305996,N,13943.27926,E,5,12,0.92,29.387,M,36.998,M,2,7107,48
$GPGGA,121509.1,3542.305999,N,13943.27926,E,5,12,0.92,29.395,M,36.998,M,2.1,7107,4C
$GPGGA,121509.2,3542.305997,N,13943.27926,E,5,12,0.92,29.384,M,36.998,M,2.2,7107,46
$GPGGA,121509.3,3542.305997,N,13943.27926,E,5,12,0.92,29.378,M,36.998,M,2.3,7107,40
$GPGGA,121509.4,3542.305998,N,13943.27926,E,5,12,0.92,29.372,M,36.998,M,2.4,7107,4E
$GPGGA,121509.5,3542.305996,N,13943.27926,E,5,12,0.92,29.354,M,36.998,M,2.5,7107,4E
$GPGGA,121509.6,3542.305995,N,13943.27925,E,5,12,0.92,29.343,M,36.998,M,2.6,7107,44
$GPGGA,121509.7,3542.305994,N,13943.27925,E,5,12,0.92,29.332,M,36.998,M,2.7,7107,42
$GPGGA,121509.8,3542.305992,N,13943.27925,E,5,12,0.92,29.323,M,36.998,M,2.8,7107,40
$GPGGA,121509.9,3542.305885,N,13943.27938,E,5,12,0.92,29.257,M,36.998,M,2.9,7107,4B
$GPGGA,121510,3542.305863,N,13943.27941,E,5,12,0.92,29.108,M,36.998,M,3,7107,4A
$GPGGA,121510.1,3542.305853,N,13943.27942,E,5,12,0.92,29.006,M,36.998,M,3.1,7107,41
$GPGGA,121510.2,3542.30585,N,13943.27943,E,5,12,0.92,28.931,M,36.998,M,3.2,7107,4B
$GPGGA,121510.3,3542.305848,N,13943.27944,E,5,12,0.92,28.875,M,36.998,M,3.3,7107,47
$GPGGA,121510.4,3542.305848,N,13943.27944,E,5,12,0.92,28.834,M,36.998,M,3.4,7107,46
$GPGGA,121510.5,3542.305845,N,13943.27944,E,5,12,0.92,28.789,M,36.998,M,3.5,7107,41
$GPGGA,121510.6,3542.305845,N,13943.27944,E,5,12,0.92,28.751,M,36.998,M,3.6,7107,4E
$GPGGA,121510.7,3542.305847,N,13943.27944,E,5,12,0.92,28.717,M,36.998,M,3.7,7107,49
$GPGGA,121510.8,3542.305842,N,13943.27944,E,5,12,0.92,28.693,M,36.998,M,3.8,7107,4C
$GPGGA,121510.9,3542.305843,N,13943.27944,E,5,12,0.92,28.669,M,36.998,M,3.9,7107,44
$GPGGA,121511,3542.305841,N,13943.27944,E,5,12,0.92,28.644,M,36.998,M,4,7107,4F
$GPGGA,121511.1,3542.30584,N,13943.27944,E,5,12,0.92,28.628,M,36.998,M,4.1,7107,4F
$GPGGA,121511.2,3542.30584,N,13943.27944,E,5,12,0.92,28.618,M,36.998,M,4.2,7107,49
$GPGGA,121511.3,3542.305841,N,13943.27944,E,5,12,0.92,28.593,M,36.998,M,4.3,7107,47
$GPGGA,121511.4,3542.305838,N,13943.27945,E,5,12,0.92,28.583,M,36.998,M,4.4,7107,4A
$GPGGA,121511.5,3542.305837,N,13943.27945,E,5,12,0.92,28.564,M,36.998,M,4.5,7107,48
$GPGGA,121511.6,3542.305837,N,13943.27945,E,5,12,0.92,28.552,M,36.998,M,4.6,7107,45
$GPGGA,121511.7,3542.305836,N,13943.27945,E,5,12,0.92,28.548,M,36.998,M,4.7,7107,4E
$GPGGA,121511.8,3542.305833,N,13943.27945,E,5,12,0.92,28.543,M,36.998,M,4.8,7107,4C
$GPGGA,121511.9,3542.305833,N,13943.27945,E,5,12,0.92,28.535,M,36.998,M,4.9,7107,49
$GPGGA,121512,3542.305832,N,13943.27945,E,5,12,0.92,28.524,M,36.998,M,5,7107,45
$GPGGA,121512.1,3542.30583,N,13943.27945,E,5,12,0.92,28.515,M,36.998,M,5.1,7107,4E
$GPGGA,121512.2,3542.305829,N,13943.27945,E,5,12,0.92,28.512,M,36.998,M,5.2,7107,4B
$GPGGA,121512.3,3542.305829,N,13943.27945,E,5,12,0.92,28.502,M,36.998,M,5.3,7107,4A
$GPGGA,121512.4,3542.305828,N,13943.27945,E,5,12,0.92,28.495,M,36.998,M,5.4,7107,44
$GPGGA,121512.5,3542.305827,N,13943.27945,E,5,12,0.92,28.478,M,36.998,M,5.5,7107,4C
$GPGGA,121512.6,3542.305827,N,13943.27945,E,5,12,0.92,28.471,M,36.998,M,5.6,7107,4C
$GPGGA,121512.7,3542.305826,N,13943.27945,E,5,12,0.92,28.462,M,36.998,M,5.7,7107,4D
$GPGGA,121512.8,3542.305825,N,13943.27945,E,5,12,0.92,28.452,M,36.998,M,5.8,7107,4B
$GPGGA,121512.9,3542.305825,N,13943.27945,E,5,12,0.92,28.449,M,36.998,M,5.9,7107,43
$GPGGA,121513,3542.305825,N,13943.27945,E,5,12,0.92,28.435,M,36.998,M,6,7107,46
$GPGGA,121513.1,3542.305824,N,13943.27945,E,5,12,0.92,28.435,M,36.998,M,6.1,7107,4C
$GPGGA,121513.2,3542.305823,N,13943.27945,E,5,12,0.92,28.439,M,36.998,M,6.2,7107,40
$GPGGA,121513.3,3542.305822,N,13943.27945,E,5,12,0.92,28.431,M,36.998,M,6.3,7107,42
$GPGGA,121513.4,3542.305822,N,13943.27945,E,5,12,0.92,28.421,M,36.998,M,6.4,7107,43
$GPGGA,121513.5,3542.305819,N,13943.27945,E,5,12,0.92,28.412,M,36.998,M,6.5,7107,44
$GPGGA,121513.6,3542.305821,N,13943.27945,E,5,12,0.92,28.406,M,36.998,M,6.6,7107,4B
$GPGGA,121513.7,3542.305819,N,13943.27945,E,5,12,0.92,28.397,M,36.998,M,6.7,7107,43
$GPGGA,121513.8,3542.305819,N,13943.27944,E,5,12,0.92,28.388,M,36.998,M,6.8,7107,42
$GPGGA,121513.9,3542.305818,N,13943.27944,E,5,12,0.92,28.393,M,36.998,M,6.9,7107,4B
$GPGGA,121514,3542.305817,N,13943.27944,E,5,12,0.92,28.39,M,36.998,M,7,7107,43
$GPGGA,121514.1,3542.305816,N,13943.27945,E,5,12,0.92,28.385,M,36.998,M,2.1,7107,42
$GPGGA,121514.2,3542.305815,N,13943.27945,E,5,12,0.92,28.384,M,36.998,M,2.2,7107,4D
$GPGGA,121514.3,3542.305815,N,13943.27944,E,5,12,0.92,28.378,M,36.998,M,2.3,7107,46
$GPGGA,121514.4,3542.305816,N,13943.27945,E,5,12,0.92,28.377,M,36.998,M,2.4,7107,4A
$GPGGA,121514.5,3542.305816,N,13943.27945,E,5,12,0.92,28.371,M,36.998,M,2.5,7107,4B
$GPGGA,121514.6,3542.305815,N,13943.27945,E,5,12,0.92,28.37,M,36.998,M,2.6,7107,43
$GPGGA,121514.7,3542.305811,N,13943.27945,E,5,12,0.92,28.356,M,36.998,M,2.7,7107,49
$GPGGA,121514.8,3542.305811,N,13943.27945,E,5,12,0.92,28.356,M,36.998,M,2.8,7107,4B
$GPGGA,121514.9,3542.305809,N,13943.27945,E,5,12,0.92,28.348,M,36.998,M,2.9,7107,40
$GPGGA,121515,3542.305808,N,13943.27945,E,5,12,0.92,28.349,M,36.998,M,3,7107,48
$GPGGA,121515.1,3542.305806,N,13943.27945,E,5,12,0.92,28.344,M,36.998,M,3.1,7107,4B
$GPGGA,121515.2,3542.305806,N,13943.27945,E,5,12,0.92,28.329,M,36.998,M,3.2,7107,43
$GPGGA,121515.3,3542.305805,N,13943.27945,E,5,12,0.92,28.31,M,36.998,M,3.3,7107,4F
$GPGGA,121515.4,3542.305805,N,13943.27944,E,5,12,0.92,28.32,M,36.998,M,3.4,7107,4E
$GPGGA,121515.5,3542.305803,N,13943.27944,E,5,12,0.92,28.306,M,36.998,M,3.5,7107,4B
$GPGGA,121515.6,3542.3058,N,13943.27945,E,5,12,0.92,28.291,M,36.998,M,3.6,7107,42
$GPGGA,121515.7,3542.305798,N,13943.27944,E,5,12,0.92,28.283,M,36.998,M,3.7,7107,42
$GPGGA,121515.8,3542.305797,N,13943.27944,E,5,12,0.92,28.276,M,36.998,M,3.8,7107,4E
$GPGGA,121515.9,3542.305795,N,13943.27944,E,5,12,0.92,28.271,M,36.998,M,3.9,7107,48
$GPGGA,121516,3542.305794,N,13943.27944,E,5,12,0.92,28.266,M,36.998,M,4,7107,4B
$GPGGA,121516.1,3542.305794,N,13943.27945,E,5,12,0.92,28.256,M,36.998,M,4.1,7107,47
$GPGGA,121516.2,3542.30575,N,13943.27944,E,5,12,0.92,28.258,M,36.998,M,4.2,7107,4A
$GPGGA,121516.3,3542.305735,N,13943.27944,E,5,12,0.92,28.178,M,36.998,M,4.3,7107,4E
$GPGGA,121516.4,3542.30573,N,13943.27944,E,5,12,0.92,28.121,M,36.998,M,4.4,7107,4C
$GPGGA,121516.5,3542.305728,N,13943.27944,E,5,12,0.92,28.077,M,36.998,M,4.5,7107,40
$GPGGA,121516.6,3542.305726,N,13943.27945,E,5,12,0.92,28.037,M,36.998,M,4.6,7107,47
$GPGGA,121516.7,3542.305726,N,13943.27945,E,5,12,0.92,27.998,M,36.998,M,4.7,7107,49
$GPGGA,121516.8,3542.305724,N,13943.27946,E,5,12,0.92,27.954,M,36.998,M,4.8,7107,42
$GPGGA,121516.9,3542.305725,N,13943.27947,E,5,12,0.92,27.921,M,36.998,M,4.9,7107,4B
$GPGGA,121517,3542.305727,N,13943.27947,E,5,12,0.92,27.883,M,36.998,M,5,7107,40
$GPGGA,121517.1,3542.305726,N,13943.27948,E,5,12,0.92,27.858,M,36.998,M,5.1,7107,48
$GPGGA,121517.2,3542.305727,N,13943.27948,E,5,12,0.92,27.838,M,36.998,M,5.2,7107,4E
$GPGGA,121517.3,3542.305726,N,13943.27948,E,5,12,0.92,27.816,M,36.997,M,5.3,7107,4F
$GPGGA,121517.4,3542.305726,N,13943.27948,E,5,12,0.92,27.795,M,36.997,M,5.4,7107,45
$GPGGA,121517.5,3542.305727,N,13943.27948,E,5,12,0.92,27.782,M,36.997,M,5.5,7107,42
$GPGGA,121517.6,3542.305725,N,13943.27949,E,5,12,0.92,27.766,M,36.997,M,5.6,7107,4B
$GPGGA,121517.7,3542.305727,N,13943.27949,E,5,12,0.92,27.752,M,36.997,M,5.7,7107,44
$GPGGA,121517.8,3542.305728,N,13943.27949,E,5,12,0.92,27.743,M,36.997,M,5.8,7107,49
$GPGGA,121517.9,3542.305728,N,13943.27949,E,5,12,0.92,27.739,M,36.997,M,5.9,7107,42
$GPGGA,121518,3542.305729,N,13943.27949,E,5,12,0.92,27.719,M,36.997,M,6,7107,49
$GPGGA,121518.1,3542.305727,N,13943.27949,E,5,12,0.92,27.704,M,36.997,M,1.1,7107,47
$GPGGA,121518.2,3542.305723,N,13943.27949,E,5,12,0.92,27.682,M,36.997,M,1.2,7107,4C
$GPGGA,121518.3,3542.305726,N,13943.27949,E,5,12,0.92,27.679,M,36.997,M,1.3,7107,46
$GPGGA,121518.4,3542.305726,N,13943.27949,E,5,12,0.92,27.668,M,36.997,M,1.4,7107,42
$GPGGA,121518.5,3542.305724,N,13943.27949,E,5,12,0.92,27.652,M,36.997,M,1.5,7107,46
$GPGGA,121518.6,3542.305727,N,13943.27949,E,5,12,0.92,27.635,M,36.997,M,1.6,7107,43
$GPGGA,121518.7,3542.305727,N,13943.27949,E,5,12,0.92,27.634,M,36.997,M,1.7,7107,4C
$GPGGA,121518.8,3542.305729,N,13943.27949,E,5,12,0.92,27.63,M,36.997,M,1.8,7107,4E
$GPGGA,121518.9,3542.305727,N,13943.27949,E,5,12,0.92,27.613,M,36.997,M,1.9,7107,44
$GPGGA,121519,3542.30573,N,13943.2795,E,5,12,0.92,27.611,M,36.997,M,2,7107,45
$GPGGA,121519.1,3542.30573,N,13943.27949,E,5,12,0.92,27.606,M,36.997,M,2.1,7107,44
$GPGGA,121519.2,3542.305732,N,13943.2795,E,5,12,0.92,27.595,M,36.997,M,2.2,7107,4B
$GPGGA,121519.3,3542.305732,N,13943.27949,E,5,12,0.92,27.597,M,36.997,M,2.3,7107,4A
$GPGGA,121519.4,3542.305733,N,13943.2795,E,5,12,0.92,27.604,M,36.997,M,2.4,7107,48
$GPGGA,121519.5,3542.305731,N,13943.2795,E,5,12,0.92,27.598,M,36.997,M,2.5,7107,44
$GPGGA,121519.6,3542.305732,N,13943.2795,E,5,12,0.92,27.589,M,36.997,M,2.6,7107,4D
$GPGGA,121519.7,3542.305733,N,13943.2795,E,5,12,0.92,27.585,M,36.997,M,2.7,7107,48
$GPGGA,121519.8,3542.305735,N,13943.2795,E,5,12,0.92,27.582,M,36.997,M,2.8,7107,49
$GPGGA,121519.9,3542.305734,N,13943.2795,E,5,12,0.92,27.578,M,36.997,M,2.9,7107,42
$GPGGA,121520,3542.305733,N,13943.2795,E,5,12,0.92,27.575,M,36.997,M,3,7107,45
$GPGGA,121520.1,3542.305733,N,13943.2795,E,5,12,0.92,27.57,M,36.997,M,3.1,7107,4D
$GPGGA,121520.2,3542.30573,N,13943.2795,E,5,12,0.92,27.566,M,36.997,M,3.2,7107,4E
$GPGGA,121520.3,3542.305732,N,13943.2795,E,5,12,0.92,27.567,M,36.997,M,3.3,7107,41
$GPGGA,121520.4,3542.305735,N,13943.2795,E,5,12,0.92,27.556,M,36.997,M,3.4,7107,4A
$GPGGA,121520.5,3542.305736,N,13943.27951,E,5,12,0.92,27.551,M,36.997,M,3.5,7107,44
$GPGGA,121520.6,3542.305737,N,13943.2795,E,5,12,0.92,27.55,M,36.997,M,3.6,7107,49
$GPGGA,121520.7,3542.305737,N,13943.2795,E,5,12,0.92,27.54,M,36.997,M,3.7,7107,41
$GPGGA,121520.8,3542.30574,N,13943.27951,E,5,12,0.92,27.542,M,36.997,M,3.8,7107,49
$GPGGA,121520.9,3542.30574,N,13943.2795,E,5,12,0.92,27.534,M,36.997,M,3.9,7107,47
$GPGGA,121521,3542.30574,N,13943.27951,E,5,12,0.92,27.531,M,36.997,M,4,7107,48
$GPGGA,121521.1,3542.305739,N,13943.27951,E,5,12,0.92,27.537,M,36.997,M,4.1,7107,47
$GPGGA,121521.2,3542.305743,N,13943.2795,E,5,12,0.92,27.551,M,36.998,M,4.2,7107,47
$GPGGA,121521.3,3542.305743,N,13943.27951,E,5,12,0.92,27.547,M,36.998,M,4.3,7107,43
$GPGGA,121521.4,3542.305742,N,13943.27951,E,5,12,0.92,27.544,M,36.997,M,4.4,7107,42
$GPGGA,121521.5,3542.305742,N,13943.27951,E,5,12,0.92,27.542,M,36.998,M,4.5,7107,46
$GPGGA,121521.6,3542.305746,N,13943.27951,E,5,12,0.92,27.534,M,36.998,M,4.6,7107,4F
$GPGGA,121521.7,3542.305747,N,13943.27951,E,5,12,0.92,27.542,M,36.998,M,4.7,7107,45
$GPGGA,121521.8,3542.305747,N,13943.27951,E,5,12,0.92,27.523,M,36.998,M,4.8,7107,4B
$GPGGA,121521.9,3542.305748,N,13943.27951,E,5,12,0.92,27.536,M,36.998,M,4.9,7107,44
$GPGGA,121522,3542.305747,N,13943.27951,E,5,12,0.92,27.541,M,36.998,M,5,7107,41
$GPGGA,121522.1,3542.305745,N,13943.27951,E,5,12,0.92,27.526,M,36.998,M,5.1,7107,4B
$GPGGA,121522.2,3542.305746,N,13943.27951,E,5,12,0.92,27.517,M,36.998,M,5.2,7107,4D
$GPGGA,121522.3,3542.305748,N,13943.27951,E,5,12,0.92,27.519,M,36.998,M,5.3,7107,47
$GPGGA,121522.4,3542.305748,N,13943.27951,E,5,12,0.92,27.509,M,36.998,M,5.4,7107,48
$GPGGA,121522.5,3542.30575,N,13943.2795,E,5,12,0.92,27.568,M,36.998,M,5.5,7107,42
$GPGGA,121522.6,3542.305749,N,13943.2795,E,5,12,0.92,27.523,M,36.998,M,5.6,7107,4A
$GPGGA,121522.7,3542.305749,N,13943.2795,E,5,12,0.92,27.489,M,36.998,M,5.7,7107,41
$GPGGA,121522.8,3542.305748,N,13943.2795,E,5,12,0.92,27.476,M,36.998,M,5.8,7107,47
$GPGGA,121522.9,3542.305747,N,13943.27949,E,5,12,0.92,27.458,M,36.998,M,5.9,7107,43
$GPGGA,121523,3542.305745,N,13943.27949,E,5,12,0.92,27.46,M,36.998,M,6,7107,4B
$GPGGA,121523.1,3542.305748,N,13943.27949,E,5,12,0.92,27.45,M,36.998,M,1.1,7107,4E
$GPGGA,121523.2,3542.305751,N,13943.27949,E,5,12,0.92,27.437,M,36.998,M,1.2,7107,4E
$GPGGA,121523.3,3542.305753,N,13943.27949,E,5,12,0.92,27.416,M,36.998,M,1.3,7107,4B
$GPGGA,121523.4,3542.305754,N,13943.27949,E,5,12,0.92,27.404,M,36.998,M,1.4,7107,4A
$GPGGA,121523.5,3542.305753,N,13943.27949,E,5,12,0.92,27.402,M,36.998,M,1.5,7107,48
$GPGGA,121523.6,3542.305753,N,13943.27949,E,5,12,0.92,27.399,M,36.998,M,1.6,7107,49
$GPGGA,121523.7,3542.305756,N,13943.27949,E,5,12,0.92,27.389,M,36.998,M,1.7,7107,4C
$GPGGA,121523.8,3542.305756,N,13943.27949,E,5,12,0.92,27.382,M,36.998,M,1.8,7107,4C
$GPGGA,121523.9,3542.305759,N,13943.27949,E,5,12,0.92,27.385,M,36.998,M,1.9,7107,4C
$GPGGA,121524,3542.30576,N,13943.27949,E,5,12,0.92,27.384,M,36.998,M,2,7107,40
$GPGGA,121524.1,3542.305764,N,13943.27949,E,5,12,0.92,27.39,M,36.998,M,2.1,7107,4E
$GPGGA,121524.2,3542.305766,N,13943.27949,E,5,12,0.92,27.405,M,36.998,M,2.2,7107,47
$GPGGA,121524.3,3542.30577,N,13943.27949,E,5,12,0.92,27.387,M,36.998,M,2.3,7107,41
$GPGGA,121524.4,3542.305771,N,13943.27949,E,5,12,0.92,27.392,M,36.998,M,2.4,7107,43
$GPGGA,121524.5,3542.305772,N,13943.27949,E,5,12,0.92,27.399,M,36.998,M,2.5,7107,4F
$GPGGA,121524.6,3542.305774,N,13943.27949,E,5,12,0.92,27.392,M,36.998,M,2.6,7107,47
$GPGGA,121524.7,3542.305773,N,13943.27949,E,5,12,0.92,27.386,M,36.998,M,2.7,7107,47
$GPGGA,121524.8,3542.305775,N,13943.27949,E,5,12,0.92,27.391,M,36.998,M,2.8,7107,4D
$GPGGA,121524.9,3542.305776,N,13943.27949,E,5,12,0.92,27.393,M,36.998,M,2.9,7107,46
$GPGGA,121525,3542.305777,N,13943.27949,E,5,12,0.92,27.397,M,36.998,M,3,7107,4B
$GPGGA,121525.1,3542.305779,N,13943.27949,E,5,12,0.92,27.403,M,36.998,M,3.1,7107,40
$GPGGA,121525.2,3542.305779,N,13943.27949,E,5,12,0.92,27.409,M,36.998,M,3.2,7107,48
$GPGGA,121525.3,3542.30578,N,13943.27949,E,5,12,0.92,27.424,M,36.998,M,3.3,7107,45
$GPGGA,121525.4,3542.305781,N,13943.27949,E,5,12,0.92,27.411,M,36.998,M,3.4,7107,4F
$GPGGA,121525.5,3542.305782,N,13943.27949,E,5,12,0.92,27.413,M,36.998,M,3.5,7107,44
$GPGGA,121525.6,3542.305783,N,13943.27949,E,5,12,0.92,27.409,M,36.998,M,3.6,7107,47
$GPGGA,121525.7,3542.305784,N,13943.27949,E,5,12,0.92,27.413,M,36.998,M,3.7,7107,44
$GPGGA,121525.8,3542.305785,N,13943.27949,E,5,12,0.92,27.408,M,36.998,M,3.8,7107,40
$GPGGA,121525.9,3542.305785,N,13943.27949,E,5,12,0.92,27.412,M,36.998,M,3.9,7107,44
$GPGGA,121526,3542.305784,N,13943.2795,E,5,12,0.92,27.406,M,36.998,M,4,7107,4C
$GPGGA,121526.1,3542.305783,N,13943.2795,E,5,12,0.92,27.406,M,36.998,M,4.1,7107,45
$GPGGA,121526.2,3542.305783,N,13943.27951,E,5,12,0.92,27.411,M,36.998,M,4.2,7107,4A
$GPGGA,121526.3,3542.305782,N,13943.27951,E,5,12,0.92,27.403,M,36.998,M,4.3,7107,4B
$GPGGA,121526.4,3542.305782,N,13943.27952,E,5,12,0.92,27.403,M,36.998,M,4.4,7107,49
$GPGGA,121526.5,3542.305786,N,13943.27952,E,5,12,0.92,27.407,M,36.998,M,4.5,7107,44
$GPGGA,121526.6,3542.305786,N,13943.27952,E,5,12,0.92,27.406,M,36.998,M,4.6,7107,4D
$GPGGA,121526.7,3542.305785,N,13943.27951,E,5,12,0.92,27.407,M,36.998,M,4.7,7107,40
$GPGGA,121526.8,3542.305786,N,13943.27952,E,5,12,0.92,27.407,M,36.998,M,4.8,7107,45
$GPGGA,121526.9,3542.305788,N,13943.27952,E,5,12,0.92,27.4,M,36.998,M,4.9,7107,47
$GPGGA,121527,3542.305788,N,13943.27952,E,5,12,0.92,27.392,M,36.998,M,5,7107,4B
$GPGGA,121527.1,3542.305789,N,13943.27952,E,5,12,0.92,27.387,M,36.998,M,5.1,7107,42
$GPGGA,121527.2,3542.305792,N,13943.27952,E,5,12,0.92,27.378,M,36.998,M,5.2,7107,42
$GPGGA,121527.3,3542.305792,N,13943.27952,E,5,12,0.92,27.377,M,36.998,M,5.3,7107,4C
$GPGGA,121527.4,3542.30579,N,13943.27953,E,5,12,0.92,27.371,M,36.998,M,5.4,7107,49
$GPGGA,121527.5,3542.305793,N,13943.27953,E,5,12,0.92,27.367,M,36.998,M,5.5,7107,46
$GPGGA,121527.6,3542.305796,N,13943.27953,E,5,12,0.92,27.368,M,36.998,M,5.6,7107,44
$GPGGA,121527.7,3542.305795,N,13943.27953,E,5,12,0.92,27.365,M,36.998,M,5.7,7107,4F
$GPGGA,121527.8,3542.305795,N,13943.27953,E,5,12,0.92,27.355,M,36.998,M,5.8,7107,40
$GPGGA,121527.9,3542.305797,N,13943.27953,E,5,12,0.92,27.364,M,36.998,M,5.9,7107,4A
$GPGGA,121528,3542.305796,N,13943.27953,E,5,12,0.92,27.351,M,36.998,M,6,7107,4E
$GPGGA,121528.1,3542.305796,N,13943.27954,E,5,12,0.92,27.342,M,36.998,M,1.1,7107,45
$GPGGA,121528.2,3542.305797,N,13943.27954,E,5,12,0.92,27.347,M,36.998,M,1.2,7107,4C
$GPGGA,121528.3,3542.305797,N,13943.27954,E,5,12,0.92,27.341,M,36.998,M,1.3,7107,4F
$GPGGA,121528.4,3542.305796,N,13943.27954,E,5,12,0.92,27.337,M,36.998,M,1.4,7107,40
$GPGGA,121528.5,3542.305796,N,13943.27954,E,5,12,0.92,27.342,M,36.998,M,1.5,7107,48
$GPGGA,121528.6,3542.305795,N,13943.27955,E,5,12,0.92,27.327,M,36.998,M,1.6,7107,4F
$GPGGA,121528.7,3542.305795,N,13943.27955,E,5,12,0.92,27.324,M,36.998,M,1.7,7107,40
$GPGGA,121528.8,3542.3058,N,13943.27966,E,5,12,0.92,27.381,M,36.997,M,1.8,7107,4A
$GPGGA,121528.9,3542.305809,N,13943.27968,E,5,12,0.92,27.342,M,36.997,M,1.9,7107,42
$GPGGA,121529,3542.305803,N,13943.2797,E,5,12,0.92,27.324,M,36.997,M,2,7107,46
$GPGGA,121529.1,3542.3058,N,13943.27971,E,5,12,0.92,27.303,M,36.997,M,2.1,7107,4D
$GPGGA,121529.2,3542.305799,N,13943.27972,E,5,12,0.92,27.294,M,36.997,M,2.2,7107,4E
$GPGGA,121529.3,3542.305796,N,13943.27972,E,5,12,0.92,27.26,M,36.997,M,2.3,7107,42
$GPGGA,121529.4,3542.305798,N,13943.27973,E,5,12,0.92,27.201,M,36.997,M,2.4,7107,4A
$GPGGA,121529.5,3542.305805,N,13943.27974,E,5,12,0.92,27.154,M,36.997,M,2.5,7107,41
$GPGGA,121529.6,3542.305804,N,13943.27974,E,5,12,0.92,27.115,M,36.997,M,2.6,7107,4F
$GPGGA,121529.7,3542.305809,N,13943.27975,E,5,12,0.92,27.07,M,36.997,M,2.7,7107,4E
$GPGGA,121529.8,3542.305817,N,13943.27974,E,5,12,0.92,27.051,M,36.997,M,2.8,7107,41
$GPGGA,121529.9,3542.305815,N,13943.27974,E,5,12,0.92,27.015,M,36.997,M,2.9,7107,4B
$GPGGA,121530,3542.305817,N,13943.27975,E,5,12,0.92,26.992,M,36.997,M,3,7107,4E
$GPGGA,121530.1,3542.305816,N,13943.27975,E,5,12,0.92,26.974,M,36.997,M,3.1,7107,41
$GPGGA,121530.2,3542.305814,N,13943.27977,E,5,12,0.92,27.002,M,36.997,M,3.2,7107,45
$GPGGA,121530.3,3542.305816,N,13943.27977,E,5,12,0.92,27.022,M,36.997,M,3.3,7107,4E
$GPGGA,121530.4,3542.305816,N,13943.27978,E,5,12,0.92,27.029,M,36.997,M,3.4,7107,4B
$GPGGA,121530.5,3542.305824,N,13943.27977,E,5,12,0.92,27.032,M,36.997,M,3.5,7107,4C
$GPGGA,121530.6,3542.305829,N,13943.27977,E,5,12,0.92,27.027,M,36.997,M,3.6,7107,40
$GPGGA,121530.7,3542.305833,N,13943.27976,E,5,12,0.92,27.034,M,36.997,M,3.7,7107,4C
$GPGGA,121530.8,3542.305836,N,13943.27977,E,5,12,0.92,27.029,M,36.997,M,3.8,7107,43
$GPGGA,121530.9,3542.305836,N,13943.27977,E,5,12,0.92,27.018,M,36.997,M,3.9,7107,40
$GPGGA,121531,3542.305837,N,13943.27978,E,5,12,0.92,27.003,M,36.997,M,4,7107,4C
$GPGGA,121531.1,3542.305836,N,13943.27978,E,5,12,0.92,27.003,M,36.997,M,4.1,7107,42
$GPGGA,121531.2,3542.305833,N,13943.27979,E,5,12,0.92,26.998,M,36.997,M,4.2,7107,4B
$GPGGA,121531.3,3542.305835,N,13943.27978,E,5,12,0.92,26.994,M,36.997,M,4.3,7107,47
$GPGGA,121531.4,3542.305839,N,13943.27978,E,5,12,0.92,26.993,M,36.997,M,4.4,7107,45
$GPGGA,121531.5,3542.305837,N,13943.27978,E,5,12,0.92,26.983,M,36.997,M,4.5,7107,47
$GPGGA,121531.6,3542.305836,N,13943.27978,E,5,12,0.92,26.976,M,36.997,M,4.6,7107,41
$GPGGA,121531.7,3542.305835,N,13943.27979,E,5,12,0.92,26.962,M,36.997,M,4.7,7107,46
$GPGGA,121531.8,3542.305833,N,13943.27979,E,5,12,0.92,26.949,M,36.997,M,4.8,7107,44
$GPGGA,121531.9,3542.305833,N,13943.27979,E,5,12,0.92,26.931,M,36.997,M,4.9,7107,4F
$GPGGA,121532,3542.305833,N,13943.2798,E,5,12,0.92,26.923,M,36.997,M,5,7107,45
$GPGGA,121532.1,3542.305836,N,13943.2798,E,5,12,0.92,26.911,M,36.997,M,5.1,7107,4E
$GPGGA,121532.2,3542.305837,N,13943.2798,E,5,12,0.92,26.902,M,36.997,M,5.2,7107,4C
$GPGGA,121532.3,3542.30584,N,13943.27979,E,5,12,0.92,26.913,M,36.997,M,5.3,7107,4F
$GPGGA,121532.4,3542.305845,N,13943.2798,E,5,12,0.92,26.932,M,36.997,M,5.4,7107,4C
$GPGGA,121532.5,3542.305845,N,13943.2798,E,5,12,0.92,26.93,M,36.997,M,5.5,7107,41
$GPGGA,121532.6,3542.305846,N,13943.2798,E,5,12,0.92,26.933,M,36.997,M,5.6,7107,46
$GPGGA,121532.7,3542.305847,N,13943.27979,E,5,12,0.92,26.935,M,36.997,M,5.7,7107,40
$GPGGA,121532.8,3542.305846,N,13943.27979,E,5,12,0.92,26.918,M,36.997,M,5.8,7107,46
$GPGGA,121532.9,3542.305845,N,13943.27978,E,5,12,0.92,26.928,M,36.997,M,5.9,7107,46
$GPGGA,121533,3542.305846,N,13943.27978,E,5,12,0.92,26.915,M,36.997,M,6,7107,4B
$GPGGA,121533.1,3542.305848,N,13943.27978,E,5,12,0.92,26.908,M,36.997,M,1.1,7107,46
$GPGGA,121533.2,3542.305848,N,13943.27978,E,5,12,0.92,26.914,M,36.997,M,1.2,7107,42
$GPGGA,121533.3,3542.305852,N,13943.27978,E,5,12,0.92,26.902,M,36.997,M,1.3,7107,47
$GPGGA,121533.4,3542.305856,N,13943.27978,E,5,12,0.92,26.883,M,36.997,M,1.4,7107,42
$GPGGA,121533.5,3542.305858,N,13943.27978,E,5,12,0.92,26.895,M,36.997,M,1.5,7107,49
$GPGGA,121533.6,3542.305858,N,13943.27978,E,5,12,0.92,26.886,M,36.997,M,1.6,7107,4F
$GPGGA,121533.7,3542.30586,N,13943.27978,E,5,12,0.92,26.883,M,36.997,M,1.7,7107,4F
$GPGGA,121533.8,3542.305861,N,13943.27978,E,5,12,0.92,26.884,M,36.997,M,1.8,7107,48
$GPGGA,121533.9,3542.30586,N,13943.27978,E,5,12,0.92,26.893,M,36.997,M,1.9,7107,49
$GPGGA,121534,3542.305863,N,13943.27977,E,5,12,0.92,26.9,M,36.997,M,2,7107,42
$GPGGA,121534.1,3542.305865,N,13943.27978,E,5,12,0.92,26.898,M,36.997,M,2.1,7107,42
$GPGGA,121534.2,3542.305863,N,13943.27977,E,5,12,0.92,26.898,M,36.997,M,2.2,7107,46
$GPGGA,121534.3,3542.305866,N,13943.27978,E,5,12,0.92,26.9,M,36.997,M,2.3,7107,46
$GPGGA,121534.4,3542.305868,N,13943.27977,E,5,12,0.92,26.883,M,36.997,M,2.4,7107,4A
$GPGGA,121534.5,3542.305867,N,13943.27977,E,5,12,0.92,26.884,M,36.997,M,2.5,7107,43
$GPGGA,121534.6,3542.305866,N,13943.27978,E,5,12,0.92,26.881,M,36.997,M,2.6,7107,48
$GPGGA,121534.7,3542.305868,N,13943.27977,E,5,12,0.92,26.864,M,36.997,M,2.7,7107,46
$GPGGA,121534.8,3542.305868,N,13943.27978,E,5,12,0.92,26.885,M,36.997,M,2.8,7107,46
$GPGGA,121534.9,3542.305871,N,13943.27977,E,5,12,0.92,26.866,M,36.997,M,2.9,7107,4F
$GPGGA,121535,3542.305894,N,13943.27975,E,5,12,0.92,26.912,M,36.998,M,3,7107,40
$GPGGA,121535.1,3542.305875,N,13943.27973,E,5,12,0.92,26.91,M,36.998,M,3.1,7107,43
$GPGGA,121535.2,3542.30587,N,13943.27972,E,5,12,0.92,26.912,M,36.998,M,3.2,7107,4C
$GPGGA,121535.3,3542.305874,N,13943.27973,E,5,12,0.92,26.849,M,36.998,M,3.3,7107,43
$GPGGA,121535.4,3542.305876,N,13943.27973,E,5,12,0.92,26.842,M,36.998,M,3.4,7107,4F
$GPGGA,121535.5,3542.305878,N,13943.27974,E,5,12,0.92,26.834,M,36.998,M,3.5,7107,4B
$GPGGA,121535.6,3542.305878,N,13943.27974,E,5,12,0.92,26.819,M,36.998,M,3.6,7107,40
$GPGGA,121535.7,3542.305874,N,13943.27973,E,5,12,0.92,26.839,M,36.998,M,3.7,7107,4C
$GPGGA,121535.8,3542.305874,N,13943.27973,E,5,12,0.92,26.858,M,36.998,M,3.8,7107,4F
$GPGGA,121535.9,3542.305873,N,13943.27973,E,5,12,0.92,26.864,M,36.998,M,3.9,7107,4B
$GPGGA,121536,3542.305871,N,13943.27973,E,5,12,0.92,26.863,M,36.998,M,4,7107,4A
$GPGGA,121536.1,3542.305869,N,13943.27973,E,5,12,0.92,26.873,M,36.998,M,4.1,7107,43
$GPGGA,121536.2,3542.305866,N,13943.27973,E,5,12,0.92,26.873,M,36.998,M,4.2,7107,4D
$GPGGA,121536.3,3542.305862,N,13943.27973,E,5,12,0.92,26.892,M,36.998,M,4.3,7107,41
$GPGGA,121536.4,3542.305861,N,13943.27972,E,5,12,0.92,26.888,M,36.998,M,4.4,7107,48
$GPGGA,121536.5,3542.305861,N,13943.27972,E,5,12,0.92,26.883,M,36.998,M,4.5,7107,48
$GPGGA,121536.6,3542.305864,N,13943.27973,E,5,12,0.92,26.868,M,36.998,M,4.6,7107,47
$GPGGA,121536.7,3542.305864,N,13943.27973,E,5,12,0.92,26.865,M,36.998,M,4.7,7107,4A
$GPGGA,121536.8,3542.305864,N,13943.27973,E,5,12,0.92,26.859,M,36.998,M,4.8,7107,49
$GPGGA,121536.9,3542.305867,N,13943.27973,E,5,12,0.92,26.839,M,36.998,M,4.9,7107,4D
$GPGGA,121537,3542.30587,N,13943.27974,E,5,12,0.92,26.838,M,36.998,M,5,7107,41
$GPGGA,121537.1,3542.30587,N,13943.27974,E,5,12,0.92,26.828,M,36.998,M,5.1,7107,40
$GPGGA,121537.2,3542.305871,N,13943.27974,E,5,12,0.92,26.838,M,36.998,M,5.2,7107,4D
$GPGGA,121537.3,3542.305869,N,13943.27974,E,5,12,0.92,26.835,M,36.998,M,5.3,7107,40
$GPGGA,121537.4,3542.305867,N,13943.27974,E,5,12,0.92,26.839,M,36.998,M,5.4,7107,46
$GPGGA,121537.5,3542.30587,N,13943.27974,E,5,12,0.92,26.848,M,36.998,M,5.5,7107,48
$GPGGA,121537.6,3542.305872,N,13943.27974,E,5,12,0.92,26.849,M,36.998,M,5.6,7107,46
$GPGGA,121537.7,3542.305872,N,13943.27974,E,5,12,0.92,26.849,M,36.998,M,5.7,7107,48
$GPGGA,121537.8,3542.305874,N,13943.27974,E,5,12,0.92,26.851,M,36.998,M,5.8,7107,40
$GPGGA,121537.9,3542.305873,N,13943.27975,E,5,12,0.92,26.862,M,36.998,M,5.9,7107,48
$GPGGA,121538,3542.305874,N,13943.27975,E,5,12,0.92,26.863,M,36.998,M,6,7107,47
$GPGGA,121538.1,3542.305875,N,13943.27975,E,5,12,0.92,26.869,M,36.998,M,1.1,7107,40
$GPGGA,121538.2,3542.305879,N,13943.27975,E,5,12,0.92,26.878,M,36.998,M,1.2,7107,46
$GPGGA,121538.3,3542.305882,N,13943.27975,E,5,12,0.92,26.877,M,36.998,M,1.3,7107,4F
$GPGGA,121538.4,3542.305884,N,13943.27976,E,5,12,0.92,26.873,M,36.998,M,1.4,7107,46
$GPGGA,121538.5,3542.305884,N,13943.27976,E,5,12,0.92,26.889,M,36.998,M,1.5,7107,41
$GPGGA,121538.6,3542.305884,N,13943.27976,E,5,12,0.92,26.876,M,36.998,M,1.6,7107,4E
$GPGGA,121538.7,3542.305885,N,13943.27976,E,5,12,0.92,26.88,M,36.998,M,1.7,7107,4F
$GPGGA,121538.8,3542.305884,N,13943.27976,E,5,12,0.92,26.886,M,36.998,M,1.8,7107,45
$GPGGA,121538.9,3542.305886,N,13943.27976,E,5,12,0.92,26.885,M,36.998,M,1.9,7107,4D
$GPGGA,121539,3542.305884,N,13943.27976,E,5,12,0.92,26.89,M,36.998,M,2,7107,41
$GPGGA,121539.1,3542.305885,N,13943.27977,E,5,12,0.92,26.884,M,36.998,M,2.1,7107,4B
$GPGGA,121539.2,3542.305885,N,13943.27976,E,5,12,0.92,26.884,M,36.998,M,2.2,7107,44
$GPGGA,121539.3,3542.305886,N,13943.27976,E,5,12,0.92,26.885,M,36.998,M,2.3,7107,47
$GPGGA,121539.4,3542.305887,N,13943.27977,E,5,12,0.92,26.879,M,36.998,M,2.4,7107,41
$GPGGA,121539.5,3542.305889,N,13943.27977,E,5,12,0.92,26.884,M,36.998,M,2.5,7107,42
$GPGGA,121539.6,3542.305889,N,13943.27977,E,5,12,0.92,26.883,M,36.998,M,2.6,7107,4F
$GPGGA,121539.7,3542.305888,N,13943.27977,E,5,12,0.92,26.864,M,36.998,M,2.7,7107,43
$GPGGA,121539.8,3542.305887,N,13943.27977,E,5,12,0.92,26.859,M,36.998,M,2.8,7107,48
$GPGGA,121539.9,3542.305888,N,13943.27976,E,5,12,0.92,26.851,M,36.998,M,2.9,7107,4E
$GPGGA,121540,3542.305889,N,13943.27976,E,5,12,0.92,26.849,M,36.998,M,3,7107,4E
$GPGGA,121540.1,3542.305891,N,13943.27976,E,5,12,0.92,26.841,M,36.998,M,3.1,7107,4D
$GPGGA,121540.2,3542.305891,N,13943.27976,E,5,12,0.92,26.824,M,36.998,M,3.2,7107,45
$GPGGA,121540.3,3542.305885,N,13943.27976,E,5,12,0.92,26.824,M,36.998,M,3.3,7107,40
$GPGGA,121540.4,3542.305886,N,13943.27976,E,5,12,0.92,26.823,M,36.998,M,3.4,7107,4E
$GPGGA,121540.5,3542.30589,N,13943.27976,E,5,12,0.92,26.814,M,36.998,M,3.5,7107,44
$GPGGA,121540.6,3542.30589,N,13943.27976,E,5,12,0.92,26.798,M,36.998,M,3.6,7107,48
$GPGGA,121540.7,3542.305886,N,13943.27976,E,5,12,0.92,26.797,M,36.998,M,3.7,7107,40
$GPGGA,121540.8,3542.30589,N,13943.27976,E,5,12,0.92,26.799,M,36.998,M,3.8,7107,49
$GPGGA,121540.9,3542.305894,N,13943.27976,E,5,12,0.92,26.777,M,36.998,M,3.9,7107,4C
$GPGGA,121541,3542.305891,N,13943.27976,E,5,12,0.92,26.773,M,36.998,M,4,7107,45
$GPGGA,121541.1,3542.305891,N,13943.27976,E,5,12,0.92,26.767,M,36.998,M,4.1,7107,46
$GPGGA,121541.2,3542.305898,N,13943.27975,E,5,12,0.92,26.803,M,36.998,M,4.2,7107,45
$GPGGA,121541.3,3542.305888,N,13943.27975,E,5,12,0.92,26.751,M,36.998,M,4.3,7107,44
$GPGGA,121541.4,3542.305881,N,13943.27975,E,5,12,0.92,26.707,M,36.998,M,4.4,7107,45
$GPGGA,121541.5,3542.305882,N,13943.27975,E,5,12,0.92,26.675,M,36.998,M,4.5,7107,4A
$GPGGA,121541.6,3542.305877,N,13943.27975,E,5,12,0.92,26.645,M,36.998,M,4.6,7107,42
$GPGGA,121541.7,3542.305878,N,13943.27975,E,5,12,0.92,26.626,M,36.998,M,4.7,7107,4F
$GPGGA,121541.8,3542.305877,N,13943.27975,E,5,12,0.92,26.608,M,36.998,M,4.8,7107,48
$GPGGA,121541.9,3542.305877,N,13943.27975,E,5,12,0.92,26.603,M,36.998,M,4.9,7107,41
$GPGGA,121542,3542.30588,N,13943.27975,E,5,12,0.92,26.584,M,36.998,M,5,7107,48
$GPGGA,121542.1,3542.305878,N,13943.27975,E,5,12,0.92,26.552,M,36.998,M,5.1,7107,46
$GPGGA,121542.2,3542.305877,N,13943.27975,E,5,12,0.92,26.542,M,36.998,M,5.2,7107,4E
$GPGGA,121542.3,3542.305876,N,13943.27975,E,5,12,0.92,26.52,M,36.998,M,5.3,7107,47
$GPGGA,121542.4,3542.305878,N,13943.27975,E,5,12,0.92,26.505,M,36.998,M,5.4,7107,4A
$GPGGA,121542.5,3542.305878,N,13943.27974,E,5,12,0.92,26.502,M,36.998,M,5.5,7107,43
$GPGGA,121542.6,3542.305878,N,13943.27974,E,5,12,0.92,26.486,M,36.998,M,5.6,7107,4E
$GPGGA,121542.7,3542.305876,N,13943.27974,E,5,12,0.92,26.472,M,36.998,M,5.7,7107,43
$GPGGA,121542.8,3542.305875,N,13943.27974,E,5,12,0.92,26.468,M,36.998,M,5.8,7107,4A
$GPGGA,121542.9,3542.305875,N,13943.27974,E,5,12,0.92,26.461,M,36.998,M,5.9,7107,42
$GPGGA,121543,3542.305874,N,13943.27974,E,5,12,0.92,26.467,M,36.998,M,6,7107,41
$GPGGA,121543.1,3542.305876,N,13943.27974,E,5,12,0.92,26.458,M,36.998,M,6.1,7107,48
$GPGGA,121543.2,3542.305875,N,13943.27974,E,5,12,0.92,26.454,M,36.998,M,6.2,7107,42
$GPGGA,121543.3,3542.305875,N,13943.27974,E,5,12,0.92,26.45,M,36.998,M,6.3,7107,47
$GPGGA,121543.4,3542.305875,N,13943.27974,E,5,12,0.92,26.438,M,36.998,M,6.4,7107,4F
$GPGGA,121543.5,3542.305871,N,13943.27974,E,5,12,0.92,26.418,M,36.998,M,6.5,7107,44
$GPGGA,121543.6,3542.305872,N,13943.27974,E,5,12,0.92,26.427,M,36.998,M,6.6,7107,43
$GPGGA,121543.7,3542.305869,N,13943.27974,E,5,12,0.92,26.409,M,36.998,M,6.7,7107,45
$GPGGA,121543.8,3542.305867,N,13943.27974,E,5,12,0.92,26.401,M,36.998,M,6.8,7107,4F
$GPGGA,121543.9,3542.305871,N,13943.27975,E,5,12,0.92,26.39,M,36.998,M,6.9,7107,45
$GPGGA,121544,3542.305869,N,13943.27975,E,5,12,0.92,26.374,M,36.998,M,7,7107,4B
$GPGGA,121544.1,3542.305866,N,13943.27975,E,5,12,0.92,26.352,M,36.998,M,2.1,7107,4D
$GPGGA,121544.2,3542.305866,N,13943.27974,E,5,12,0.92,26.337,M,36.998,M,2.2,7107,42
$GPGGA,121544.3,3542.305865,N,13943.27975,E,5,12,0.93,26.326,M,36.998,M,2.3,7107,4F
$GPGGA,121544.4,3542.305863,N,13943.27975,E,5,12,0.93,26.33,M,36.997,M,2.4,7107,43
$GPGGA,121544.5,3542.305862,N,13943.27975,E,5,12,0.93,26.324,M,36.997,M,2.5,7107,4B
$GPGGA,121544.6,3542.305863,N,13943.27975,E,5,12,0.93,26.319,M,36.997,M,2.6,7107,46
$GPGGA,121544.7,3542.305866,N,13943.27975,E,5,12,0.93,26.32,M,36.998,M,2.7,7107,43
$GPGGA,121544.8,3542.305866,N,13943.27974,E,5,12,0.93,26.308,M,36.998,M,2.8,7107,48
$GPGGA,121544.9,3542.305867,N,13943.27974,E,5,12,0.93,26.293,M,36.998,M,2.9,7107,4B
$GPGGA,121545,3542.305866,N,13943.27974,E,5,12,0.93,26.31,M,36.998,M,3,7107,44
$GPGGA,121545.1,3542.305861,N,13943.27974,E,5,12,0.93,26.286,M,36.997,M,3.1,7107,45
$GPGGA,121545.2,3542.305859,N,13943.27974,E,5,12,0.93,26.273,M,36.997,M,3.2,7107,43
$GPGGA,121545.3,3542.305859,N,13943.27975,E,5,12,0.93,26.27,M,36.997,M,3.3,7107,48
$GPGGA,121545.4,3542.305859,N,13943.27975,E,5,12,0.93,26.266,M,36.997,M,3.4,7107,47
$GPGGA,121545.5,3542.305864,N,13943.27975,E,5,12,0.93,26.266,M,36.997,M,3.5,7107,43
$GPGGA,121545.6,3542.305863,N,13943.27975,E,5,12,0.93,26.253,M,36.997,M,3.6,7107,4F
$GPGGA,121545.7,3542.305865,N,13943.27975,E,5,12,0.93,26.24,M,36.997,M,3.7,7107,4F
$GPGGA,121545.8,3542.305865,N,13943.27975,E,5,11,1.02,26.233,M,36.997,M,3.8,7107,44
$GPGGA,121545.9,3542.305863,N,13943.27976,E,5,11,1.02,26.25,M,36.997,M,3.9,7107,49
$GPGGA,121546,3542.305862,N,13943.27976,E,5,11,1.02,26.251,M,36.997,M,4,7107,43
$GPGGA,121546.1,3542.30586,N,13943.27976,E,5,11,1.02,26.253,M,36.997,M,4.1,7107,41
$GPGGA,121546.2,3542.305858,N,13943.27976,E,5,11,1.02,26.262,M,36.997,M,4.2,7107,4E
$GPGGA,121546.3,3542.305854,N,13943.27976,E,5,11,1.02,26.262,M,36.997,M,4.3,7107,4A
$GPGGA,121546.4,3542.305851,N,13943.27977,E,5,11,1.02,26.256,M,36.997,M,4.4,7107,47
$GPGGA,121546.5,3542.30585,N,13943.27977,E,5,11,1.02,26.27,M,36.997,M,4.5,7107,4F
$GPGGA,121546.6,3542.305847,N,13943.27977,E,5,11,1.02,26.279,M,36.997,M,4.6,7107,42
$GPGGA,121546.7,3542.305846,N,13943.27977,E,5,11,1.02,26.265,M,36.997,M,4.7,7107,43
$GPGGA,121546.8,3542.305845,N,13943.27978,E,5,11,1.02,26.279,M,36.997,M,4.8,7107,4C
$GPGGA,121546.9,3542.305843,N,13943.27978,E,5,11,1.02,26.28,M,36.997,M,4.9,7107,45
$GPGGA,121547,3542.30584,N,13943.27978,E,5,11,1.02,26.278,M,36.997,M,5,7107,4D
$GPGGA,121547.1,3542.30584,N,13943.27978,E,5,11,1.02,26.278,M,36.997,M,5.1,7107,4B
$GPGGA,121547.2,3542.305838,N,13943.27978,E,5,11,1.02,26.28,M,36.997,M,5.2,7107,4E
$GPGGA,121547.3,3542.305838,N,13943.27979,E,5,11,1.02,26.276,M,36.997,M,5.3,7107,47
$GPGGA,121547.4,3542.305832,N,13943.27979,E,5,11,1.02,26.276,M,36.997,M,5.4,7107,4C
$GPGGA,121547.5,3542.305833,N,13943.27979,E,5,11,1.02,26.273,M,36.997,M,5.5,7107,4A
$GPGGA,121547.6,3542.305831,N,13943.27979,E,5,11,1.02,26.267,M,36.997,M,5.6,7107,4E
$GPGGA,121547.7,3542.305827,N,13943.2798,E,5,11,1.02,26.268,M,36.997,M,5.7,7107,47
$GPGGA,121547.8,3542.305829,N,13943.2798,E,5,11,1.02,26.277,M,36.997,M,5.8,7107,41
$GPGGA,121547.9,3542.305827,N,13943.2798,E,5,11,1.02,26.283,M,36.997,M,5.9,7107,4B
$GPGGA,121548,3542.305827,N,13943.2798,E,5,11,1.02,26.285,M,36.997,M,6,7107,43
$GPGGA,121548.1,3542.305825,N,13943.2798,E,5,11,1.02,26.282,M,36.997,M,1.1,7107,47
$GPGGA,121548.2,3542.305824,N,13943.2798,E,5,11,1.02,26.274,M,36.997,M,1.2,7107,44
$GPGGA,121548.3,3542.305822,N,13943.2798,E,5,11,1.02,26.269,M,36.997,M,1.3,7107,4B
$GPGGA,121548.4,3542.305822,N,13943.2798,E,5,11,1.02,26.27,M,36.997,M,1.4,7107,42
$GPGGA,121548.5,3542.305818,N,13943.2798,E,5,11,1.02,26.271,M,36.997,M,1.5,7107,40
$GPGGA,121548.6,3542.305817,N,13943.27981,E,5,11,1.02,26.265,M,36.997,M,1.6,7107,4F
$GPGGA,121548.7,3542.305817,N,13943.27981,E,5,11,1.02,26.257,M,36.997,M,1.7,7107,47
$GPGGA,121548.8,3542.305813,N,13943.27981,E,5,11,1.02,26.248,M,36.997,M,1.8,7107,42
$GPGGA,121548.9,3542.305812,N,13943.27981,E,5,11,1.02,26.25,M,36.997,M,1.9,7107,42
$GPGGA,121549,3542.30581,N,13943.27982,E,5,11,1.02,26.249,M,36.997,M,2,7107,46
$GPGGA,121549.1,3542.305809,N,13943.27982,E,5,11,1.02,26.253,M,36.997,M,2.1,7107,43
$GPGGA,121549.2,3542.305808,N,13943.27982,E,5,11,1.02,26.255,M,36.997,M,2.2,7107,48
$GPGGA,121549.3,3542.305807,N,13943.27982,E,5,11,1.02,26.243,M,36.997,M,2.3,7107,42
$GPGGA,121549.4,3542.305808,N,13943.27982,E,5,11,1.02,26.245,M,36.997,M,2.4,7107,42
$GPGGA,121549.5,3542.305805,N,13943.27982,E,5,11,1.02,26.24,M,36.997,M,2.5,7107,4F
$GPGGA,121549.6,3542.305802,N,13943.27982,E,5,11,1.02,26.226,M,36.997,M,2.6,7107,46
$GPGGA,121549.7,3542.305797,N,13943.27983,E,5,11,1.02,26.23,M,36.997,M,2.7,7107,47
$GPGGA,121549.8,3542.305798,N,13943.27983,E,5,11,1.02,26.226,M,36.997,M,2.8,7107,4A
$GPGGA,121549.9,3542.305796,N,13943.27983,E,5,12,0.93,26.227,M,36.997,M,2.9,7107,42
$GPGGA,121550,3542.305798,N,13943.27983,E,5,12,0.93,26.214,M,36.997,M,3,7107,46
$GPGGA,121550.1,3542.305798,N,13943.27983,E,5,12,0.93,26.195,M,36.997,M,3.1,7107,40
$GPGGA,121550.2,3542.305799,N,13943.27983,E,5,12,0.93,26.183,M,36.997,M,3.2,7107,4B
$GPGGA,121550.3,3542.3058,N,13943.27983,E,5,12,0.93,26.188,M,36.997,M,3.3,7107,46
$GPGGA,121550.4,3542.305803,N,13943.27983,E,5,12,0.93,26.175,M,36.997,M,3.4,7107,47
$GPGGA,121550.5,3542.305802,N,13943.27983,E,5,12,0.93,26.16,M,36.997,M,3.5,7107,4D
$GPGGA,121550.6,3542.305803,N,13943.27983,E,5,12,0.93,26.161,M,36.997,M,3.6,7107,48
$GPGGA,121550.7,3542.305803,N,13943.27983,E,5,12,0.93,26.152,M,36.997,M,3.7,7107,45
$GPGGA,121550.8,3542.305802,N,13943.27983,E,5,12,0.93,26.148,M,36.997,M,3.8,7107,4C
$GPGGA,121550.9,3542.305802,N,13943.27983,E,5,12,0.93,26.143,M,36.997,M,3.9,7107,41
$GPGGA,121551,3542.305804,N,13943.27983,E,5,12,0.93,26.127,M,36.997,M,4,7107,49
$GPGGA,121551.1,3542.305805,N,13943.27983,E,5,12,0.93,26.128,M,36.997,M,4.1,7107,43
$GPGGA,121551.2,3542.305804,N,13943.27982,E,5,12,0.93,26.118,M,36.997,M,4.2,7107,44
$GPGGA,121551.3,3542.305805,N,13943.27982,E,5,12,0.93,26.105,M,36.997,M,4.3,7107,4A
$GPGGA,121551.4,3542.305805,N,13943.27982,E,5,12,0.93,26.102,M,36.997,M,4.4,7107,43
$GPGGA,121551.5,3542.305804,N,13943.27982,E,5,12,0.93,26.075,M,36.997,M,4.5,7107,42
$GPGGA,121551.6,3542.305804,N,13943.27982,E,5,12,0.93,26.059,M,36.997,M,4.6,7107,49
$GPGGA,121551.7,3542.305806,N,13943.27982,E,5,12,0.93,26.067,M,36.997,M,4.7,7107,42
$GPGGA,121551.8,3542.305806,N,13943.27982,E,5,12,0.93,26.046,M,36.997,M,4.8,7107,42
$GPGGA,121551.9,3542.305803,N,13943.27982,E,5,12,0.93,26.036,M,36.997,M,4.9,7107,4F
$GPGGA,121552,3542.305803,N,13943.27982,E,5,12,0.93,26.024,M,36.997,M,5,7107,49
$GPGGA,121552.1,3542.305803,N,13943.27982,E,5,12,0.93,26.023,M,36.997,M,5.1,7107,4E
$GPGGA,121552.2,3542.305805,N,13943.27982,E,5,12,0.93,26.017,M,36.997,M,5.2,7107,41
$GPGGA,121552.3,3542.305805,N,13943.27982,E,5,12,0.93,26.012,M,36.997,M,5.3,7107,42
$GPGGA,121552.4,3542.305804,N,13943.27982,E,5,12,0.93,26,M,36.997,M,5.4,7107,46
$GPGGA,121552.5,3542.305806,N,13943.27982,E,5,12,0.93,25.993,M,36.997,M,5.5,7107,45
$GPGGA,121552.6,3542.305807,N,13943.27982,E,5,12,0.93,25.991,M,36.997,M,5.6,7107,47
$GPGGA,121552.7,3542.305803,N,13943.27982,E,5,11,1.02,25.995,M,36.997,M,5.7,7107,42
$GPGGA,121552.8,3542.305806,N,13943.27982,E,5,11,1.02,25.975,M,36.997,M,5.8,7107,4E
$GPGGA,121552.9,3542.305805,N,13943.27982,E,5,12,0.93,25.967,M,36.997,M,5.9,7107,49
$GPGGA,121553,3542.305806,N,13943.27981,E,5,12,0.93,25.95,M,36.997,M,6,7107,4A
$GPGGA,121553.1,3542.305803,N,13943.27981,E,5,12,0.93,25.918,M,36.997,M,1.1,7107,4A
$GPGGA,121553.2,3542.305805,N,13943.27981,E,5,12,0.93,25.916,M,36.997,M,1.2,7107,42
$GPGGA,121553.3,3542.305802,N,13943.27981,E,5,11,1.02,25.906,M,36.997,M,1.3,7107,45
$GPGGA,121553.4,3542.305802,N,13943.27981,E,5,11,1.02,25.887,M,36.997,M,1.4,7107,48
$GPGGA,121553.5,3542.305803,N,13943.27981,E,5,12,0.93,25.88,M,36.997,M,1.5,7107,45
$GPGGA,121553.6,3542.305805,N,13943.27981,E,5,12,0.93,25.88,M,36.997,M,1.6,7107,46
$GPGGA,121553.7,3542.305806,N,13943.27981,E,5,12,0.93,25.868,M,36.997,M,1.7,7107,4E
$GPGGA,121553.8,3542.305805,N,13943.2798,E,5,12,0.93,25.844,M,36.997,M,1.8,7107,4C
$GPGGA,121553.9,3542.305806,N,13943.2798,E,5,12,0.93,25.836,M,36.997,M,1.9,7107,40
$GPGGA,121554,3542.305806,N,13943.2798,E,5,11,1.02,25.821,M,36.997,M,2,7107,4E
$GPGGA,121554.1,3542.305798,N,13943.2798,E,5,11,1.02,25.808,M,36.997,M,2.1,7107,4A
$GPGGA,121554.2,3542.3058,N,13943.27981,E,5,11,1.02,25.807,M,36.997,M,2.2,7107,47
$GPGGA,121554.3,3542.305802,N,13943.2798,E,5,11,1.02,25.817,M,36.997,M,2.3,7107,49
$GPGGA,121554.4,3542.305797,N,13943.2798,E,5,11,1.02,25.807,M,36.997,M,2.4,7107,49
$GPGGA,121554.5,3542.305796,N,13943.2798,E,5,11,1.02,25.794,M,36.997,M,2.5,7107,4D
$GPGGA,121554.6,3542.305796,N,13943.2798,E,5,11,1.02,25.795,M,36.997,M,2.6,7107,49
$GPGGA,121554.7,3542.305795,N,13943.2798,E,5,11,1.02,25.796,M,36.997,M,2.7,7107,4B
$GPGGA,121554.8,3542.305794,N,13943.2798,E,5,11,1.02,25.774,M,36.997,M,2.8,7107,41
$GPGGA,121554.9,3542.305795,N,13943.2798,E,5,11,1.02,25.76,M,36.997,M,2.9,7107,4D
$GPGGA,121555,3542.305793,N,13943.27979,E,5,11,1.02,25.757,M,36.997,M,3,7107,42
$GPGGA,121555.1,3542.305791,N,13943.2798,E,5,11,1.02,25.762,M,36.997,M,3.1,7107,46
$GPGGA,121555.2,3542.305791,N,13943.27979,E,5,11,1.02,25.771,M,36.997,M,3.2,7107,47
$GPGGA,121555.3,3542.30579,N,13943.27979,E,5,11,1.02,25.777,M,36.997,M,3.3,7107,44
$GPGGA,121555.4,3542.305785,N,13943.27979,E,5,11,1.02,25.765,M,36.997,M,3.4,7107,42
$GPGGA,121555.5,3542.305783,N,13943.27979,E,5,11,1.02,25.761,M,36.997,M,3.5,7107,41
$GPGGA,121555.6,3542.305786,N,13943.27979,E,5,11,1.02,25.753,M,36.997,M,3.6,7107,47
$GPGGA,121555.7,3542.305784,N,13943.27979,E,5,11,1.02,25.736,M,36.997,M,3.7,7107,44
$GPGGA,121555.8,3542.305786,N,13943.27979,E,5,11,1.02,25.724,M,36.997,M,3.8,7107,41
$GPGGA,121555.9,3542.305783,N,13943.27979,E,5,11,1.02,25.719,M,36.997,M,3.9,7107,47
$GPGGA,121556,3542.305782,N,13943.27979,E,5,11,1.02,25.719,M,36.997,M,4,7107,42
$GPGGA,121556.1,3542.305782,N,13943.27979,E,5,11,1.02,25.712,M,36.997,M,4.1,7107,4B
$GPGGA,121556.2,3542.305779,N,13943.27979,E,5,11,1.02,25.714,M,36.997,M,4.2,7107,4C
$GPGGA,121556.3,3542.305777,N,13943.27979,E,5,11,1.02,25.709,M,36.997,M,4.3,7107,4B
$GPGGA,121556.4,3542.305777,N,13943.27979,E,5,11,1.02,25.708,M,36.997,M,4.4,7107,41
$GPGGA,121556.5,3542.305772,N,13943.27979,E,5,11,1.02,25.697,M,36.997,M,4.5,7107,45
$GPGGA,121556.6,3542.30577,N,13943.27979,E,5,11,1.02,25.692,M,36.997,M,4.6,7107,48
$GPGGA,121556.7,3542.305769,N,13943.27978,E,5,11,1.02,25.696,M,36.997,M,4.7,7107,4F
$GPGGA,121556.8,3542.305769,N,13943.27978,E,5,11,1.02,25.686,M,36.997,M,4.8,7107,4A
$GPGGA,121556.9,3542.305766,N,13943.27978,E,5,11,1.02,25.685,M,36.997,M,4.9,7107,46
$GPGGA,121557,3542.305766,N,13943.27978,E,5,11,1.02,25.677,M,36.997,M,5,7107,4D
$GPGGA,121557.1,3542.305765,N,13943.27978,E,5,11,1.02,25.669,M,36.997,M,5.1,7107,40
$GPGGA,121557.2,3542.305767,N,13943.27978,E,5,11,1.02,25.67,M,36.997,M,5.2,7107,4E
$GPGGA,121557.3,3542.305765,N,13943.27978,E,5,11,1.02,25.661,M,36.997,M,5.3,7107,4D
$GPGGA,121557.4,3542.305764,N,13943.27978,E,5,11,1.02,25.655,M,36.997,M,5.4,7107,47
$GPGGA,121557.5,3542.305759,N,13943.27978,E,5,11,1.02,25.654,M,36.997,M,5.5,7107,4F
$GPGGA,121557.6,3542.305758,N,13943.27978,E,5,11,1.02,25.641,M,36.997,M,5.6,7107,41
$GPGGA,121557.7,3542.305757,N,13943.27978,E,5,11,1.02,25.632,M,36.997,M,5.7,7107,41
$GPGGA,121557.8,3542.305755,N,13943.27977,E,5,11,1.02,25.627,M,36.997,M,5.8,7107,4F
$GPGGA,121557.9,3542.305757,N,13943.27977,E,5,11,1.02,25.63,M,36.997,M,5.9,7107,46
$GPGGA,121558,3542.305755,N,13943.27978,E,5,11,1.02,25.626,M,36.997,M,6,7107,4C
$GPGGA,121558.1,3542.305754,N,13943.27977,E,5,11,1.02,25.632,M,36.997,M,1.1,7107,46
$GPGGA,121558.2,3542.305754,N,13943.27977,E,5,11,1.02,25.62,M,36.997,M,1.2,7107,48
$GPGGA,121558.3,3542.305752,N,13943.27977,E,5,11,1.02,25.61,M,36.997,M,1.3,7107,4B
$GPGGA,121558.4,3542.305751,N,13943.27977,E,5,11,1.02,25.621,M,36.997,M,1.4,7107,45
$GPGGA,121558.5,3542.30575,N,13943.27977,E,5,11,1.02,25.623,M,36.997,M,1.5,7107,49
$GPGGA,121558.6,3542.305746,N,13943.27977,E,5,11,1.02,25.621,M,36.997,M,1.6,7107,46
$GPGGA,121558.7,3542.305746,N,13943.27976,E,5,11,1.02,25.618,M,36.997,M,1.7,7107,42
$GPGGA,121558.8,3542.305746,N,13943.27976,E,5,11,1.02,25.614,M,36.997,M,1.8,7107,4A
$GPGGA,121558.9,3542.305746,N,13943.27976,E,5,11,1.02,25.617,M,36.997,M,1.9,7107,4A
$GPGGA,121559,3542.305745,N,13943.27976,E,5,11,1.02,25.611,M,36.997,M,2,7107,44
$GPGGA,121559.1,3542.305746,N,13943.27976,E,5,11,1.02,25.615,M,36.997,M,2.1,7107,49
$GPGGA,121559.2,3542.305747,N,13943.27977,E,5,11,1.02,25.612,M,36.997,M,2.2,7107,4D
$GPGGA,121559.3,3542.305745,N,13943.27977,E,5,11,1.02,25.612,M,36.997,M,2.3,7107,4F
$GPGGA,121559.4,3542.305746,N,13943.27977,E,5,11,1.02,25.611,M,36.997,M,2.4,7107,48
$GPGGA,121559.5,3542.305744,N,13943.27977,E,5,12,0.93,25.599,M,36.997,M,2.5,7107,46
$GPGGA,121559.6,3542.305745,N,13943.27977,E,5,12,0.93,25.605,M,36.997,M,2.6,7107,40
$GPGGA,121559.7,3542.305745,N,13943.27977,E,5,12,0.93,25.601,M,36.997,M,2.7,7107,4E
