$GPGGA,121447.00,3542.306426272,N,13943.280091120,E,2,12,1.05,31.971,M,36.998,M,,*62
$GPGGA,121447.10,3542.306425937,N,13943.280090912,E,2,12,1.05,31.973,M,36.998,M,,*60
$GPGGA,121447.20,3542.306425655,N,13943.280090715,E,2,12,1.05,31.974,M,36.998,M,,*66
$GPGGA,121447.30,3542.306425897,N,13943.280090521,E,2,12,1.05,31.976,M,36.998,M,,*60
$GPGGA,121447.40,3542.306426373,N,13943.280090297,E,2,12,1.05,31.978,M,36.998,M,,*61
$GPGGA,121447.50,3542.306426665,N,13943.280090113,E,2,12,1.05,31.979,M,36.998,M,,*6C
$GPGGA,121447.60,3542.306426932,N,13943.280089568,E,2,12,1.05,31.981,M,36.998,M,,*65
$GPGGA,121447.70,3542.306427144,N,13943.280089072,E,2,12,1.05,31.982,M,36.998,M,,*61
$GPGGA,121447.80,3542.306427234,N,13943.280088554,E,2,12,1.05,31.984,M,36.998,M,,*6C
$GPGGA,121447.90,3542.306426725,N,13943.280088057,E,2,12,1.05,31.985,M,36.998,M,,*6E
$GPGGA,121448.00,3542.306427040,N,13943.280087637,E,2,12,1.05,31.987,M,36.998,M,,*60
$GPGGA,121448.10,3542.306427209,N,13943.280087202,E,2,12,1.05,31.988,M,36.998,M,,*63
$GPGGA,121448.20,3542.306427465,N,13943.280086797,E,2,12,1.05,31.990,M,36.998,M,,*6D
$GPGGA,121448.30,3542.306427666,N,13943.280086467,E,2,12,1.05,31.991,M,36.998,M,,*60
$GPGGA,121448.40,3542.306427900,N,13943.280086170,E,2,12,1.05,31.993,M,36.998,M,,*69
$GPGGA,121448.50,3542.306428186,N,13943.280085902,E,2,12,1.05,31.994,M,36.998,M,,*68
$GPGGA,121448.60,3542.306428387,N,13943.280085651,E,2,12,1.05,31.996,M,36.998,M,,*63
$GPGGA,121448.70,3542.306428550,N,13943.280085448,E,2,12,1.05,31.997,M,36.998,M,,*65
$GPGGA,121448.80,3542.306427907,N,13943.280085267,E,2,12,1.05,31.999,M,36.998,M,,*6E
$GPGGA,121448.90,3542.306428032,N,13943.280084699,E,2,12,1.05,32.000,M,36.998,M,,*61
$GPGGA,121449.00,3542.306427264,N,13943.280084493,E,2,12,1.05,32.002,M,36.998,M,,*6D
$GPGGA,121449.10,3542.306426688,N,13943.280083903,E,2,12,1.05,32.003,M,36.998,M,,*69
$GPGGA,121449.20,3542.306426166,N,13943.280083421,E,2,12,1.05,32.005,M,36.998,M,,*66
$GPGGA,121449.30,3542.306425606,N,13943.280082966,E,2,12,1.05,32.006,M,36.998,M,,*69
$GPGGA,121449.40,3542.306424917,N,13943.280082522,E,2,12,1.05,32.008,M,36.998,M,,*62
$GPGGA,121449.50,3542.306424320,N,13943.280082103,E,2,12,1.05,32.009,M,36.998,M,,*6B
$GPGGA,121449.60,3542.306423715,N,13943.280081777,E,2,12,1.05,32.011,M,36.998,M,,*62
$GPGGA,121449.70,3542.306423110,N,13943.280081419,E,2,12,1.05,32.012,M,36.998,M,,*68
$GPGGA,121449.80,3542.306422619,N,13943.280081140,E,2,12,1.05,32.014,M,36.998,M,,*67
$GPGGA,121449.90,3542.306422396,N,13943.280080916,E,2,12,1.05,32.015,M,36.998,M,,*6F
$GPGGA,121450.00,3542.306422048,N,13943.280080670,E,2,12,1.05,32.017,M,36.998,M,,*63
$GPGGA,121450.10,3542.306421741,N,13943.280080474,E,2,12,1.05,32.019,M,36.998,M,,*67
$GPGGA,121450.20,3542.306421559,N,13943.280080311,E,2,12,1.05,32.020,M,36.998,M,,*61
$GPGGA,121450.30,3542.306421293,N,13943.280080139,E,2,12,1.05,32.022,M,36.998,M,,*6B
$GPGGA,121450.40,3542.306421238,N,13943.280080011,E,2,12,1.05,32.023,M,36.998,M,,*67
$GPGGA,121450.50,3542.306420943,N,13943.280079445,E,2,12,1.05,32.025,M,36.998,M,,*65
$GPGGA,121450.60,3542.306420769,N,13943.280078934,E,2,12,1.05,32.026,M,36.998,M,,*69
$GPGGA,121450.70,3542.306420500,N,13943.280078860,E,2,12,1.05,32.028,M,36.998,M,,*6B
$GPGGA,121450.80,3542.306420405,N,13943.280078398,E,2,12,1.05,32.029,M,36.998,M,,*6D
$GPGGA,121450.90,3542.306420298,N,13943.280077903,E,2,12,1.05,32.031,M,36.998,M,,*60
$GPGGA,121451.00,3542.306420215,N,13943.280077394,E,2,12,1.05,32.032,M,36.998,M,,*6A
$GPGGA,121451.10,3542.306419910,N,13943.280077004,E,2,12,1.05,32.034,M,36.998,M,,*63
$GPGGA,121451.20,3542.306419796,N,13943.280076568,E,2,12,1.05,32.035,M,36.998,M,,*6F
$GPGGA,121451.30,3542.306419727,N,13943.280076145,E,2,12,1.05,32.037,M,36.998,M,,*6D
$GPGGA,121451.40,3542.306419623,N,13943.280075790,E,2,12,1.05,32.038,M,36.998,M,,*6D
$GPGGA,121451.50,3542.306419457,N,13943.280075464,E,2,12,1.05,32.040,M,36.998,M,,*6A
$GPGGA,121451.60,3542.306419302,N,13943.280075100,E,2,12,1.05,32.041,M,36.998,M,,*68
$GPGGA,121451.70,3542.306419295,N,13943.280074827,E,2,12,1.05,32.043,M,36.998,M,,*69
$GPGGA,121451.80,3542.306419307,N,13943.280074569,E,2,12,1.05,32.044,M,36.998,M,,*6C
$GPGGA,121451.90,3542.306419227,N,13943.280074290,E,2,12,1.05,32.046,M,36.998,M,,*6D
$GPGGA,121452.00,3542.306419300,N,13943.280074017,E,2,12,1.05,32.047,M,36.998,M,,*6F
$GPGGA,121452.10,3542.306419157,N,13943.280073839,E,2,12,1.05,32.048,M,36.998,M,,*62
$GPGGA,121452.20,3542.306419042,N,13943.280073200,E,2,12,1.05,32.050,M,36.998,M,,*6D
$GPGGA,121452.30,3542.306419140,N,13943.280072639,E,2,12,1.05,32.051,M,36.998,M,,*61
$GPGGA,121452.40,3542.306419264,N,13943.280072110,E,2,12,1.05,32.053,M,36.998,M,,*6D
$GPGGA,121452.50,3542.306419286,N,13943.280071632,E,2,12,1.05,32.054,M,36.998,M,,*63
$GPGGA,121452.60,3542.306419493,N,13943.280071193,E,2,12,1.05,32.055,M,36.998,M,,*6F
$GPGGA,121452.70,3542.306419542,N,13943.280070742,E,2,12,1.05,32.057,M,36.998,M,,*6A
$GPGGA,121452.80,3542.306419631,N,13943.280070374,E,2,12,1.05,32.058,M,36.998,M,,*6C
$GPGGA,121452.90,3542.306419770,N,13943.280070048,E,2,12,1.05,32.060,M,36.998,M,,*6E
$GPGGA,121453.00,3542.306419711,N,13943.280069712,E,2,12,1.05,32.061,M,36.998,M,,*60
$GPGGA,121453.10,3542.306419738,N,13943.280069346,E,2,12,1.05,32.062,M,36.998,M,,*6C
$GPGGA,121453.20,3542.306419718,N,13943.280069074,E,2,12,1.05,32.064,M,36.998,M,,*69
$GPGGA,121453.30,3542.306419152,N,13943.280068779,E,2,12,1.05,32.065,M,36.998,M,,*6A
$GPGGA,121453.40,3542.306419331,N,13943.280068471,E,2,12,1.05,32.066,M,36.998,M,,*62
$GPGGA,121453.50,3542.306419485,N,13943.280068254,E,2,12,1.05,32.068,M,36.998,M,,*64
$GPGGA,121453.60,3542.306419626,N,13943.280067665,E,2,12,1.05,32.069,M,36.998,M,,*64
$GPGGA,121453.70,3542.306419695,N,13943.280067468,E,2,12,1.05,32.070,M,36.998,M,,*6A
$GPGGA,121453.80,3542.306419683,N,13943.280066911,E,2,12,1.05,32.072,M,36.998,M,,*62
$GPGGA,121453.90,3542.306419753,N,13943.280066368,E,2,12,1.05,32.073,M,36.998,M,,*6A
$GPGGA,121454.00,3542.306419130,N,13943.280065808,E,2,12,1.05,32.075,M,36.998,M,,*6F
$GPGGA,121454.10,3542.306418482,N,13943.280065305,E,2,12,1.05,32.076,M,36.998,M,,*66
$GPGGA,121454.20,3542.306418669,N,13943.280064879,E,2,12,1.05,32.078,M,36.998,M,,*6D
$GPGGA,121454.30,3542.306418268,N,13943.280064448,E,2,12,1.05,32.079,M,36.998,M,,*66
$GPGGA,121454.40,3542.306417790,N,13943.280064001,E,2,12,1.05,32.081,M,36.998,M,,*62
$GPGGA,121454.50,3542.306417289,N,13943.280063627,E,2,12,1.05,32.082,M,36.998,M,,*68
$GPGGA,121454.60,3542.306416827,N,13943.280063297,E,2,12,1.05,32.084,M,36.998,M,,*6D
$GPGGA,121454.70,3542.306416417,N,13943.280062970,E,2,12,1.05,32.085,M,36.998,M,,*61
$GPGGA,121454.80,3542.306416064,N,13943.280062671,E,2,12,1.05,32.087,M,36.998,M,,*62
$GPGGA,121454.90,3542.306415757,N,13943.280062413,E,2,12,1.05,32.088,M,36.998,M,,*6E
$GPGGA,121455.00,3542.306415397,N,13943.280062151,E,2,12,1.05,32.090,M,36.998,M,,*64
$GPGGA,121455.10,3542.306415119,N,13943.280061912,E,2,12,1.05,32.092,M,36.998,M,,*6F
$GPGGA,121455.20,3542.306414900,N,13943.280061800,E,2,12,1.05,32.093,M,36.998,M,,*6E
$GPGGA,121455.30,3542.306414603,N,13943.280061587,E,2,12,1.05,32.095,M,36.998,M,,*67
$GPGGA,121455.40,3542.306414348,N,13943.280061460,E,2,12,1.05,32.097,M,36.998,M,,*60
$GPGGA,121455.50,3542.306414223,N,13943.280061366,E,2,12,1.05,32.099,M,36.998,M,,*62
$GPGGA,121455.60,3542.306414037,N,13943.280061211,E,2,12,1.05,32.100,M,36.998,M,,*66
$GPGGA,121455.70,3542.306413915,N,13943.280061037,E,2,12,1.05,32.102,M,36.998,M,,*6D
$GPGGA,121455.80,3542.306413826,N,13943.280060950,E,2,12,1.05,32.104,M,36.998,M,,*6C
$GPGGA,121455.90,3542.306413720,N,13943.280060801,E,2,12,1.05,32.106,M,36.998,M,,*63
$GPGGA,121456.00,3542.306413545,N,13943.280060667,E,2,12,1.05,32.108,M,36.998,M,,*68
$GPGGA,121456.10,3542.306413485,N,13943.280060190,E,2,12,1.05,32.110,M,36.998,M,,*62
$GPGGA,121456.20,3542.306413526,N,13943.280059701,E,2,12,1.05,32.112,M,36.998,M,,*6F
$GPGGA,121456.30,3542.306413585,N,13943.280059205,E,2,12,1.05,32.114,M,36.998,M,,*60
$GPGGA,121456.40,3542.306413577,N,13943.280058798,E,2,12,1.05,32.116,M,36.998,M,,*68
$GPGGA,121456.50,3542.306413668,N,13943.280058415,E,2,12,1.05,32.119,M,36.998,M,,*6D
$GPGGA,121456.60,3542.306413830,N,13943.280058072,E,2,12,1.05,32.121,M,36.998,M,,*63
$GPGGA,121456.70,3542.306413821,N,13943.280057799,E,2,12,1.05,32.123,M,36.998,M,,*6D
$GPGGA,121456.80,3542.306413726,N,13943.280057516,E,2,12,1.05,32.125,M,36.998,M,,*69
$GPGGA,121456.90,3542.306413684,N,13943.280057183,E,2,12,1.05,32.127,M,36.998,M,,*6B
$GPGGA,121457.00,3542.306413623,N,13943.280056892,E,2,12,1.05,32.130,M,36.998,M,,*60
$GPGGA,121457.10,3542.306413663,N,13943.280056752,E,2,12,1.05,32.132,M,36.998,M,,*64
$GPGGA,121457.20,3542.306413724,N,13943.280056572,E,2,12,1.05,32.135,M,36.998,M,,*62
$GPGGA,121457.30,3542.306413873,N,13943.280056363,E,2,12,1.05,32.137,M,36.998,M,,*6A
$GPGGA,121457.40,3542.306413881,N,13943.280056215,E,2,12,1.05,32.139,M,36.998,M,,*6E
$GPGGA,121457.50,3542.306414066,N,13943.280056080,E,2,12,1.05,32.142,M,36.998,M,,*6B
$GPGGA,121457.60,3542.306414074,N,13943.280055964,E,2,12,1.05,32.144,M,36.998,M,,*6D
$GPGGA,121457.70,3542.306414227,N,13943.280055829,E,2,12,1.05,32.147,M,36.998,M,,*63
$GPGGA,121457.80,3542.306414277,N,13943.280055731,E,2,12,1.05,32.149,M,36.998,M,,*61
$GPGGA,121457.90,3542.306414383,N,13943.280055657,E,2,12,1.05,32.151,M,36.998,M,,*62
$GPGGA,121458.00,3542.306414600,N,13943.280055529,E,2,12,1.05,32.154,M,36.998,M,,*65
$GPGGA,121458.10,3542.306414778,N,13943.280055462,E,2,12,1.05,32.156,M,36.998,M,,*66
$GPGGA,121458.20,3542.306414862,N,13943.280055282,E,2,12,1.05,32.159,M,36.998,M,,*66
$GPGGA,121458.30,3542.306414884,N,13943.280055145,E,2,12,1.05,32.161,M,36.998,M,,*6C
$GPGGA,121458.40,3542.306414855,N,13943.280055056,E,2,12,1.05,32.164,M,36.998,M,,*61
$GPGGA,121458.50,3542.306414765,N,13943.280055025,E,2,12,1.05,32.166,M,36.998,M,,*6A
$GPGGA,121458.60,3542.306414884,N,13943.280054905,E,2,12,1.05,32.169,M,36.998,M,,*6C
$GPGGA,121458.70,3542.306414957,N,13943.280054792,E,2,12,1.05,32.171,M,36.998,M,,*6B
$GPGGA,121458.80,3542.306415007,N,13943.280054737,E,2,12,1.05,32.174,M,36.998,M,,*63
$GPGGA,121458.90,3542.306415016,N,13943.280054273,E,2,12,1.05,32.176,M,36.998,M,,*65
$GPGGA,121459.00,3542.306414911,N,13943.280054221,E,2,12,1.05,32.179,M,36.998,M,,*6A
$GPGGA,121459.10,3542.306415055,N,13943.280053719,E,2,12,1.05,32.181,M,36.998,M,,*6D
$GPGGA,121459.20,3542.306415117,N,13943.280053281,E,2,12,1.05,32.184,M,36.998,M,,*68
$GPGGA,121459.30,3542.306415160,N,13943.280052875,E,2,12,1.05,32.187,M,36.998,M,,*6A
$GPGGA,121459.40,3542.306415002,N,13943.280052432,E,2,12,1.05,32.189,M,36.998,M,,*69
$GPGGA,121459.50,3542.306415022,N,13943.280052056,E,2,12,1.05,32.192,M,36.998,M,,*66
$GPGGA,121459.60,3542.306415105,N,13943.280051686,E,2,12,1.05,32.195,M,36.998,M,,*6E
$GPGGA,121459.70,3542.306415120,N,13943.280051332,E,2,12,1.05,32.197,M,36.998,M,,*60
$GPGGA,121459.80,3542.306415087,N,13943.280051039,E,2,12,1.05,32.200,M,36.998,M,,*66
$GPGGA,121459.90,3542.306414905,N,13943.280050750,E,2,12,1.05,32.203,M,36.998,M,,*6F
$GPGGA,121500.00,3542.306414915,N,13943.280050489,E,2,18,0.80,32.206,M,36.998,M,,*6E
$GPGGA,121500.10,3542.306415065,N,13943.280050170,E,2,20,0.74,32.208,M,36.998,M,,*6D
$GPGGA,121500.20,3542.306415031,N,13943.280050011,E,2,20,0.74,32.211,M,36.998,M,,*61
$GPGGA,121500.30,3542.306414894,N,13943.280049396,E,2,20,0.74,32.214,M,36.998,M,,*67
$GPGGA,121500.40,3542.306414911,N,13943.280049118,E,2,20,0.74,32.217,M,36.998,M,,*6B
$GPGGA,121500.50,3542.306414712,N,13943.280048600,E,2,20,0.74,32.220,M,36.998,M,,*6C
$GPGGA,121500.60,3542.306414699,N,13943.280048114,E,2,20,0.74,32.223,M,36.998,M,,*6C
$GPGGA,121500.70,3542.306414520,N,13943.280047986,E,2,20,0.74,32.226,M,36.998,M,,*65
$GPGGA,121500.80,3542.306414577,N,13943.280047462,E,2,20,0.74,32.229,M,36.998,M,,*60
$GPGGA,121500.90,3542.306414467,N,13943.280047026,E,2,20,0.74,32.232,M,36.998,M,,*6F
$GPGGA,121501.00,3542.306414403,N,13943.280046607,E,2,20,0.74,32.235,M,36.998,M,,*66
$GPGGA,121501.10,3542.306414414,N,13943.280046184,E,5,12,0.92,32.237,M,36.998,M,4.1,7107*4B
$GPGGA,121501.20,3542.306146383,N,13943.279645665,E,5,12,0.92,31.935,M,36.998,M,4.2,7107*41
$GPGGA,121501.30,3542.306099957,N,13943.279483902,E,5,12,0.92,31.564,M,36.998,M,4.3,7107*4F
$GPGGA,121501.40,3542.306074328,N,13943.279435978,E,5,12,0.92,31.313,M,36.998,M,4.4,7107*48
$GPGGA,121501.50,3542.306051828,N,13943.279400813,E,5,12,0.92,31.088,M,36.998,M,4.5,7107*4F
$GPGGA,121501.60,3542.306034610,N,13943.279383354,E,5,12,0.92,30.935,M,36.998,M,4.6,7107*43
$GPGGA,121501.70,3542.306029629,N,13943.279375014,E,5,12,0.92,30.809,M,36.998,M,4.7,7107*45
$GPGGA,121501.80,3542.306024333,N,13943.279365455,E,5,12,0.92,30.717,M,36.998,M,4.8,7107*46
$GPGGA,121501.90,3542.306019944,N,13943.279358990,E,5,12,0.92,30.624,M,36.998,M,4.9,7107*49
$GPGGA,121502.00,3542.306016667,N,13943.279356875,E,5,12,0.92,30.553,M,36.998,M,5.0,7107*4D
$GPGGA,121502.10,3542.306014187,N,13943.279352996,E,5,12,0.92,30.488,M,36.998,M,5.1,7107*49
$GPGGA,121502.20,3542.306013561,N,13943.279348090,E,5,12,0.92,30.433,M,36.998,M,5.2,7107*46
$GPGGA,121502.30,3542.306010795,N,13943.279342341,E,5,12,0.92,30.381,M,36.998,M,5.3,7107*47
$GPGGA,121502.40,3542.306008434,N,13943.279337363,E,5,12,0.92,30.325,M,36.998,M,5.4,7107*4A
$GPGGA,121502.50,3542.306004925,N,13943.279334193,E,5,12,0.92,30.281,M,36.998,M,5.5,7107*4A
$GPGGA,121502.60,3542.306008706,N,13943.279331015,E,5,12,0.92,30.245,M,36.998,M,5.6,7107*4B
$GPGGA,121502.70,3542.306007204,N,13943.279330516,E,5,12,0.92,30.217,M,36.998,M,5.7,7107*43
$GPGGA,121502.80,3542.306004583,N,13943.279324356,E,5,12,0.92,30.179,M,36.998,M,5.8,7107*44
$GPGGA,121502.90,3542.306003681,N,13943.279321734,E,5,12,0.92,30.139,M,36.998,M,5.9,7107*43
$GPGGA,121503.00,3542.306004598,N,13943.279319925,E,5,12,0.92,30.100,M,36.998,M,6.0,7107*42
$GPGGA,121503.10,3542.305999346,N,13943.279316932,E,5,12,0.92,30.080,M,36.998,M,1.1,7107*4E
$GPGGA,121503.20,3542.305996951,N,13943.279315494,E,5,12,0.92,30.058,M,36.998,M,1.2,7107*4A
$GPGGA,121503.30,3542.305993838,N,13943.279312546,E,5,12,0.92,30.028,M,36.998,M,1.3,7107*4F
$GPGGA,121503.40,3542.305993130,N,13943.279310354,E,5,12,0.92,30.006,M,36.998,M,1.4,7107*45
$GPGGA,121503.50,3542.305990369,N,13943.279305059,E,5,12,0.92,29.980,M,36.998,M,1.5,7107*4D
$GPGGA,121503.60,3542.305986447,N,13943.279305522,E,5,12,0.92,29.951,M,36.998,M,1.6,7107*44
$GPGGA,121503.70,3542.305986344,N,13943.279303882,E,5,12,0.92,29.935,M,36.998,M,1.7,7107*43
$GPGGA,121503.80,3542.305986999,N,13943.279300506,E,5,12,0.92,29.906,M,36.998,M,1.8,7107*4B
$GPGGA,121503.90,3542.305984824,N,13943.279298814,E,5,12,0.92,29.899,M,36.998,M,1.9,7107*47
$GPGGA,121504.00,3542.305983362,N,13943.279300739,E,5,12,0.92,29.871,M,36.998,M,2.0,7107*4B
$GPGGA,121504.10,3542.305981812,N,13943.279293947,E,5,12,0.92,29.853,M,36.998,M,2.1,7107*49
$GPGGA,121504.20,3542.305981014,N,13943.279291179,E,5,12,0.92,29.837,M,36.998,M,2.2,7107*42
$GPGGA,121504.30,3542.305979843,N,13943.279289813,E,5,12,0.92,29.819,M,36.998,M,2.3,7107*4F
$GPGGA,121504.40,3542.305980585,N,13943.279287447,E,5,12,0.92,29.795,M,36.998,M,2.4,7107*46
$GPGGA,121504.50,3542.305978549,N,13943.279285861,E,5,12,0.92,29.787,M,36.998,M,2.5,7107*48
$GPGGA,121504.60,3542.305976662,N,13943.279286488,E,5,12,0.92,29.774,M,36.998,M,2.6,7107*48
$GPGGA,121504.70,3542.305978352,N,13943.279286230,E,5,12,0.92,29.755,M,36.998,M,2.7,7107*46
$GPGGA,121504.80,3542.305979722,N,13943.279283957,E,5,12,0.92,29.739,M,36.998,M,2.8,7107*41
$GPGGA,121504.90,3542.305977502,N,13943.279283286,E,5,12,0.92,29.730,M,36.998,M,2.9,7107*41
$GPGGA,121505.00,3542.305976545,N,13943.279280127,E,5,12,0.92,29.712,M,36.998,M,3.0,7107*48
$GPGGA,121505.10,3542.305977673,N,13943.279279493,E,5,12,0.92,29.703,M,36.998,M,3.1,7107*43
$GPGGA,121505.20,3542.305976785,N,13943.279279506,E,5,12,0.92,29.695,M,36.998,M,3.2,7107*49
$GPGGA,121505.30,3542.305977883,N,13943.279278515,E,5,12,0.92,29.681,M,36.998,M,3.3,7107*47
$GPGGA,121505.40,3542.305977340,N,13943.279279036,E,5,12,0.92,29.673,M,36.998,M,3.4,7107*4B
$GPGGA,121505.50,3542.305979041,N,13943.279276725,E,5,12,0.92,29.667,M,36.998,M,3.5,7107*48
$GPGGA,121505.60,3542.305977185,N,13943.279279919,E,5,12,0.92,29.664,M,36.998,M,3.6,7107*42
$GPGGA,121505.70,3542.305979380,N,13943.279276106,E,5,12,0.92,29.644,M,36.998,M,3.7,7107*40
$GPGGA,121505.80,3542.305982730,N,13943.279275305,E,5,12,0.92,29.634,M,36.998,M,3.8,7107*4E
$GPGGA,121505.90,3542.305979534,N,13943.279274420,E,5,12,0.92,29.624,M,36.998,M,3.9,7107*4C
$GPGGA,121506.00,3542.305978723,N,13943.279272925,E,5,12,0.92,29.626,M,36.998,M,4.0,7107*41
$GPGGA,121506.10,3542.305977837,N,13943.279270506,E,5,12,0.92,29.615,M,36.998,M,4.1,7107*4B
$GPGGA,121506.20,3542.305980030,N,13943.279270315,E,5,12,0.92,29.607,M,36.998,M,4.2,7107*4B
$GPGGA,121506.30,3542.305980271,N,13943.279269827,E,5,12,0.92,29.599,M,36.998,M,4.3,7107*4A
$GPGGA,121506.40,3542.305980464,N,13943.279269862,E,5,12,0.92,29.597,M,36.998,M,4.4,7107*47
$GPGGA,121506.50,3542.305982834,N,13943.279267263,E,5,12,0.92,29.584,M,36.998,M,4.5,7107*4B
$GPGGA,121506.60,3542.305981205,N,13943.279267219,E,5,12,0.92,29.571,M,36.998,M,4.6,7107*47
$GPGGA,121506.70,3542.305979364,N,13943.279266095,E,5,12,0.92,29.566,M,36.998,M,4.7,7107*47
$GPGGA,121506.80,3542.305979818,N,13943.279265787,E,5,12,0.92,29.558,M,36.998,M,4.8,7107*4D
$GPGGA,121506.90,3542.305980044,N,13943.279261603,E,5,12,0.92,29.549,M,36.998,M,4.9,7107*43
$GPGGA,121507.00,3542.305983483,N,13943.279260451,E,5,12,0.92,29.546,M,36.998,M,5.0,7107*44
$GPGGA,121507.10,3542.305984046,N,13943.279260178,E,5,12,0.92,29.544,M,36.998,M,5.1,7107*42
$GPGGA,121507.20,3542.305982440,N,13943.279261282,E,5,12,0.92,29.534,M,36.998,M,5.2,7107*46
$GPGGA,121507.30,3542.305983643,N,13943.279259737,E,5,12,0.92,29.525,M,36.998,M,5.3,7107*46
$GPGGA,121507.40,3542.305984169,N,13943.279260230,E,5,12,0.92,29.517,M,36.998,M,5.4,7107*47
$GPGGA,121507.50,3542.305983623,N,13943.279262970,E,5,12,0.92,29.502,M,36.998,M,5.5,7107*40
$GPGGA,121507.60,3542.305982785,N,13943.279261259,E,5,12,0.92,29.496,M,36.998,M,5.6,7107*43
$GPGGA,121507.70,3542.305984197,N,13943.279260275,E,5,12,0.92,29.483,M,36.998,M,5.7,7107*4B
$GPGGA,121507.80,3542.305984742,N,13943.279260037,E,5,12,0.92,29.474,M,36.998,M,5.8,7107*49
$GPGGA,121507.90,3542.305987104,N,13943.279259917,E,5,12,0.92,29.472,M,36.998,M,5.9,7107*49
$GPGGA,121508.00,3542.305985129,N,13943.279259498,E,5,12,0.92,29.460,M,36.998,M,6.0,7107*41
$GPGGA,121508.10,3542.305986346,N,13943.279257242,E,5,12,0.92,29.450,M,36.998,M,1.1,7107*42
$GPGGA,121508.20,3542.305988732,N,13943.279255325,E,5,12,0.92,29.445,M,36.998,M,1.2,7107*4D
$GPGGA,121508.30,3542.305989430,N,13943.279256126,E,5,12,0.92,29.440,M,36.998,M,1.3,7107*4A
$GPGGA,121508.40,3542.305990844,N,13943.279256606,E,5,12,0.92,29.429,M,36.998,M,1.4,7107*47
$GPGGA,121508.50,3542.305989055,N,13943.279255693,E,5,12,0.92,29.424,M,36.998,M,1.5,7107*45
$GPGGA,121508.60,3542.305990207,N,13943.279257090,E,5,12,0.92,29.418,M,36.998,M,1.6,7107*40
$GPGGA,121508.70,3542.305991344,N,13943.279254934,E,5,12,0.92,29.412,M,36.998,M,1.7,7107*49
$GPGGA,121508.80,3542.305993261,N,13943.279256711,E,5,12,0.92,29.401,M,36.998,M,1.8,7107*44
$GPGGA,121508.90,3542.305994044,N,13943.279256366,E,5,12,0.92,29.390,M,36.998,M,1.9,7107*4D
$GPGGA,121509.00,3542.305995782,N,13943.279257096,E,5,12,0.92,29.387,M,36.998,M,2.0,7107*48
$GPGGA,121509.10,3542.305998591,N,13943.279259847,E,5,12,0.92,29.395,M,36.998,M,2.1,7107*4C
$GPGGA,121509.20,3542.305996756,N,13943.279258979,E,5,12,0.92,29.384,M,36.998,M,2.2,7107*46
$GPGGA,121509.30,3542.305996962,N,13943.279257657,E,5,12,0.92,29.378,M,36.998,M,2.3,7107*40
$GPGGA,121509.40,3542.305997536,N,13943.279256782,E,5,12,0.92,29.372,M,36.998,M,2.4,7107*4E
$GPGGA,121509.50,3542.305995574,N,13943.279256195,E,5,12,0.92,29.354,M,36.998,M,2.5,7107*4E
$GPGGA,121509.60,3542.305995328,N,13943.279253957,E,5,12,0.92,29.343,M,36.998,M,2.6,7107*44
$GPGGA,121509.70,3542.305993977,N,13943.279252738,E,5,12,0.92,29.332,M,36.998,M,2.7,7107*42
$GPGGA,121509.80,3542.305992048,N,13943.279254268,E,5,12,0.92,29.323,M,36.998,M,2.8,7107*40
$GPGGA,121509.90,3542.305884931,N,13943.279380963,E,5,12,0.92,29.257,M,36.998,M,2.9,7107*4B
$GPGGA,121510.00,3542.305862956,N,13943.279412833,E,5,12,0.92,29.108,M,36.998,M,3.0,7107*4A
$GPGGA,121510.10,3542.305853011,N,13943.279421765,E,5,12,0.92,29.006,M,36.998,M,3.1,7107*41
$GPGGA,121510.20,3542.305849840,N,13943.279430665,E,5,12,0.92,28.931,M,36.998,M,3.2,7107*4B
$GPGGA,121510.30,3542.305848325,N,13943.279437240,E,5,12,0.92,28.875,M,36.998,M,3.3,7107*47
$GPGGA,121510.40,3542.305847845,N,13943.279441100,E,5,12,0.92,28.834,M,36.998,M,3.4,7107*46
$GPGGA,121510.50,3542.305845196,N,13943.279442889,E,5,12,0.92,28.789,M,36.998,M,3.5,7107*41
$GPGGA,121510.60,3542.305844638,N,13943.279443819,E,5,12,0.92,28.751,M,36.998,M,3.6,7107*4E
$GPGGA,121510.70,3542.305846528,N,13943.279443566,E,5,12,0.92,28.717,M,36.998,M,3.7,7107*49
$GPGGA,121510.80,3542.305842041,N,13943.279443298,E,5,12,0.92,28.693,M,36.998,M,3.8,7107*4C
$GPGGA,121510.90,3542.305842848,N,13943.279441481,E,5,12,0.92,28.669,M,36.998,M,3.9,7107*44
$GPGGA,121511.00,3542.305840635,N,13943.279440329,E,5,12,0.92,28.644,M,36.998,M,4.0,7107*4F
$GPGGA,121511.10,3542.305840411,N,13943.279441676,E,5,12,0.92,28.628,M,36.998,M,4.1,7107*4F
$GPGGA,121511.20,3542.305840304,N,13943.279442662,E,5,12,0.92,28.618,M,36.998,M,4.2,7107*49
$GPGGA,121511.30,3542.305840657,N,13943.279443295,E,5,12,0.92,28.593,M,36.998,M,4.3,7107*47
$GPGGA,121511.40,3542.305837619,N,13943.279445871,E,5,12,0.92,28.583,M,36.998,M,4.4,7107*4A
$GPGGA,121511.50,3542.305836892,N,13943.279448545,E,5,12,0.92,28.564,M,36.998,M,4.5,7107*48
$GPGGA,121511.60,3542.305836619,N,13943.279451687,E,5,12,0.92,28.552,M,36.998,M,4.6,7107*45
$GPGGA,121511.70,3542.305836126,N,13943.279450276,E,5,12,0.92,28.548,M,36.998,M,4.7,7107*4E
$GPGGA,121511.80,3542.305832845,N,13943.279451726,E,5,12,0.92,28.543,M,36.998,M,4.8,7107*4C
$GPGGA,121511.90,3542.305832748,N,13943.279448683,E,5,12,0.92,28.535,M,36.998,M,4.9,7107*49
$GPGGA,121512.00,3542.305832395,N,13943.279449475,E,5,12,0.92,28.524,M,36.998,M,5.0,7107*45
$GPGGA,121512.10,3542.305829799,N,13943.279448729,E,5,12,0.92,28.515,M,36.998,M,5.1,7107*4E
$GPGGA,121512.20,3542.305828934,N,13943.279451934,E,5,12,0.92,28.512,M,36.998,M,5.2,7107*4B
$GPGGA,121512.30,3542.305829418,N,13943.279450915,E,5,12,0.92,28.502,M,36.998,M,5.3,7107*4A
$GPGGA,121512.40,3542.305827587,N,13943.279449915,E,5,12,0.92,28.495,M,36.998,M,5.4,7107*44
$GPGGA,121512.50,3542.305826643,N,13943.279451489,E,5,12,0.92,28.478,M,36.998,M,5.5,7107*4C
$GPGGA,121512.60,3542.305826528,N,13943.279451417,E,5,12,0.92,28.471,M,36.998,M,5.6,7107*4C
$GPGGA,121512.70,3542.305825998,N,13943.279450224,E,5,12,0.92,28.462,M,36.998,M,5.7,7107*4D
$GPGGA,121512.80,3542.305825183,N,13943.279450267,E,5,12,0.92,28.452,M,36.998,M,5.8,7107*4B
$GPGGA,121512.90,3542.305825277,N,13943.279449256,E,5,12,0.92,28.449,M,36.998,M,5.9,7107*43
$GPGGA,121513.00,3542.305824627,N,13943.279450555,E,5,12,0.92,28.435,M,36.998,M,6.0,7107*46
$GPGGA,121513.10,3542.305823669,N,13943.279450147,E,5,12,0.92,28.435,M,36.998,M,6.1,7107*4C
$GPGGA,121513.20,3542.305822977,N,13943.279450434,E,5,12,0.92,28.439,M,36.998,M,6.2,7107*40
$GPGGA,121513.30,3542.305822213,N,13943.279450990,E,5,12,0.92,28.431,M,36.998,M,6.3,7107*42
$GPGGA,121513.40,3542.305821832,N,13943.279448322,E,5,12,0.92,28.421,M,36.998,M,6.4,7107*43
$GPGGA,121513.50,3542.305819431,N,13943.279445850,E,5,12,0.92,28.412,M,36.998,M,6.5,7107*44
$GPGGA,121513.60,3542.305820730,N,13943.279447937,E,5,12,0.92,28.406,M,36.998,M,6.6,7107*4B
$GPGGA,121513.70,3542.305818688,N,13943.279446345,E,5,12,0.92,28.397,M,36.998,M,6.7,7107*43
$GPGGA,121513.80,3542.305819462,N,13943.279444118,E,5,12,0.92,28.388,M,36.998,M,6.8,7107*42
$GPGGA,121513.90,3542.305818169,N,13943.279444224,E,5,12,0.92,28.393,M,36.998,M,6.9,7107*4B
$GPGGA,121514.00,3542.305817134,N,13943.279444916,E,5,12,0.92,28.390,M,36.998,M,7.0,7107*43
$GPGGA,121514.10,3542.305816119,N,13943.279445919,E,5,12,0.92,28.385,M,36.998,M,2.1,7107*42
$GPGGA,121514.20,3542.305815177,N,13943.279446117,E,5,12,0.92,28.384,M,36.998,M,2.2,7107*4D
$GPGGA,121514.30,3542.305815338,N,13943.279444675,E,5,12,0.92,28.378,M,36.998,M,2.3,7107*46
$GPGGA,121514.40,3542.305815538,N,13943.279446065,E,5,12,0.92,28.377,M,36.998,M,2.4,7107*4A
$GPGGA,121514.50,3542.305816347,N,13943.279446108,E,5,12,0.92,28.371,M,36.998,M,2.5,7107*4B
$GPGGA,121514.60,3542.305814792,N,13943.279446068,E,5,12,0.92,28.370,M,36.998,M,2.6,7107*43
$GPGGA,121514.70,3542.305811203,N,13943.279446923,E,5,12,0.92,28.356,M,36.998,M,2.7,7107*49
$GPGGA,121514.80,3542.305811457,N,13943.279447268,E,5,12,0.92,28.356,M,36.998,M,2.8,7107*4B
$GPGGA,121514.90,3542.305809400,N,13943.279450401,E,5,12,0.92,28.348,M,36.998,M,2.9,7107*40
$GPGGA,121515.00,3542.305808369,N,13943.279449591,E,5,12,0.92,28.349,M,36.998,M,3.0,7107*48
$GPGGA,121515.10,3542.305806377,N,13943.279445538,E,5,12,0.92,28.344,M,36.998,M,3.1,7107*4B
$GPGGA,121515.20,3542.305805548,N,13943.279445730,E,5,12,0.92,28.329,M,36.998,M,3.2,7107*43
$GPGGA,121515.30,3542.305804642,N,13943.279446229,E,5,12,0.92,28.310,M,36.998,M,3.3,7107*4F
$GPGGA,121515.40,3542.305804548,N,13943.279443610,E,5,12,0.92,28.320,M,36.998,M,3.4,7107*4E
$GPGGA,121515.50,3542.305802548,N,13943.279444412,E,5,12,0.92,28.306,M,36.998,M,3.5,7107*4B
$GPGGA,121515.60,3542.305799915,N,13943.279446578,E,5,12,0.92,28.291,M,36.998,M,3.6,7107*42
$GPGGA,121515.70,3542.305798007,N,13943.279444101,E,5,12,0.92,28.283,M,36.998,M,3.7,7107*42
$GPGGA,121515.80,3542.305796974,N,13943.279441572,E,5,12,0.92,28.276,M,36.998,M,3.8,7107*4E
$GPGGA,121515.90,3542.305795375,N,13943.279441595,E,5,12,0.92,28.271,M,36.998,M,3.9,7107*48
$GPGGA,121516.00,3542.305793653,N,13943.279444587,E,5,12,0.92,28.266,M,36.998,M,4.0,7107*4B
$GPGGA,121516.10,3542.305793683,N,13943.279445382,E,5,12,0.92,28.256,M,36.998,M,4.1,7107*47
$GPGGA,121516.20,3542.305750353,N,13943.279439655,E,5,12,0.92,28.258,M,36.998,M,4.2,7107*4A
$GPGGA,121516.30,3542.305734891,N,13943.279439499,E,5,12,0.92,28.178,M,36.998,M,4.3,7107*4E
$GPGGA,121516.40,3542.305730036,N,13943.279440041,E,5,12,0.92,28.121,M,36.998,M,4.4,7107*4C
$GPGGA,121516.50,3542.305727981,N,13943.279443694,E,5,12,0.92,28.077,M,36.998,M,4.5,7107*40
$GPGGA,121516.60,3542.305726362,N,13943.279451638,E,5,12,0.92,28.037,M,36.998,M,4.6,7107*47
$GPGGA,121516.70,3542.305725539,N,13943.279454925,E,5,12,0.92,27.998,M,36.998,M,4.7,7107*49
$GPGGA,121516.80,3542.305724377,N,13943.279461248,E,5,12,0.92,27.954,M,36.998,M,4.8,7107*42
$GPGGA,121516.90,3542.305724715,N,13943.279465166,E,5,12,0.92,27.921,M,36.998,M,4.9,7107*4B
$GPGGA,121517.00,3542.305726509,N,13943.279470802,E,5,12,0.92,27.883,M,36.998,M,5.0,7107*40
$GPGGA,121517.10,3542.305726385,N,13943.279475175,E,5,12,0.92,27.858,M,36.998,M,5.1,7107*48
$GPGGA,121517.20,3542.305727120,N,13943.279477094,E,5,12,0.92,27.838,M,36.998,M,5.2,7107*4E
$GPGGA,121517.30,3542.305725635,N,13943.279482411,E,5,12,0.92,27.816,M,36.997,M,5.3,7107*4F
$GPGGA,121517.40,3542.305725952,N,13943.279482455,E,5,12,0.92,27.795,M,36.997,M,5.4,7107*45
$GPGGA,121517.50,3542.305727458,N,13943.279484413,E,5,12,0.92,27.782,M,36.997,M,5.5,7107*42
$GPGGA,121517.60,3542.305725073,N,13943.279487801,E,5,12,0.92,27.766,M,36.997,M,5.6,7107*4B
$GPGGA,121517.70,3542.305727157,N,13943.279486894,E,5,12,0.92,27.752,M,36.997,M,5.7,7107*44
$GPGGA,121517.80,3542.305727689,N,13943.279491864,E,5,12,0.92,27.743,M,36.997,M,5.8,7107*49
$GPGGA,121517.90,3542.305728345,N,13943.279490564,E,5,12,0.92,27.739,M,36.997,M,5.9,7107*42
$GPGGA,121518.00,3542.305728865,N,13943.279489461,E,5,12,0.92,27.719,M,36.997,M,6.0,7107*49
$GPGGA,121518.10,3542.305726788,N,13943.279490408,E,5,12,0.92,27.704,M,36.997,M,1.1,7107*47
$GPGGA,121518.20,3542.305723029,N,13943.279490032,E,5,12,0.92,27.682,M,36.997,M,1.2,7107*4C
$GPGGA,121518.30,3542.305726193,N,13943.279488982,E,5,12,0.92,27.679,M,36.997,M,1.3,7107*46
$GPGGA,121518.40,3542.305726188,N,13943.279489149,E,5,12,0.92,27.668,M,36.997,M,1.4,7107*42
$GPGGA,121518.50,3542.305724079,N,13943.279491225,E,5,12,0.92,27.652,M,36.997,M,1.5,7107*46
$GPGGA,121518.60,3542.305727364,N,13943.279493429,E,5,12,0.92,27.635,M,36.997,M,1.6,7107*43
$GPGGA,121518.70,3542.305726526,N,13943.279493077,E,5,12,0.92,27.634,M,36.997,M,1.7,7107*4C
$GPGGA,121518.80,3542.305728709,N,13943.279493575,E,5,12,0.92,27.630,M,36.997,M,1.8,7107*4E
$GPGGA,121518.90,3542.305727295,N,13943.279493267,E,5,12,0.92,27.613,M,36.997,M,1.9,7107*44
$GPGGA,121519.00,3542.305730421,N,13943.279495469,E,5,12,0.92,27.611,M,36.997,M,2.0,7107*45
$GPGGA,121519.10,3542.305730257,N,13943.279492972,E,5,12,0.92,27.606,M,36.997,M,2.1,7107*44
$GPGGA,121519.20,3542.305731847,N,13943.279495979,E,5,12,0.92,27.595,M,36.997,M,2.2,7107*4B
$GPGGA,121519.30,3542.305731956,N,13943.279494150,E,5,12,0.92,27.597,M,36.997,M,2.3,7107*4A
$GPGGA,121519.40,3542.305733190,N,13943.279498434,E,5,12,0.92,27.604,M,36.997,M,2.4,7107*48
$GPGGA,121519.50,3542.305731369,N,13943.279500935,E,5,12,0.92,27.598,M,36.997,M,2.5,7107*44
$GPGGA,121519.60,3542.305731958,N,13943.279502491,E,5,12,0.92,27.589,M,36.997,M,2.6,7107*4D
$GPGGA,121519.70,3542.305733315,N,13943.279500170,E,5,12,0.92,27.585,M,36.997,M,2.7,7107*48
$GPGGA,121519.80,3542.305735144,N,13943.279499221,E,5,12,0.92,27.582,M,36.997,M,2.8,7107*49
$GPGGA,121519.90,3542.305733624,N,13943.279499080,E,5,12,0.92,27.578,M,36.997,M,2.9,7107*42
$GPGGA,121520.00,3542.305733194,N,13943.279498895,E,5,12,0.92,27.575,M,36.997,M,3.0,7107*45
$GPGGA,121520.10,3542.305732500,N,13943.279501808,E,5,12,0.92,27.570,M,36.997,M,3.1,7107*4D
$GPGGA,121520.20,3542.305730064,N,13943.279504400,E,5,12,0.92,27.566,M,36.997,M,3.2,7107*4E
$GPGGA,121520.30,3542.305732370,N,13943.279501182,E,5,12,0.92,27.567,M,36.997,M,3.3,7107*41
$GPGGA,121520.40,3542.305734662,N,13943.279501310,E,5,12,0.92,27.556,M,36.997,M,3.4,7107*4A
$GPGGA,121520.50,3542.305736190,N,13943.279506598,E,5,12,0.92,27.551,M,36.997,M,3.5,7107*44
$GPGGA,121520.60,3542.305736741,N,13943.279504716,E,5,12,0.92,27.550,M,36.997,M,3.6,7107*49
$GPGGA,121520.70,3542.305736555,N,13943.279502945,E,5,12,0.92,27.540,M,36.997,M,3.7,7107*41
$GPGGA,121520.80,3542.305740025,N,13943.279505666,E,5,12,0.92,27.542,M,36.997,M,3.8,7107*49
$GPGGA,121520.90,3542.305739525,N,13943.279504113,E,5,12,0.92,27.534,M,36.997,M,3.9,7107*47
$GPGGA,121521.00,3542.305740451,N,13943.279507145,E,5,12,0.92,27.531,M,36.997,M,4.0,7107*48
$GPGGA,121521.10,3542.305739180,N,13943.279507853,E,5,12,0.92,27.537,M,36.997,M,4.1,7107*47
$GPGGA,121521.20,3542.305742772,N,13943.279504324,E,5,12,0.92,27.551,M,36.998,M,4.2,7107*47
$GPGGA,121521.30,3542.305743054,N,13943.279506978,E,5,12,0.92,27.547,M,36.998,M,4.3,7107*43
$GPGGA,121521.40,3542.305741944,N,13943.279508348,E,5,12,0.92,27.544,M,36.997,M,4.4,7107*42
$GPGGA,121521.50,3542.305742249,N,13943.279508412,E,5,12,0.92,27.542,M,36.998,M,4.5,7107*46
$GPGGA,121521.60,3542.305746108,N,13943.279510004,E,5,12,0.92,27.534,M,36.998,M,4.6,7107*4F
$GPGGA,121521.70,3542.305747369,N,13943.279509366,E,5,12,0.92,27.542,M,36.998,M,4.7,7107*45
$GPGGA,121521.80,3542.305747190,N,13943.279508384,E,5,12,0.92,27.523,M,36.998,M,4.8,7107*4B
$GPGGA,121521.90,3542.305747913,N,13943.279510187,E,5,12,0.92,27.536,M,36.998,M,4.9,7107*44
$GPGGA,121522.00,3542.305746972,N,13943.279510924,E,5,12,0.92,27.541,M,36.998,M,5.0,7107*41
$GPGGA,121522.10,3542.305744794,N,13943.279510440,E,5,12,0.92,27.526,M,36.998,M,5.1,7107*4B
$GPGGA,121522.20,3542.305745998,N,13943.279512959,E,5,12,0.92,27.517,M,36.998,M,5.2,7107*4D
$GPGGA,121522.30,3542.305747900,N,13943.279511144,E,5,12,0.92,27.519,M,36.998,M,5.3,7107*47
$GPGGA,121522.40,3542.305748284,N,13943.279510611,E,5,12,0.92,27.509,M,36.998,M,5.4,7107*48
$GPGGA,121522.50,3542.305750100,N,13943.279495023,E,5,12,0.92,27.568,M,36.998,M,5.5,7107*42
$GPGGA,121522.60,3542.305749493,N,13943.279499591,E,5,12,0.92,27.523,M,36.998,M,5.6,7107*4A
$GPGGA,121522.70,3542.305748678,N,13943.279498752,E,5,12,0.92,27.489,M,36.998,M,5.7,7107*41
$GPGGA,121522.80,3542.305747694,N,13943.279496041,E,5,12,0.92,27.476,M,36.998,M,5.8,7107*47
$GPGGA,121522.90,3542.305746680,N,13943.279492850,E,5,12,0.92,27.458,M,36.998,M,5.9,7107*43
$GPGGA,121523.00,3542.305744649,N,13943.279493974,E,5,12,0.92,27.460,M,36.998,M,6.0,7107*4B
$GPGGA,121523.10,3542.305747712,N,13943.279490334,E,5,12,0.92,27.450,M,36.998,M,1.1,7107*4E
$GPGGA,121523.20,3542.305751160,N,13943.279490331,E,5,12,0.92,27.437,M,36.998,M,1.2,7107*4E
$GPGGA,121523.30,3542.305753093,N,13943.279488753,E,5,12,0.92,27.416,M,36.998,M,1.3,7107*4B
$GPGGA,121523.40,3542.305753775,N,13943.279492117,E,5,12,0.92,27.404,M,36.998,M,1.4,7107*4A
$GPGGA,121523.50,3542.305753289,N,13943.279492588,E,5,12,0.92,27.402,M,36.998,M,1.5,7107*48
$GPGGA,121523.60,3542.305753029,N,13943.279491912,E,5,12,0.92,27.399,M,36.998,M,1.6,7107*49
$GPGGA,121523.70,3542.305756276,N,13943.279490244,E,5,12,0.92,27.389,M,36.998,M,1.7,7107*4C
$GPGGA,121523.80,3542.305756452,N,13943.279489067,E,5,12,0.92,27.382,M,36.998,M,1.8,7107*4C
$GPGGA,121523.90,3542.305759133,N,13943.279487317,E,5,12,0.92,27.385,M,36.998,M,1.9,7107*4C
$GPGGA,121524.00,3542.305759737,N,13943.279488414,E,5,12,0.92,27.384,M,36.998,M,2.0,7107*40
$GPGGA,121524.10,3542.305763806,N,13943.279489960,E,5,12,0.92,27.390,M,36.998,M,2.1,7107*4E
$GPGGA,121524.20,3542.305766461,N,13943.279489162,E,5,12,0.92,27.405,M,36.998,M,2.2,7107*47
$GPGGA,121524.30,3542.305769562,N,13943.279490649,E,5,12,0.92,27.387,M,36.998,M,2.3,7107*41
$GPGGA,121524.40,3542.305770699,N,13943.279490727,E,5,12,0.92,27.392,M,36.998,M,2.4,7107*43
$GPGGA,121524.50,3542.305772446,N,13943.279492577,E,5,12,0.92,27.399,M,36.998,M,2.5,7107*4F
$GPGGA,121524.60,3542.305774387,N,13943.279491889,E,5,12,0.92,27.392,M,36.998,M,2.6,7107*47
$GPGGA,121524.70,3542.305773349,N,13943.279491191,E,5,12,0.92,27.386,M,36.998,M,2.7,7107*47
$GPGGA,121524.80,3542.305775499,N,13943.279490484,E,5,12,0.92,27.391,M,36.998,M,2.8,7107*4D
$GPGGA,121524.90,3542.305776177,N,13943.279487230,E,5,12,0.92,27.393,M,36.998,M,2.9,7107*46
$GPGGA,121525.00,3542.305777447,N,13943.279487528,E,5,12,0.92,27.397,M,36.998,M,3.0,7107*4B
$GPGGA,121525.10,3542.305778648,N,13943.279487048,E,5,12,0.92,27.403,M,36.998,M,3.1,7107*40
$GPGGA,121525.20,3542.305779301,N,13943.279486024,E,5,12,0.92,27.409,M,36.998,M,3.2,7107*48
$GPGGA,121525.30,3542.305779733,N,13943.279485882,E,5,12,0.92,27.424,M,36.998,M,3.3,7107*45
$GPGGA,121525.40,3542.305781073,N,13943.279485820,E,5,12,0.92,27.411,M,36.998,M,3.4,7107*4F
$GPGGA,121525.50,3542.305781545,N,13943.279487023,E,5,12,0.92,27.413,M,36.998,M,3.5,7107*44
$GPGGA,121525.60,3542.305782692,N,13943.279486417,E,5,12,0.92,27.409,M,36.998,M,3.6,7107*47
$GPGGA,121525.70,3542.305783903,N,13943.279489715,E,5,12,0.92,27.413,M,36.998,M,3.7,7107*44
$GPGGA,121525.80,3542.305785103,N,13943.279489560,E,5,12,0.92,27.408,M,36.998,M,3.8,7107*40
$GPGGA,121525.90,3542.305784994,N,13943.279489931,E,5,12,0.92,27.412,M,36.998,M,3.9,7107*44
$GPGGA,121526.00,3542.305784398,N,13943.279496390,E,5,12,0.92,27.406,M,36.998,M,4.0,7107*4C
$GPGGA,121526.10,3542.305783178,N,13943.279500273,E,5,12,0.92,27.406,M,36.998,M,4.1,7107*45
$GPGGA,121526.20,3542.305782797,N,13943.279508111,E,5,12,0.92,27.411,M,36.998,M,4.2,7107*4A
$GPGGA,121526.30,3542.305782054,N,13943.279511982,E,5,12,0.92,27.403,M,36.998,M,4.3,7107*4B
$GPGGA,121526.40,3542.305781594,N,13943.279516826,E,5,12,0.92,27.403,M,36.998,M,4.4,7107*49
$GPGGA,121526.50,3542.305785589,N,13943.279516962,E,5,12,0.92,27.407,M,36.998,M,4.5,7107*44
$GPGGA,121526.60,3542.305785959,N,13943.279515979,E,5,12,0.92,27.406,M,36.998,M,4.6,7107*4D
$GPGGA,121526.70,3542.305785067,N,13943.279514718,E,5,12,0.92,27.407,M,36.998,M,4.7,7107*40
$GPGGA,121526.80,3542.305785915,N,13943.279519183,E,5,12,0.92,27.407,M,36.998,M,4.8,7107*45
$GPGGA,121526.90,3542.305788156,N,13943.279518840,E,5,12,0.92,27.400,M,36.998,M,4.9,7107*47
$GPGGA,121527.00,3542.305788215,N,13943.279521561,E,5,12,0.92,27.392,M,36.998,M,5.0,7107*4B
$GPGGA,121527.10,3542.305789065,N,13943.279523797,E,5,12,0.92,27.387,M,36.998,M,5.1,7107*42
$GPGGA,121527.20,3542.305791674,N,13943.279523251,E,5,12,0.92,27.378,M,36.998,M,5.2,7107*42
$GPGGA,121527.30,3542.305791881,N,13943.279524051,E,5,12,0.92,27.377,M,36.998,M,5.3,7107*4C
$GPGGA,121527.40,3542.305789651,N,13943.279525297,E,5,12,0.92,27.371,M,36.998,M,5.4,7107*49
$GPGGA,121527.50,3542.305793427,N,13943.279526348,E,5,12,0.92,27.367,M,36.998,M,5.5,7107*46
$GPGGA,121527.60,3542.305796054,N,13943.279528018,E,5,12,0.92,27.368,M,36.998,M,5.6,7107*44
$GPGGA,121527.70,3542.305794525,N,13943.279526440,E,5,12,0.92,27.365,M,36.998,M,5.7,7107*4F
$GPGGA,121527.80,3542.305794688,N,13943.279528710,E,5,12,0.92,27.355,M,36.998,M,5.8,7107*40
$GPGGA,121527.90,3542.305797099,N,13943.279532462,E,5,12,0.92,27.364,M,36.998,M,5.9,7107*4A
$GPGGA,121528.00,3542.305795910,N,13943.279532224,E,5,12,0.92,27.351,M,36.998,M,6.0,7107*4E
$GPGGA,121528.10,3542.305795879,N,13943.279537551,E,5,12,0.92,27.342,M,36.998,M,1.1,7107*45
$GPGGA,121528.20,3542.305797446,N,13943.279540249,E,5,12,0.92,27.347,M,36.998,M,1.2,7107*4C
$GPGGA,121528.30,3542.305796977,N,13943.279537657,E,5,12,0.92,27.341,M,36.998,M,1.3,7107*4F
$GPGGA,121528.40,3542.305796201,N,13943.279541098,E,5,12,0.92,27.337,M,36.998,M,1.4,7107*40
$GPGGA,121528.50,3542.305796197,N,13943.279544828,E,5,12,0.92,27.342,M,36.998,M,1.5,7107*48
$GPGGA,121528.60,3542.305795010,N,13943.279549204,E,5,12,0.92,27.327,M,36.998,M,1.6,7107*4F
$GPGGA,121528.70,3542.305794503,N,13943.279553153,E,5,12,0.92,27.324,M,36.998,M,1.7,7107*40
$GPGGA,121528.80,3542.305800376,N,13943.279663083,E,5,12,0.92,27.381,M,36.997,M,1.8,7107*4A
$GPGGA,121528.90,3542.305808925,N,13943.279683336,E,5,12,0.92,27.342,M,36.997,M,1.9,7107*42
$GPGGA,121529.00,3542.305802827,N,13943.279698740,E,5,12,0.92,27.324,M,36.997,M,2.0,7107*46
$GPGGA,121529.10,3542.305799887,N,13943.279711569,E,5,12,0.92,27.303,M,36.997,M,2.1,7107*4D
$GPGGA,121529.20,3542.305798955,N,13943.279719441,E,5,12,0.92,27.294,M,36.997,M,2.2,7107*4E
$GPGGA,121529.30,3542.305795539,N,13943.279720447,E,5,12,0.92,27.260,M,36.997,M,2.3,7107*42
$GPGGA,121529.40,3542.305797587,N,13943.279729273,E,5,12,0.92,27.201,M,36.997,M,2.4,7107*4A
$GPGGA,121529.50,3542.305804549,N,13943.279736676,E,5,12,0.92,27.154,M,36.997,M,2.5,7107*41
$GPGGA,121529.60,3542.305804331,N,13943.279742413,E,5,12,0.92,27.115,M,36.997,M,2.6,7107*4F
$GPGGA,121529.70,3542.305808965,N,13943.279747744,E,5,12,0.92,27.070,M,36.997,M,2.7,7107*4E
$GPGGA,121529.80,3542.305817006,N,13943.279735408,E,5,12,0.92,27.051,M,36.997,M,2.8,7107*41
$GPGGA,121529.90,3542.305815192,N,13943.279742822,E,5,12,0.92,27.015,M,36.997,M,2.9,7107*4B
$GPGGA,121530.00,3542.305817410,N,13943.279746857,E,5,12,0.92,26.992,M,36.997,M,3.0,7107*4E
$GPGGA,121530.10,3542.305815678,N,13943.279754536,E,5,12,0.92,26.974,M,36.997,M,3.1,7107*41
$GPGGA,121530.20,3542.305814363,N,13943.279765991,E,5,12,0.92,27.002,M,36.997,M,3.2,7107*45
$GPGGA,121530.30,3542.305815720,N,13943.279774802,E,5,12,0.92,27.022,M,36.997,M,3.3,7107*4E
$GPGGA,121530.40,3542.305816140,N,13943.279779749,E,5,12,0.92,27.029,M,36.997,M,3.4,7107*4B
$GPGGA,121530.50,3542.305823614,N,13943.279774846,E,5,12,0.92,27.032,M,36.997,M,3.5,7107*4C
$GPGGA,121530.60,3542.305828687,N,13943.279768358,E,5,12,0.92,27.027,M,36.997,M,3.6,7107*40
$GPGGA,121530.70,3542.305833240,N,13943.279763493,E,5,12,0.92,27.034,M,36.997,M,3.7,7107*4C
$GPGGA,121530.80,3542.305835590,N,13943.279766712,E,5,12,0.92,27.029,M,36.997,M,3.8,7107*43
$GPGGA,121530.90,3542.305836082,N,13943.279772500,E,5,12,0.92,27.018,M,36.997,M,3.9,7107*40
$GPGGA,121531.00,3542.305836597,N,13943.279776099,E,5,12,0.92,27.003,M,36.997,M,4.0,7107*4C
$GPGGA,121531.10,3542.305836330,N,13943.279780158,E,5,12,0.92,27.003,M,36.997,M,4.1,7107*42
$GPGGA,121531.20,3542.305832595,N,13943.279787454,E,5,12,0.92,26.998,M,36.997,M,4.2,7107*4B
$GPGGA,121531.30,3542.305835428,N,13943.279782213,E,5,12,0.92,26.994,M,36.997,M,4.3,7107*47
$GPGGA,121531.40,3542.305838935,N,13943.279777892,E,5,12,0.92,26.993,M,36.997,M,4.4,7107*45
$GPGGA,121531.50,3542.305836887,N,13943.279780952,E,5,12,0.92,26.983,M,36.997,M,4.5,7107*47
$GPGGA,121531.60,3542.305835716,N,13943.279783702,E,5,12,0.92,26.976,M,36.997,M,4.6,7107*41
$GPGGA,121531.70,3542.305835251,N,13943.279788129,E,5,12,0.92,26.962,M,36.997,M,4.7,7107*46
$GPGGA,121531.80,3542.305833222,N,13943.279791218,E,5,12,0.92,26.949,M,36.997,M,4.8,7107*44
$GPGGA,121531.90,3542.305833471,N,13943.279794291,E,5,12,0.92,26.931,M,36.997,M,4.9,7107*4F
$GPGGA,121532.00,3542.305833362,N,13943.279800420,E,5,12,0.92,26.923,M,36.997,M,5.0,7107*45
$GPGGA,121532.10,3542.305836297,N,13943.279799937,E,5,12,0.92,26.911,M,36.997,M,5.1,7107*4E
$GPGGA,121532.20,3542.305836602,N,13943.279798361,E,5,12,0.92,26.902,M,36.997,M,5.2,7107*4C
$GPGGA,121532.30,3542.305840246,N,13943.279794817,E,5,12,0.92,26.913,M,36.997,M,5.3,7107*4F
$GPGGA,121532.40,3542.305844847,N,13943.279795220,E,5,12,0.92,26.932,M,36.997,M,5.4,7107*4C
$GPGGA,121532.50,3542.305845012,N,13943.279795017,E,5,12,0.92,26.930,M,36.997,M,5.5,7107*41
$GPGGA,121532.60,3542.305846406,N,13943.279795000,E,5,12,0.92,26.933,M,36.997,M,5.6,7107*46
$GPGGA,121532.70,3542.305847472,N,13943.279791666,E,5,12,0.92,26.935,M,36.997,M,5.7,7107*40
$GPGGA,121532.80,3542.305845540,N,13943.279789703,E,5,12,0.92,26.918,M,36.997,M,5.8,7107*46
$GPGGA,121532.90,3542.305844905,N,13943.279784622,E,5,12,0.92,26.928,M,36.997,M,5.9,7107*46
$GPGGA,121533.00,3542.305846304,N,13943.279783458,E,5,12,0.92,26.915,M,36.997,M,6.0,7107*4B
$GPGGA,121533.10,3542.305848425,N,13943.279784772,E,5,12,0.92,26.908,M,36.997,M,1.1,7107*46
$GPGGA,121533.20,3542.305848404,N,13943.279782718,E,5,12,0.92,26.914,M,36.997,M,1.2,7107*42
$GPGGA,121533.30,3542.305851874,N,13943.279781963,E,5,12,0.92,26.902,M,36.997,M,1.3,7107*47
$GPGGA,121533.40,3542.305855528,N,13943.279781735,E,5,12,0.92,26.883,M,36.997,M,1.4,7107*42
$GPGGA,121533.50,3542.305857981,N,13943.279784454,E,5,12,0.92,26.895,M,36.997,M,1.5,7107*49
$GPGGA,121533.60,3542.305858116,N,13943.279783179,E,5,12,0.92,26.886,M,36.997,M,1.6,7107*4F
$GPGGA,121533.70,3542.305860457,N,13943.279779501,E,5,12,0.92,26.883,M,36.997,M,1.7,7107*4F
$GPGGA,121533.80,3542.305861477,N,13943.279780089,E,5,12,0.92,26.884,M,36.997,M,1.8,7107*48
$GPGGA,121533.90,3542.305860065,N,13943.279777989,E,5,12,0.92,26.893,M,36.997,M,1.9,7107*49
$GPGGA,121534.00,3542.305863173,N,13943.279773418,E,5,12,0.92,26.900,M,36.997,M,2.0,7107*42
$GPGGA,121534.10,3542.305865420,N,13943.279775608,E,5,12,0.92,26.898,M,36.997,M,2.1,7107*42
$GPGGA,121534.20,3542.305863111,N,13943.279773728,E,5,12,0.92,26.898,M,36.997,M,2.2,7107*46
$GPGGA,121534.30,3542.305866493,N,13943.279776442,E,5,12,0.92,26.900,M,36.997,M,2.3,7107*46
$GPGGA,121534.40,3542.305867732,N,13943.279773888,E,5,12,0.92,26.883,M,36.997,M,2.4,7107*4A
$GPGGA,121534.50,3542.305866592,N,13943.279772943,E,5,12,0.92,26.884,M,36.997,M,2.5,7107*43
$GPGGA,121534.60,3542.305865673,N,13943.279775392,E,5,12,0.92,26.881,M,36.997,M,2.6,7107*48
$GPGGA,121534.70,3542.305868097,N,13943.279774287,E,5,12,0.92,26.864,M,36.997,M,2.7,7107*46
$GPGGA,121534.80,3542.305867949,N,13943.279775464,E,5,12,0.92,26.885,M,36.997,M,2.8,7107*46
$GPGGA,121534.90,3542.305870920,N,13943.279774695,E,5,12,0.92,26.866,M,36.997,M,2.9,7107*4F
$GPGGA,121535.00,3542.305894180,N,13943.279748825,E,5,12,0.92,26.912,M,36.998,M,3.0,7107*40
$GPGGA,121535.10,3542.305874636,N,13943.279727627,E,5,12,0.92,26.910,M,36.998,M,3.1,7107*43
$GPGGA,121535.20,3542.305869700,N,13943.279724984,E,5,12,0.92,26.912,M,36.998,M,3.2,7107*4C
$GPGGA,121535.30,3542.305874454,N,13943.279732378,E,5,12,0.92,26.849,M,36.998,M,3.3,7107*43
$GPGGA,121535.40,3542.305875538,N,13943.279732364,E,5,12,0.92,26.842,M,36.998,M,3.4,7107*4F
$GPGGA,121535.50,3542.305877642,N,13943.279736639,E,5,12,0.92,26.834,M,36.998,M,3.5,7107*4B
$GPGGA,121535.60,3542.305877986,N,13943.279739880,E,5,12,0.92,26.819,M,36.998,M,3.6,7107*40
$GPGGA,121535.70,3542.305874177,N,13943.279734006,E,5,12,0.92,26.839,M,36.998,M,3.7,7107*4C
$GPGGA,121535.80,3542.305874028,N,13943.279732960,E,5,12,0.92,26.858,M,36.998,M,3.8,7107*4F
$GPGGA,121535.90,3542.305872575,N,13943.279728730,E,5,12,0.92,26.864,M,36.998,M,3.9,7107*4B
$GPGGA,121536.00,3542.305870928,N,13943.279728264,E,5,12,0.92,26.863,M,36.998,M,4.0,7107*4A
$GPGGA,121536.10,3542.305869177,N,13943.279727629,E,5,12,0.92,26.873,M,36.998,M,4.1,7107*43
$GPGGA,121536.20,3542.305866233,N,13943.279727924,E,5,12,0.92,26.873,M,36.998,M,4.2,7107*4D
$GPGGA,121536.30,3542.305862428,N,13943.279725611,E,5,12,0.92,26.892,M,36.998,M,4.3,7107*41
$GPGGA,121536.40,3542.305860931,N,13943.279724075,E,5,12,0.92,26.888,M,36.998,M,4.4,7107*48
$GPGGA,121536.50,3542.305861411,N,13943.279720751,E,5,12,0.92,26.883,M,36.998,M,4.5,7107*48
$GPGGA,121536.60,3542.305864296,N,13943.279726388,E,5,12,0.92,26.868,M,36.998,M,4.6,7107*47
$GPGGA,121536.70,3542.305864379,N,13943.279727983,E,5,12,0.92,26.865,M,36.998,M,4.7,7107*4A
$GPGGA,121536.80,3542.305863705,N,13943.279731463,E,5,12,0.92,26.859,M,36.998,M,4.8,7107*49
$GPGGA,121536.90,3542.305867410,N,13943.279733435,E,5,12,0.92,26.839,M,36.998,M,4.9,7107*4D
$GPGGA,121537.00,3542.305870327,N,13943.279738045,E,5,12,0.92,26.838,M,36.998,M,5.0,7107*41
$GPGGA,121537.10,3542.305870195,N,13943.279740588,E,5,12,0.92,26.828,M,36.998,M,5.1,7107*40
$GPGGA,121537.20,3542.305871255,N,13943.279740799,E,5,12,0.92,26.838,M,36.998,M,5.2,7107*4D
$GPGGA,121537.30,3542.305869034,N,13943.279741659,E,5,12,0.92,26.835,M,36.998,M,5.3,7107*40
$GPGGA,121537.40,3542.305867320,N,13943.279740678,E,5,12,0.92,26.839,M,36.998,M,5.4,7107*46
$GPGGA,121537.50,3542.305869852,N,13943.279741257,E,5,12,0.92,26.848,M,36.998,M,5.5,7107*48
$GPGGA,121537.60,3542.305872093,N,13943.279741176,E,5,12,0.92,26.849,M,36.998,M,5.6,7107*46
$GPGGA,121537.70,3542.305871941,N,13943.279744187,E,5,12,0.92,26.849,M,36.998,M,5.7,7107*48
$GPGGA,121537.80,3542.305874281,N,13943.279744368,E,5,12,0.92,26.851,M,36.998,M,5.8,7107*40
$GPGGA,121537.90,3542.305873318,N,13943.279746023,E,5,12,0.92,26.862,M,36.998,M,5.9,7107*48
$GPGGA,121538.00,3542.305874445,N,13943.279747648,E,5,12,0.92,26.863,M,36.998,M,6.0,7107*47
$GPGGA,121538.10,3542.305875441,N,13943.279750773,E,5,12,0.92,26.869,M,36.998,M,1.1,7107*40
$GPGGA,121538.20,3542.305878736,N,13943.279752119,E,5,12,0.92,26.878,M,36.998,M,1.2,7107*46
$GPGGA,121538.30,3542.305882059,N,13943.279754002,E,5,12,0.92,26.877,M,36.998,M,1.3,7107*4F
$GPGGA,121538.40,3542.305884337,N,13943.279755605,E,5,12,0.92,26.873,M,36.998,M,1.4,7107*46
$GPGGA,121538.50,3542.305883661,N,13943.279758629,E,5,12,0.92,26.889,M,36.998,M,1.5,7107*41
$GPGGA,121538.60,3542.305884421,N,13943.279760484,E,5,12,0.92,26.876,M,36.998,M,1.6,7107*4E
$GPGGA,121538.70,3542.305885458,N,13943.279759720,E,5,12,0.92,26.880,M,36.998,M,1.7,7107*4F
$GPGGA,121538.80,3542.305884464,N,13943.279759340,E,5,12,0.92,26.886,M,36.998,M,1.8,7107*45
$GPGGA,121538.90,3542.305886248,N,13943.279761863,E,5,12,0.92,26.885,M,36.998,M,1.9,7107*4D
$GPGGA,121539.00,3542.305884231,N,13943.279763988,E,5,12,0.92,26.890,M,36.998,M,2.0,7107*41
$GPGGA,121539.10,3542.305885113,N,13943.279766203,E,5,12,0.92,26.884,M,36.998,M,2.1,7107*4B
$GPGGA,121539.20,3542.305884527,N,13943.279764196,E,5,12,0.92,26.884,M,36.998,M,2.2,7107*44
$GPGGA,121539.30,3542.305885697,N,13943.279763435,E,5,12,0.92,26.885,M,36.998,M,2.3,7107*47
$GPGGA,121539.40,3542.305886909,N,13943.279765578,E,5,12,0.92,26.879,M,36.998,M,2.4,7107*41
$GPGGA,121539.50,3542.305889447,N,13943.279767357,E,5,12,0.92,26.884,M,36.998,M,2.5,7107*42
$GPGGA,121539.60,3542.305889334,N,13943.279766823,E,5,12,0.92,26.883,M,36.998,M,2.6,7107*4F
$GPGGA,121539.70,3542.305888386,N,13943.279767270,E,5,12,0.92,26.864,M,36.998,M,2.7,7107*43
$GPGGA,121539.80,3542.305887251,N,13943.279766612,E,5,12,0.92,26.859,M,36.998,M,2.8,7107*48
$GPGGA,121539.90,3542.305888362,N,13943.279761640,E,5,12,0.92,26.851,M,36.998,M,2.9,7107*4E
$GPGGA,121540.00,3542.305889095,N,13943.279763509,E,5,12,0.92,26.849,M,36.998,M,3.0,7107*4E
$GPGGA,121540.10,3542.305891426,N,13943.279762113,E,5,12,0.92,26.841,M,36.998,M,3.1,7107*4D
$GPGGA,121540.20,3542.305891012,N,13943.279760090,E,5,12,0.92,26.824,M,36.998,M,3.2,7107*45
$GPGGA,121540.30,3542.305885175,N,13943.279757481,E,5,12,0.92,26.824,M,36.998,M,3.3,7107*40
$GPGGA,121540.40,3542.305886287,N,13943.279759205,E,5,12,0.92,26.823,M,36.998,M,3.4,7107*4E
$GPGGA,121540.50,3542.305889693,N,13943.279761840,E,5,12,0.92,26.814,M,36.998,M,3.5,7107*44
$GPGGA,121540.60,3542.305890474,N,13943.279759571,E,5,12,0.92,26.798,M,36.998,M,3.6,7107*48
$GPGGA,121540.70,3542.305886318,N,13943.279762134,E,5,12,0.92,26.797,M,36.998,M,3.7,7107*40
$GPGGA,121540.80,3542.305890239,N,13943.279764442,E,5,12,0.92,26.799,M,36.998,M,3.8,7107*49
$GPGGA,121540.90,3542.305894196,N,13943.279764072,E,5,12,0.92,26.777,M,36.998,M,3.9,7107*4C
$GPGGA,121541.00,3542.305891066,N,13943.279761451,E,5,12,0.92,26.773,M,36.998,M,4.0,7107*45
$GPGGA,121541.10,3542.305891402,N,13943.279763255,E,5,12,0.92,26.767,M,36.998,M,4.1,7107*46
$GPGGA,121541.20,3542.305898118,N,13943.279750913,E,5,12,0.92,26.803,M,36.998,M,4.2,7107*45
$GPGGA,121541.30,3542.305887858,N,13943.279751734,E,5,12,0.92,26.751,M,36.998,M,4.3,7107*44
$GPGGA,121541.40,3542.305881036,N,13943.279751466,E,5,12,0.92,26.707,M,36.998,M,4.4,7107*45
$GPGGA,121541.50,3542.305882306,N,13943.279753349,E,5,12,0.92,26.675,M,36.998,M,4.5,7107*4A
$GPGGA,121541.60,3542.305876945,N,13943.279752736,E,5,12,0.92,26.645,M,36.998,M,4.6,7107*42
$GPGGA,121541.70,3542.305877888,N,13943.279749221,E,5,12,0.92,26.626,M,36.998,M,4.7,7107*4F
$GPGGA,121541.80,3542.305876664,N,13943.279749250,E,5,12,0.92,26.608,M,36.998,M,4.8,7107*48
$GPGGA,121541.90,3542.305876530,N,13943.279751817,E,5,12,0.92,26.603,M,36.998,M,4.9,7107*41
$GPGGA,121542.00,3542.305880224,N,13943.279748318,E,5,12,0.92,26.584,M,36.998,M,5.0,7107*48
$GPGGA,121542.10,3542.305878104,N,13943.279749866,E,5,12,0.92,26.552,M,36.998,M,5.1,7107*46
$GPGGA,121542.20,3542.305876989,N,13943.279747639,E,5,12,0.92,26.542,M,36.998,M,5.2,7107*4E
$GPGGA,121542.30,3542.305876157,N,13943.279745866,E,5,12,0.92,26.520,M,36.998,M,5.3,7107*47
$GPGGA,121542.40,3542.305877831,N,13943.279746810,E,5,12,0.92,26.505,M,36.998,M,5.4,7107*4A
$GPGGA,121542.50,3542.305878404,N,13943.279743340,E,5,12,0.92,26.502,M,36.998,M,5.5,7107*43
$GPGGA,121542.60,3542.305878298,N,13943.279740722,E,5,12,0.92,26.486,M,36.998,M,5.6,7107*4E
$GPGGA,121542.70,3542.305876055,N,13943.279740518,E,5,12,0.92,26.472,M,36.998,M,5.7,7107*43
$GPGGA,121542.80,3542.305875394,N,13943.279740524,E,5,12,0.92,26.468,M,36.998,M,5.8,7107*4A
$GPGGA,121542.90,3542.305875253,N,13943.279736867,E,5,12,0.92,26.461,M,36.998,M,5.9,7107*42
$GPGGA,121543.00,3542.305874380,N,13943.279737991,E,5,12,0.92,26.467,M,36.998,M,6.0,7107*41
$GPGGA,121543.10,3542.305876008,N,13943.279736620,E,5,12,0.92,26.458,M,36.998,M,6.1,7107*48
$GPGGA,121543.20,3542.305874550,N,13943.279736954,E,5,12,0.92,26.454,M,36.998,M,6.2,7107*42
$GPGGA,121543.30,3542.305874807,N,13943.279737896,E,5,12,0.92,26.450,M,36.998,M,6.3,7107*47
$GPGGA,121543.40,3542.305874671,N,13943.279738032,E,5,12,0.92,26.438,M,36.998,M,6.4,7107*4F
$GPGGA,121543.50,3542.305871364,N,13943.279737535,E,5,12,0.92,26.418,M,36.998,M,6.5,7107*44
$GPGGA,121543.60,3542.305872421,N,13943.279743079,E,5,12,0.92,26.427,M,36.998,M,6.6,7107*43
$GPGGA,121543.70,3542.305868838,N,13943.279743391,E,5,12,0.92,26.409,M,36.998,M,6.7,7107*45
$GPGGA,121543.80,3542.305866801,N,13943.279744381,E,5,12,0.92,26.401,M,36.998,M,6.8,7107*4F
$GPGGA,121543.90,3542.305871051,N,13943.279747016,E,5,12,0.92,26.390,M,36.998,M,6.9,7107*45
$GPGGA,121544.00,3542.305868805,N,13943.279747721,E,5,12,0.92,26.374,M,36.998,M,7.0,7107*4B
$GPGGA,121544.10,3542.305866339,N,13943.279746558,E,5,12,0.92,26.352,M,36.998,M,2.1,7107*4D
$GPGGA,121544.20,3542.305866109,N,13943.279744520,E,5,12,0.92,26.337,M,36.998,M,2.2,7107*42
$GPGGA,121544.30,3542.305865395,N,13943.279747194,E,5,12,0.93,26.326,M,36.998,M,2.3,7107*4F
$GPGGA,121544.40,3542.305863382,N,13943.279748869,E,5,12,0.93,26.330,M,36.997,M,2.4,7107*43
$GPGGA,121544.50,3542.305861732,N,13943.279746494,E,5,12,0.93,26.324,M,36.997,M,2.5,7107*4B
$GPGGA,121544.60,3542.305862938,N,13943.279746386,E,5,12,0.93,26.319,M,36.997,M,2.6,7107*46
$GPGGA,121544.70,3542.305865628,N,13943.279746141,E,5,12,0.93,26.320,M,36.998,M,2.7,7107*43
$GPGGA,121544.80,3542.305865635,N,13943.279744586,E,5,12,0.93,26.308,M,36.998,M,2.8,7107*48
$GPGGA,121544.90,3542.305866802,N,13943.279742985,E,5,12,0.93,26.293,M,36.998,M,2.9,7107*4B
$GPGGA,121545.00,3542.305865931,N,13943.279744306,E,5,12,0.93,26.310,M,36.998,M,3.0,7107*44
$GPGGA,121545.10,3542.305860655,N,13943.279743138,E,5,12,0.93,26.286,M,36.997,M,3.1,7107*45
$GPGGA,121545.20,3542.305859181,N,13943.279742650,E,5,12,0.93,26.273,M,36.997,M,3.2,7107*43
$GPGGA,121545.30,3542.305858820,N,13943.279749276,E,5,12,0.93,26.270,M,36.997,M,3.3,7107*48
$GPGGA,121545.40,3542.305858731,N,13943.279747857,E,5,12,0.93,26.266,M,36.997,M,3.4,7107*47
$GPGGA,121545.50,3542.305863777,N,13943.279747646,E,5,12,0.93,26.266,M,36.997,M,3.5,7107*43
$GPGGA,121545.60,3542.305862551,N,13943.279752508,E,5,12,0.93,26.253,M,36.997,M,3.6,7107*4F
$GPGGA,121545.70,3542.305864736,N,13943.279752820,E,5,12,0.93,26.240,M,36.997,M,3.7,7107*4F
$GPGGA,121545.80,3542.305865142,N,13943.279750449,E,5,11,1.02,26.233,M,36.997,M,3.8,7107*44
$GPGGA,121545.90,3542.305862685,N,13943.279756149,E,5,11,1.02,26.250,M,36.997,M,3.9,7107*49
$GPGGA,121546.00,3542.305861651,N,13943.279757549,E,5,11,1.02,26.251,M,36.997,M,4.0,7107*43
$GPGGA,121546.10,3542.305860000,N,13943.279757281,E,5,11,1.02,26.253,M,36.997,M,4.1,7107*41
$GPGGA,121546.20,3542.305857872,N,13943.279761318,E,5,11,1.02,26.262,M,36.997,M,4.2,7107*4E
$GPGGA,121546.30,3542.305853654,N,13943.279763507,E,5,11,1.02,26.262,M,36.997,M,4.3,7107*4A
$GPGGA,121546.40,3542.305851450,N,13943.279767822,E,5,11,1.02,26.256,M,36.997,M,4.4,7107*47
$GPGGA,121546.50,3542.305850498,N,13943.279768916,E,5,11,1.02,26.270,M,36.997,M,4.5,7107*4F
$GPGGA,121546.60,3542.305847131,N,13943.279771736,E,5,11,1.02,26.279,M,36.997,M,4.6,7107*42
$GPGGA,121546.70,3542.305845681,N,13943.279774630,E,5,11,1.02,26.265,M,36.997,M,4.7,7107*43
$GPGGA,121546.80,3542.305844867,N,13943.279776570,E,5,11,1.02,26.279,M,36.997,M,4.8,7107*4C
$GPGGA,121546.90,3542.305843037,N,13943.279776733,E,5,11,1.02,26.280,M,36.997,M,4.9,7107*45
$GPGGA,121547.00,3542.305839742,N,13943.279777670,E,5,11,1.02,26.278,M,36.997,M,5.0,7107*4D
$GPGGA,121547.10,3542.305839981,N,13943.279780790,E,5,11,1.02,26.278,M,36.997,M,5.1,7107*4B
$GPGGA,121547.20,3542.305837772,N,13943.279783838,E,5,11,1.02,26.280,M,36.997,M,5.2,7107*4E
$GPGGA,121547.30,3542.305837969,N,13943.279787146,E,5,11,1.02,26.276,M,36.997,M,5.3,7107*47
$GPGGA,121547.40,3542.305831914,N,13943.279790453,E,5,11,1.02,26.276,M,36.997,M,5.4,7107*4C
$GPGGA,121547.50,3542.305833463,N,13943.279791294,E,5,11,1.02,26.273,M,36.997,M,5.5,7107*4A
$GPGGA,121547.60,3542.305830858,N,13943.279792956,E,5,11,1.02,26.267,M,36.997,M,5.6,7107*4E
$GPGGA,121547.70,3542.305827320,N,13943.279798370,E,5,11,1.02,26.268,M,36.997,M,5.7,7107*47
$GPGGA,121547.80,3542.305828548,N,13943.279800476,E,5,11,1.02,26.277,M,36.997,M,5.8,7107*41
$GPGGA,121547.90,3542.305827179,N,13943.279798470,E,5,11,1.02,26.283,M,36.997,M,5.9,7107*4B
$GPGGA,121548.00,3542.305827024,N,13943.279799328,E,5,11,1.02,26.285,M,36.997,M,6.0,7107*43
$GPGGA,121548.10,3542.305825064,N,13943.279802314,E,5,11,1.02,26.282,M,36.997,M,1.1,7107*47
$GPGGA,121548.20,3542.305823805,N,13943.279800337,E,5,11,1.02,26.274,M,36.997,M,1.2,7107*44
$GPGGA,121548.30,3542.305821992,N,13943.279802920,E,5,11,1.02,26.269,M,36.997,M,1.3,7107*4B
$GPGGA,121548.40,3542.305822048,N,13943.279804809,E,5,11,1.02,26.270,M,36.997,M,1.4,7107*42
$GPGGA,121548.50,3542.305817792,N,13943.279803829,E,5,11,1.02,26.271,M,36.997,M,1.5,7107*40
$GPGGA,121548.60,3542.305817006,N,13943.279810706,E,5,11,1.02,26.265,M,36.997,M,1.6,7107*4F
$GPGGA,121548.70,3542.305816542,N,13943.279812493,E,5,11,1.02,26.257,M,36.997,M,1.7,7107*47
$GPGGA,121548.80,3542.305812525,N,13943.279814152,E,5,11,1.02,26.248,M,36.997,M,1.8,7107*42
$GPGGA,121548.90,3542.305811962,N,13943.279814928,E,5,11,1.02,26.250,M,36.997,M,1.9,7107*42
$GPGGA,121549.00,3542.305810115,N,13943.279816237,E,5,11,1.02,26.249,M,36.997,M,2.0,7107*46
$GPGGA,121549.10,3542.305809450,N,13943.279816499,E,5,11,1.02,26.253,M,36.997,M,2.1,7107*43
$GPGGA,121549.20,3542.305807947,N,13943.279816963,E,5,11,1.02,26.255,M,36.997,M,2.2,7107*48
$GPGGA,121549.30,3542.305806775,N,13943.279819734,E,5,11,1.02,26.243,M,36.997,M,2.3,7107*42
$GPGGA,121549.40,3542.305808015,N,13943.279821288,E,5,11,1.02,26.245,M,36.997,M,2.4,7107*42
$GPGGA,121549.50,3542.305804848,N,13943.279820043,E,5,11,1.02,26.240,M,36.997,M,2.5,7107*4F
$GPGGA,121549.60,3542.305802196,N,13943.279824215,E,5,11,1.02,26.226,M,36.997,M,2.6,7107*46
$GPGGA,121549.70,3542.305797408,N,13943.279825770,E,5,11,1.02,26.230,M,36.997,M,2.7,7107*47
$GPGGA,121549.80,3542.305797804,N,13943.279828304,E,5,11,1.02,26.226,M,36.997,M,2.8,7107*4A
$GPGGA,121549.90,3542.305796241,N,13943.279831897,E,5,12,0.93,26.227,M,36.997,M,2.9,7107*42
$GPGGA,121550.00,3542.305798163,N,13943.279831134,E,5,12,0.93,26.214,M,36.997,M,3.0,7107*46
$GPGGA,121550.10,3542.305797968,N,13943.279831035,E,5,12,0.93,26.195,M,36.997,M,3.1,7107*40
$GPGGA,121550.20,3542.305799416,N,13943.279829494,E,5,12,0.93,26.183,M,36.997,M,3.2,7107*4B
$GPGGA,121550.30,3542.305799963,N,13943.279829770,E,5,12,0.93,26.188,M,36.997,M,3.3,7107*46
$GPGGA,121550.40,3542.305802572,N,13943.279828434,E,5,12,0.93,26.175,M,36.997,M,3.4,7107*47
$GPGGA,121550.50,3542.305802379,N,13943.279828099,E,5,12,0.93,26.160,M,36.997,M,3.5,7107*4D
$GPGGA,121550.60,3542.305803211,N,13943.279828974,E,5,12,0.93,26.161,M,36.997,M,3.6,7107*48
$GPGGA,121550.70,3542.305803342,N,13943.279829540,E,5,12,0.93,26.152,M,36.997,M,3.7,7107*45
$GPGGA,121550.80,3542.305802497,N,13943.279831499,E,5,12,0.93,26.148,M,36.997,M,3.8,7107*4C
$GPGGA,121550.90,3542.305802201,N,13943.279831487,E,5,12,0.93,26.143,M,36.997,M,3.9,7107*41
$GPGGA,121551.00,3542.305804107,N,13943.279827773,E,5,12,0.93,26.127,M,36.997,M,4.0,7107*49
$GPGGA,121551.10,3542.305805411,N,13943.279826703,E,5,12,0.93,26.128,M,36.997,M,4.1,7107*43
$GPGGA,121551.20,3542.305803758,N,13943.279823728,E,5,12,0.93,26.118,M,36.997,M,4.2,7107*44
$GPGGA,121551.30,3542.305804614,N,13943.279824143,E,5,12,0.93,26.105,M,36.997,M,4.3,7107*4A
$GPGGA,121551.40,3542.305804821,N,13943.279823447,E,5,12,0.93,26.102,M,36.997,M,4.4,7107*43
$GPGGA,121551.50,3542.305803513,N,13943.279820681,E,5,12,0.93,26.075,M,36.997,M,4.5,7107*42
$GPGGA,121551.60,3542.305803638,N,13943.279816544,E,5,12,0.93,26.059,M,36.997,M,4.6,7107*49
$GPGGA,121551.70,3542.305806253,N,13943.279818274,E,5,12,0.93,26.067,M,36.997,M,4.7,7107*42
$GPGGA,121551.80,3542.305806485,N,13943.279816089,E,5,12,0.93,26.046,M,36.997,M,4.8,7107*42
$GPGGA,121551.90,3542.305802622,N,13943.279816909,E,5,12,0.93,26.036,M,36.997,M,4.9,7107*4F
$GPGGA,121552.00,3542.305802793,N,13943.279819416,E,5,12,0.93,26.024,M,36.997,M,5.0,7107*49
$GPGGA,121552.10,3542.305803398,N,13943.279824074,E,5,12,0.93,26.023,M,36.997,M,5.1,7107*4E
$GPGGA,121552.20,3542.305805374,N,13943.279822889,E,5,12,0.93,26.017,M,36.997,M,5.2,7107*41
$GPGGA,121552.30,3542.305804932,N,13943.279820242,E,5,12,0.93,26.012,M,36.997,M,5.3,7107*42
$GPGGA,121552.40,3542.305803886,N,13943.279817835,E,5,12,0.93,26.000,M,36.997,M,5.4,7107*46
$GPGGA,121552.50,3542.305805585,N,13943.279817467,E,5,12,0.93,25.993,M,36.997,M,5.5,7107*45
$GPGGA,121552.60,3542.305806659,N,13943.279821331,E,5,12,0.93,25.991,M,36.997,M,5.6,7107*47
$GPGGA,121552.70,3542.305802931,N,13943.279820925,E,5,11,1.02,25.995,M,36.997,M,5.7,7107*42
$GPGGA,121552.80,3542.305805705,N,13943.279821452,E,5,11,1.02,25.975,M,36.997,M,5.8,7107*4E
$GPGGA,121552.90,3542.305805243,N,13943.279818734,E,5,12,0.93,25.967,M,36.997,M,5.9,7107*49
$GPGGA,121553.00,3542.305806401,N,13943.279814093,E,5,12,0.93,25.950,M,36.997,M,6.0,7107*4A
$GPGGA,121553.10,3542.305802869,N,13943.279807665,E,5,12,0.93,25.918,M,36.997,M,1.1,7107*4A
