$GPGGA,075923.40,3542.279189143,N,13943.264587273,E,5,05,1.62,31.029,M,36.995,M,1.4,7107*4F
$GPGGA,075923.50,3542.279189144,N,13943.264587273,E,5,05,1.62,31.029,M,36.995,M,1.5,7107*48
$GPGGA,075923.60,3542.279189148,N,13943.264587277,E,5,05,1.62,31.029,M,36.995,M,1.6,7107*40
$GPGGA,075923.70,3542.279189154,N,13943.264587275,E,5,05,1.62,31.029,M,36.995,M,1.7,7107*4F
$GPGGA,075923.80,3542.279189154,N,13943.264587277,E,5,05,1.62,31.029,M,36.995,M,1.8,7107*4D
$GPGGA,075923.90,3542.279189157,N,13943.264587277,E,5,05,1.62,31.029,M,36.995,M,1.9,7107*4E
$GPGGA,075924.00,3542.279189160,N,13943.264587277,E,5,05,1.62,31.029,M,36.995,M,2.0,7107*4E
$GPGGA,075924.10,3542.279189164,N,13943.264587282,E,5,05,1.62,31.029,M,36.995,M,2.1,7107*40
$GPGGA,075924.20,3542.279189164,N,13943.264587284,E,5,05,1.62,31.029,M,36.995,M,2.2,7107*46
$GPGGA,075924.30,3542.279189169,N,13943.264587288,E,5,05,1.62,31.029,M,36.995,M,2.3,7107*47
$GPGGA,075924.40,3542.279189170,N,13943.264587290,E,5,05,1.62,31.029,M,36.995,M,2.4,7107*46
$GPGGA,075924.50,3542.279189176,N,13943.264587292,E,5,05,1.62,31.029,M,36.995,M,2.5,7107*42
$GPGGA,075924.60,3542.279189179,N,13943.264587294,E,5,05,1.62,31.029,M,36.995,M,2.6,7107*4B
$GPGGA,075924.70,3542.279189179,N,13943.264587295,E,5,05,1.62,31.029,M,36.995,M,2.7,7107*4A
$GPGGA,075924.80,3542.279189184,N,13943.264587300,E,5,05,1.62,31.029,M,36.995,M,2.8,7107*45
$GPGGA,075924.90,3542.279189192,N,13943.264587297,E,5,05,1.62,31.029,M,36.995,M,2.9,7107*4D
$GPGGA,075925.00,3542.279189192,N,13943.264587300,E,5,05,1.62,31.029,M,36.995,M,3.0,7107*42
$GPGGA,075925.10,3542.279189195,N,13943.264587305,E,5,05,1.62,31.029,M,36.995,M,3.1,7107*40
$GPGGA,075925.20,3542.279189204,N,13943.264587306,E,5,05,1.62,31.029,M,36.995,M,3.2,7107*48
$GPGGA,075925.30,3542.279189203,N,13943.264587310,E,5,05,1.62,31.029,M,36.995,M,3.3,7107*48
$GPGGA,075925.40,3542.279189205,N,13943.264587312,E,5,05,1.62,31.029,M,36.995,M,3.4,7107*4C
$GPGGA,075925.50,3542.279189213,N,13943.264587312,E,5,05,1.62,31.029,M,36.995,M,3.5,7107*4B
$GPGGA,075925.60,3542.279189215,N,13943.264587316,E,5,05,1.62,31.029,M,36.995,M,3.6,7107*49
$GPGGA,075925.70,3542.279189225,N,13943.264587313,E,5,05,1.62,31.029,M,36.995,M,3.7,7107*4F
$GPGGA,075925.80,3542.279189227,N,13943.264587314,E,5,05,1.62,31.029,M,36.995,M,3.8,7107*4A
$GPGGA,075925.90,3542.279189229,N,13943.264587315,E,5,05,1.62,31.029,M,36.995,M,3.9,7107*45
$GPGGA,075926.00,3542.279189230,N,13943.264587313,E,5,05,1.62,31.029,M,36.995,M,4.0,7107*4F
$GPGGA,075926.10,3542.279189237,N,13943.264587315,E,5,05,1.62,31.029,M,36.995,M,4.1,7107*4E
$GPGGA,075926.20,3542.279189243,N,13943.264587303,E,5,05,1.62,31.029,M,36.995,M,4.2,7107*4A
$GPGGA,075926.30,3542.279189240,N,13943.264587305,E,5,05,1.62,31.029,M,36.995,M,4.3,7107*4F
$GPGGA,075926.40,3542.279189241,N,13943.264587302,E,5,05,1.62,31.029,M,36.995,M,4.4,7107*49
$GPGGA,075926.50,3542.279189241,N,13943.264587297,E,5,05,1.62,31.029,M,36.995,M,4.5,7107*44
$GPGGA,075926.60,3542.279189241,N,13943.264587295,E,5,05,1.62,31.029,M,36.995,M,4.6,7107*46
$GPGGA,075926.70,3542.279189243,N,13943.264587292,E,5,05,1.62,31.029,M,36.995,M,4.7,7107*43
$GPGGA,075926.80,3542.279189244,N,13943.264587285,E,5,05,1.62,31.029,M,36.995,M,4.8,7107*42
$GPGGA,075926.90,3542.279189244,N,13943.264587281,E,5,05,1.62,31.029,M,36.995,M,4.9,7107*46
$GPGGA,075927.00,3542.279189241,N,13943.264587280,E,5,05,1.62,31.029,M,36.995,M,5.0,7107*42
$GPGGA,075927.10,3542.279189239,N,13943.264587274,E,5,05,1.62,31.029,M,36.995,M,5.1,7107*46
$GPGGA,075927.20,3542.279189246,N,13943.264587268,E,5,05,1.62,31.029,M,36.995,M,5.2,7107*43
$GPGGA,075927.30,3542.279189246,N,13943.264587264,E,5,05,1.62,31.029,M,36.995,M,5.3,7107*4F
$GPGGA,075927.40,3542.279189246,N,13943.264587258,E,5,05,1.62,31.029,M,36.995,M,5.4,7107*40
$GPGGA,075927.50,3542.279189249,N,13943.264587257,E,5,05,1.62,31.029,M,36.995,M,5.5,7107*40
$GPGGA,075927.60,3542.279189245,N,13943.264587251,E,5,05,1.62,31.029,M,36.995,M,5.6,7107*4A
$GPGGA,075927.70,3542.279189253,N,13943.264587252,E,5,05,1.62,31.029,M,36.995,M,5.7,7107*4E
$GPGGA,075927.80,3542.279189246,N,13943.264587252,E,5,05,1.62,31.029,M,36.995,M,5.8,7107*4A
$GPGGA,075927.90,3542.279189251,N,13943.264587245,E,5,05,1.62,31.029,M,36.995,M,5.9,7107*4A
$GPGGA,075928.00,3542.279189253,N,13943.264587237,E,5,05,1.62,31.029,M,36.995,M,6.0,7107*41
$GPGGA,075928.10,3542.279189250,N,13943.264587234,E,5,05,1.62,31.029,M,36.995,M,1.1,7107*46
$GPGGA,075928.20,3542.279189250,N,13943.264587230,E,5,05,1.62,31.029,M,36.995,M,1.2,7107*42
$GPGGA,075928.30,3542.279189253,N,13943.264587227,E,5,05,1.62,31.029,M,36.995,M,1.3,7107*47
$GPGGA,075928.40,3542.279189259,N,13943.264587225,E,5,05,1.62,31.029,M,36.995,M,1.4,7107*4F
$GPGGA,075928.50,3542.279189257,N,13943.264587223,E,5,05,1.62,31.029,M,36.995,M,1.5,7107*47
$GPGGA,075928.60,3542.279189262,N,13943.264587217,E,5,05,1.62,31.029,M,36.995,M,1.6,7107*46
$GPGGA,075928.70,3542.279189263,N,13943.264587217,E,5,05,1.62,31.029,M,36.995,M,1.7,7107*47
$GPGGA,075928.80,3542.279189266,N,13943.264587208,E,5,05,1.62,31.029,M,36.995,M,1.8,7107*4C
$GPGGA,075928.90,3542.279189266,N,13943.264587207,E,5,05,1.62,31.029,M,36.995,M,1.9,7107*43
$GPGGA,075929.00,3542.279189266,N,13943.264587200,E,5,05,1.62,31.029,M,36.995,M,2.0,7107*46
$GPGGA,075929.10,3542.279189268,N,13943.264587191,E,5,05,1.62,31.029,M,36.995,M,2.1,7107*43
$GPGGA,075929.20,3542.279189266,N,13943.264587192,E,5,05,1.62,31.029,M,36.995,M,2.2,7107*4E
$GPGGA,075929.30,3542.279189261,N,13943.264587185,E,5,05,1.62,31.029,M,36.995,M,2.3,7107*4F
$GPGGA,075929.40,3542.279189261,N,13943.264587183,E,5,05,1.62,31.029,M,36.995,M,2.4,7107*49
$GPGGA,075929.50,3542.279189262,N,13943.264587174,E,5,05,1.62,31.029,M,36.995,M,2.5,7107*42
$GPGGA,075929.60,3542.279189262,N,13943.264587169,E,5,05,1.62,31.029,M,36.995,M,2.6,7107*4E
$GPGGA,075929.70,3542.279189260,N,13943.264587163,E,5,05,1.62,31.029,M,36.995,M,2.7,7107*46
$GPGGA,075929.80,3542.279189258,N,13943.264587163,E,5,05,1.62,31.029,M,36.995,M,2.8,7107*4D
$GPGGA,075929.90,3542.279189259,N,13943.264587161,E,5,05,1.62,31.029,M,36.995,M,2.9,7107*4E
$GPGGA,075930.00,3542.279189264,N,13943.264587154,E,5,05,1.62,31.029,M,36.995,M,3.0,7107*4F
$GPGGA,075930.10,3542.279189264,N,13943.264587148,E,5,05,1.62,31.029,M,36.995,M,3.1,7107*42
$GPGGA,075930.20,3542.279189263,N,13943.264587145,E,5,05,1.62,31.029,M,36.995,M,3.2,7107*48
$GPGGA,075930.30,3542.279189262,N,13943.264587137,E,5,05,1.62,31.029,M,36.995,M,3.3,7107*4C
$GPGGA,075930.40,3542.279189259,N,13943.264587140,E,5,05,1.62,31.029,M,36.995,M,3.4,7107*44
$GPGGA,075930.50,3542.279189257,N,13943.264587138,E,5,05,1.62,31.029,M,36.995,M,3.5,7107*45
$GPGGA,075930.60,3542.279189253,N,13943.264587137,E,5,05,1.62,31.029,M,36.995,M,3.6,7107*4E
$GPGGA,075930.70,3542.279189259,N,13943.264587130,E,5,05,1.62,31.029,M,36.995,M,3.7,7107*43
$GPGGA,075930.80,3542.279189258,N,13943.264587127,E,5,05,1.62,31.029,M,36.995,M,3.8,7107*44
$GPGGA,075930.90,3542.279189254,N,13943.264587126,E,5,05,1.62,31.029,M,36.995,M,3.9,7107*49
$GPGGA,075931.00,3542.279189258,N,13943.264587121,E,5,05,1.62,31.029,M,36.995,M,4.0,7107*44
$GPGGA,075931.10,3542.279189256,N,13943.264587114,E,5,05,1.62,31.029,M,36.995,M,4.1,7107*4C
$GPGGA,075931.20,3542.279189253,N,13943.264587111,E,5,05,1.62,31.029,M,36.995,M,4.2,7107*4C
$GPGGA,075931.30,3542.279189256,N,13943.264587114,E,5,05,1.62,31.029,M,36.995,M,4.3,7107*4C
$GPGGA,075931.40,3542.279189255,N,13943.264587107,E,5,05,1.62,31.029,M,36.995,M,4.4,7107*4D
$GPGGA,075931.50,3542.279189255,N,13943.264587106,E,5,05,1.62,31.029,M,36.995,M,4.5,7107*4C
$GPGGA,075931.60,3542.279189256,N,13943.264587100,E,5,05,1.62,31.029,M,36.995,M,4.6,7107*49
$GPGGA,075931.70,3542.279189257,N,13943.264587094,E,5,05,1.62,31.029,M,36.995,M,4.7,7107*44
$GPGGA,075931.80,3542.279189256,N,13943.264587091,E,5,05,1.62,31.029,M,36.995,M,4.8,7107*40
$GPGGA,075931.90,3542.279189257,N,13943.264587086,E,5,05,1.62,31.029,M,36.995,M,4.9,7107*47
$GPGGA,075932.00,3542.279189251,N,13943.264587084,E,5,05,1.62,31.029,M,36.995,M,5.0,7107*41
$GPGGA,075932.10,3542.279189253,N,13943.264587080,E,5,05,1.62,31.029,M,36.995,M,5.1,7107*47
$GPGGA,075932.20,3542.279189250,N,13943.264587074,E,5,05,1.62,31.029,M,36.995,M,5.2,7107*4F
$GPGGA,075932.30,3542.279189250,N,13943.264587074,E,5,05,1.62,31.029,M,36.995,M,5.3,7107*4F
$GPGGA,075932.40,3542.279189249,N,13943.264587069,E,5,05,1.62,31.029,M,36.995,M,5.4,7107*4B
$GPGGA,075932.50,3542.279189252,N,13943.264587065,E,5,05,1.62,31.029,M,36.995,M,5.5,7107*4D
$GPGGA,075932.60,3542.279189253,N,13943.264587060,E,5,05,1.62,31.029,M,36.995,M,5.6,7107*49
$GPGGA,075932.70,3542.279189250,N,13943.264587059,E,5,05,1.62,31.029,M,36.995,M,5.7,7107*40
$GPGGA,075932.80,3542.279189254,N,13943.264587050,E,5,05,1.62,31.029,M,36.995,M,5.8,7107*4D
$GPGGA,075932.90,3542.279189253,N,13943.264587039,E,5,05,1.62,31.029,M,36.995,M,5.9,7107*45
$GPGGA,075933.00,3542.279189252,N,13943.264587037,E,5,05,1.62,31.029,M,36.995,M,6.0,7107*48
$GPGGA,075933.10,3542.279189242,N,13943.264587032,E,5,05,1.62,31.029,M,36.995,M,1.1,7107*4B
$GPGGA,075933.20,3542.279189242,N,13943.264587032,E,5,05,1.62,31.029,M,36.995,M,1.2,7107*4B
$GPGGA,075933.30,3542.279189238,N,13943.264587034,E,5,05,1.62,31.029,M,36.995,M,1.3,7107*40
$GPGGA,075933.40,3542.279189233,N,13943.264587029,E,5,05,1.62,31.029,M,36.995,M,1.4,7107*47
$GPGGA,075933.50,3542.279189231,N,13943.264587021,E,5,05,1.62,31.029,M,36.995,M,1.5,7107*4D
$GPGGA,075933.60,3542.279189229,N,13943.264587011,E,5,05,1.62,31.029,M,36.995,M,1.6,7107*47
$GPGGA,075933.70,3542.279189232,N,13943.264587003,E,5,05,1.62,31.029,M,36.995,M,1.7,7107*4E
$GPGGA,075933.80,3542.279189227,N,13943.264586998,E,5,05,1.62,31.029,M,36.995,M,1.8,7107*40
$GPGGA,075933.90,3542.279189225,N,13943.264586990,E,5,05,1.62,31.029,M,36.995,M,1.9,7107*4A
$GPGGA,075934.00,3542.279189216,N,13943.264586988,E,5,05,1.62,31.029,M,36.995,M,2.0,7107*47
$GPGGA,075934.10,3542.279189216,N,13943.264586980,E,5,05,1.62,31.029,M,36.995,M,2.1,7107*4F
$GPGGA,075934.20,3542.279189221,N,13943.264586980,E,5,05,1.62,31.029,M,36.995,M,2.2,7107*4B
$GPGGA,075934.30,3542.279189218,N,13943.264586976,E,5,05,1.62,31.029,M,36.995,M,2.3,7107*48
$GPGGA,075934.40,3542.279189220,N,13943.264586968,E,5,05,1.62,31.029,M,36.995,M,2.4,7107*4C
$GPGGA,075934.50,3542.279189217,N,13943.264586966,E,5,05,1.62,31.029,M,36.995,M,2.5,7107*46
$GPGGA,075934.60,3542.279189216,N,13943.264586966,E,5,05,1.62,31.029,M,36.995,M,2.6,7107*47
$GPGGA,075934.70,3542.279189212,N,13943.264586962,E,5,05,1.62,31.029,M,36.995,M,2.7,7107*47
$GPGGA,075934.80,3542.279189212,N,13943.264586958,E,5,05,1.62,31.029,M,36.995,M,2.8,7107*4E
$GPGGA,075934.90,3542.279189207,N,13943.264586959,E,5,05,1.62,31.029,M,36.995,M,2.9,7107*4B
$GPGGA,075935.00,3542.279189208,N,13943.264586955,E,5,05,1.62,31.029,M,36.995,M,3.0,7107*48
$GPGGA,075935.10,3542.279189208,N,13943.264586953,E,5,05,1.62,31.029,M,36.995,M,3.1,7107*4E
$GPGGA,075935.20,3542.279189202,N,13943.264586945,E,5,05,1.62,31.029,M,36.995,M,3.2,7107*43
$GPGGA,075935.30,3542.279189200,N,13943.264586942,E,5,05,1.62,31.029,M,36.995,M,3.3,7107*46
$GPGGA,075935.40,3542.279189197,N,13943.264586935,E,5,05,1.62,31.029,M,36.995,M,3.4,7107*4B
$GPGGA,075935.50,3542.279189195,N,13943.264586935,E,5,05,1.62,31.029,M,36.995,M,3.5,7107*49
$GPGGA,075935.60,3542.279189194,N,13943.264586925,E,5,05,1.62,31.029,M,36.995,M,3.6,7107*49
$GPGGA,075935.70,3542.279189199,N,13943.264586921,E,5,05,1.62,31.029,M,36.995,M,3.7,7107*40
$GPGGA,075935.80,3542.279189193,N,13943.264586920,E,5,05,1.62,31.029,M,36.995,M,3.8,7107*4B
$GPGGA,075935.90,3542.279189202,N,13943.264586914,E,5,05,1.62,31.029,M,36.995,M,3.9,7107*47
$GPGGA,075936.00,3542.279189205,N,13943.264586906,E,5,05,1.62,31.029,M,36.995,M,4.0,7107*47
$GPGGA,075936.10,3542.279189194,N,13943.264586908,E,5,05,1.62,31.029,M,36.995,M,4.1,7107*42
$GPGGA,075936.20,3542.279189192,N,13943.264586903,E,5,05,1.62,31.029,M,36.995,M,4.2,7107*4F
$GPGGA,075936.30,3542.279189194,N,13943.264586896,E,5,05,1.62,31.029,M,36.995,M,4.3,7107*44
$GPGGA,075936.40,3542.279189188,N,13943.264586897,E,5,05,1.62,31.029,M,36.995,M,4.4,7107*48
$GPGGA,075936.50,3542.279189185,N,13943.264586894,E,5,05,1.62,31.029,M,36.995,M,4.5,7107*46
$GPGGA,075936.60,3542.279189194,N,13943.264586882,E,5,05,1.62,31.029,M,36.995,M,4.6,7107*41
$GPGGA,075936.70,3542.279189192,N,13943.264586877,E,5,05,1.62,31.029,M,36.995,M,4.7,7107*4D
$GPGGA,075936.80,3542.279189184,N,13943.264586870,E,5,05,1.62,31.029,M,36.995,M,4.8,7107*4D
$GPGGA,075936.90,3542.279189189,N,13943.264586859,E,5,05,1.62,31.029,M,36.995,M,4.9,7107*4B
$GPGGA,075937.00,3542.279189188,N,13943.264586850,E,5,05,1.62,31.029,M,36.995,M,5.0,7107*43
$GPGGA,075937.10,3542.279189183,N,13943.264586850,E,5,05,1.62,31.029,M,36.995,M,5.1,7107*48
$GPGGA,075937.20,3542.279189186,N,13943.264586844,E,5,05,1.62,31.029,M,36.995,M,5.2,7107*48
$GPGGA,075937.30,3542.279189188,N,13943.264586832,E,5,05,1.62,31.029,M,36.995,M,5.3,7107*47
$GPGGA,075937.40,3542.279189183,N,13943.264586834,E,5,05,1.62,31.029,M,36.995,M,5.4,7107*4A
$GPGGA,075937.50,3542.279189189,N,13943.264586828,E,5,05,1.62,31.029,M,36.995,M,5.5,7107*4D
$GPGGA,075937.60,3542.279189188,N,13943.264586824,E,5,05,1.62,31.029,M,36.995,M,5.6,7107*40
$GPGGA,075937.70,3542.279189183,N,13943.264586821,E,5,05,1.62,31.029,M,36.995,M,5.7,7107*4E
$GPGGA,075937.80,3542.279189179,N,13943.264586816,E,5,05,1.62,31.029,M,36.995,M,5.8,7107*4F
$GPGGA,075937.90,3542.279189179,N,13943.264586809,E,5,05,1.62,31.029,M,36.995,M,5.9,7107*41
$GPGGA,075938.00,3542.279189178,N,13943.264586804,E,5,05,1.62,31.029,M,36.995,M,6.0,7107*41
$GPGGA,075938.10,3542.279189172,N,13943.264586804,E,5,05,1.62,31.029,M,36.995,M,1.1,7107*4C
$GPGGA,075938.20,3542.279189173,N,13943.264586803,E,5,05,1.62,31.029,M,36.995,M,1.2,7107*4A
$GPGGA,075938.30,3542.279189173,N,13943.264586800,E,5,05,1.62,31.029,M,36.995,M,1.3,7107*49
$GPGGA,075938.40,3542.279189173,N,13943.264586797,E,5,05,1.62,31.029,M,36.995,M,1.4,7107*48
$GPGGA,075938.50,3542.279189168,N,13943.264586795,E,5,05,1.62,31.029,M,36.995,M,1.5,7107*40
$GPGGA,075938.60,3542.279189168,N,13943.264586791,E,5,05,1.62,31.029,M,36.995,M,1.6,7107*44
$GPGGA,075938.70,3542.279189166,N,13943.264586790,E,5,05,1.62,31.029,M,36.995,M,1.7,7107*4B
$GPGGA,075938.80,3542.279189164,N,13943.264586789,E,5,05,1.62,31.029,M,36.995,M,1.8,7107*41
$GPGGA,075938.90,3542.279189161,N,13943.264586787,E,5,05,1.62,31.029,M,36.995,M,1.9,7107*4A
$GPGGA,075939.00,3542.279189160,N,13943.264586782,E,5,05,1.62,31.029,M,36.995,M,2.0,7107*4C
$GPGGA,075939.10,3542.279189158,N,13943.264586781,E,5,05,1.62,31.029,M,36.995,M,2.1,7107*44
$GPGGA,075939.20,3542.279189151,N,13943.264586777,E,5,05,1.62,31.029,M,36.995,M,2.2,7107*44
$GPGGA,075939.30,3542.279189150,N,13943.264586772,E,5,05,1.62,31.029,M,36.995,M,2.3,7107*40
$GPGGA,075939.40,3542.279189146,N,13943.264586767,E,5,05,1.62,31.029,M,36.995,M,2.4,7107*43
$GPGGA,075939.50,3542.279189144,N,13943.264586768,E,5,05,1.62,31.029,M,36.995,M,2.5,7107*4E
$GPGGA,075939.60,3542.279189139,N,13943.264586762,E,5,05,1.62,31.029,M,36.995,M,2.6,7107*4E
$GPGGA,075939.70,3542.279189146,N,13943.264586750,E,5,05,1.62,31.029,M,36.995,M,2.7,7107*47
$GPGGA,075939.80,3542.279189149,N,13943.264586744,E,5,05,1.62,31.029,M,36.995,M,2.8,7107*4D
$GPGGA,075939.90,3542.279189144,N,13943.264586735,E,5,05,1.62,31.029,M,36.995,M,2.9,7107*46
$GPGGA,075940.00,3542.279189139,N,13943.264586737,E,5,05,1.62,31.029,M,36.995,M,3.0,7107*41
$GPGGA,075940.10,3542.279189143,N,13943.264586736,E,5,05,1.62,31.029,M,36.995,M,3.1,7107*4D
$GPGGA,075940.20,3542.279189144,N,13943.264586739,E,5,05,1.62,31.029,M,36.995,M,3.2,7107*45
$GPGGA,075940.30,3542.279189144,N,13943.264586751,E,5,05,1.62,31.029,M,36.995,M,3.3,7107*4B
$GPGGA,075940.40,3542.279189146,N,13943.264586751,E,5,05,1.62,31.029,M,36.995,M,3.4,7107*49
$GPGGA,075940.50,3542.279189152,N,13943.264586742,E,5,05,1.62,31.029,M,36.995,M,3.5,7107*4E
$GPGGA,075940.60,3542.279189152,N,13943.264586737,E,5,05,1.62,31.029,M,36.995,M,3.6,7107*4C
$GPGGA,075940.70,3542.279189150,N,13943.264586740,E,5,05,1.62,31.029,M,36.995,M,3.7,7107*4E
$GPGGA,075940.80,3542.279189149,N,13943.264586735,E,5,05,1.62,31.029,M,36.995,M,3.8,7107*44
$GPGGA,075940.90,3542.279189156,N,13943.264586734,E,5,05,1.62,31.029,M,36.995,M,3.9,7107*4B
$GPGGA,075941.00,3542.279189152,N,13943.264586730,E,5,05,1.62,31.029,M,36.995,M,4.0,7107*4D
$GPGGA,075941.10,3542.279189151,N,13943.264586726,E,5,05,1.62,31.029,M,36.995,M,4.1,7107*49
$GPGGA,075941.20,3542.279189154,N,13943.264586722,E,5,05,1.62,31.029,M,36.995,M,4.2,7107*48
$GPGGA,075941.30,3542.279189159,N,13943.264586720,E,5,05,1.62,31.029,M,36.995,M,4.3,7107*47
$GPGGA,075941.40,3542.279189159,N,13943.264586725,E,5,05,1.62,31.029,M,36.995,M,4.4,7107*42
$GPGGA,075941.50,3542.279189162,N,13943.264586721,E,5,05,1.62,31.029,M,36.995,M,4.5,7107*4E
$GPGGA,075941.60,3542.279189157,N,13943.264586719,E,5,05,1.62,31.029,M,36.995,M,4.6,7107*43
$GPGGA,075941.70,3542.279189153,N,13943.264586723,E,5,05,1.62,31.029,M,36.995,M,4.7,7107*4E
$GPGGA,075941.80,3542.279189156,N,13943.264586722,E,5,05,1.62,31.029,M,36.995,M,4.8,7107*4A
$GPGGA,075941.90,3542.279189163,N,13943.264586721,E,5,05,1.62,31.029,M,36.995,M,4.9,7107*4F
$GPGGA,075942.00,3542.279189156,N,13943.264586718,E,5,05,1.62,31.029,M,36.995,M,5.0,7107*41
$GPGGA,075942.10,3542.279189160,N,13943.264586710,E,5,05,1.62,31.029,M,36.995,M,5.1,7107*4C
$GPGGA,075942.20,3542.279189162,N,13943.264586698,E,5,05,1.62,31.029,M,36.995,M,5.2,7107*4F
$GPGGA,075942.30,3542.279189155,N,13943.264586699,E,5,05,1.62,31.029,M,36.995,M,5.3,7107*4A
$GPGGA,075942.40,3542.279189154,N,13943.264586696,E,5,05,1.62,31.029,M,36.995,M,5.4,7107*44
$GPGGA,075942.50,3542.279189155,N,13943.264586693,E,5,05,1.62,31.029,M,36.995,M,5.5,7107*40
$GPGGA,075942.60,3542.279189161,N,13943.264586692,E,5,05,1.62,31.029,M,36.995,M,5.6,7107*46
$GPGGA,075942.70,3542.279189152,N,13943.264586698,E,5,05,1.62,31.029,M,36.995,M,5.7,7107*4C
$GPGGA,075942.80,3542.279189158,N,13943.264586694,E,5,05,1.62,31.029,M,36.995,M,5.8,7107*4A
$GPGGA,075942.90,3542.279189161,N,13943.264586695,E,5,05,1.62,31.029,M,36.995,M,5.9,7107*41
$GPGGA,075943.00,3542.279189157,N,13943.264586693,E,5,05,1.62,31.029,M,36.995,M,6.0,7107*40
$GPGGA,075943.10,3542.279189155,N,13943.264586697,E,5,05,1.62,31.029,M,36.995,M,6.1,7107*46
$GPGGA,075943.20,3542.279189164,N,13943.264586698,E,5,05,1.62,31.029,M,36.995,M,6.2,7107*4B
$GPGGA,075943.30,3542.279189162,N,13943.264586705,E,5,05,1.62,31.029,M,36.995,M,6.3,7107*48
$GPGGA,075943.40,3542.279189159,N,13943.264586706,E,5,05,1.62,31.029,M,36.995,M,6.4,7107*43
$GPGGA,075943.50,3542.279189164,N,13943.264586710,E,5,05,1.62,31.029,M,36.995,M,6.5,7107*4A
$GPGGA,075943.60,3542.279189169,N,13943.264586708,E,5,05,1.62,31.029,M,36.995,M,6.6,7107*4E
$GPGGA,075943.70,3542.279189170,N,13943.264586707,E,5,05,1.62,31.029,M,36.995,M,6.7,7107*49
$GPGGA,075943.80,3542.279189172,N,13943.264586707,E,5,05,1.62,31.029,M,36.995,M,6.8,7107*4B
$GPGGA,075943.90,3542.279189178,N,13943.264586706,E,5,05,1.62,31.029,M,36.995,M,6.9,7107*40
$GPGGA,075944.00,3542.279189175,N,13943.264586715,E,5,05,1.62,31.029,M,36.995,M,7.0,7107*49
$GPGGA,075944.10,3542.279189180,N,13943.264586720,E,5,05,1.62,31.029,M,36.995,M,2.1,7107*40
$GPGGA,075944.20,3542.279189181,N,13943.264586721,E,5,05,1.62,31.029,M,36.995,M,2.2,7107*40
$GPGGA,075944.30,3542.279189189,N,13943.264586721,E,5,05,1.62,31.029,M,36.995,M,2.3,7107*48
$GPGGA,075944.40,3542.279189191,N,13943.264586727,E,5,05,1.62,31.029,M,36.995,M,2.4,7107*47
$GPGGA,075944.50,3542.279189190,N,13943.264586731,E,5,05,1.62,31.029,M,36.995,M,2.5,7107*41
$GPGGA,075944.60,3542.279189193,N,13943.264586734,E,5,05,1.62,31.029,M,36.995,M,2.6,7107*47
$GPGGA,075944.70,3542.279189204,N,13943.264586739,E,5,05,1.62,31.029,M,36.995,M,2.7,7107*47
$GPGGA,075944.80,3542.279189211,N,13943.264586744,E,5,05,1.62,31.029,M,36.995,M,2.8,7107*49
$GPGGA,075944.90,3542.279189204,N,13943.264586756,E,5,05,1.62,31.029,M,36.995,M,2.9,7107*4E
$GPGGA,075945.00,3542.279189205,N,13943.264586763,E,5,05,1.62,31.029,M,36.995,M,3.0,7107*49
$GPGGA,075945.10,3542.279189215,N,13943.264586771,E,5,05,1.62,31.029,M,36.995,M,3.1,7107*4B
$GPGGA,075945.20,3542.279189221,N,13943.264586785,E,5,05,1.62,31.029,M,36.995,M,3.2,7107*47
$GPGGA,075945.30,3542.279189224,N,13943.264586797,E,5,05,1.62,31.029,M,36.995,M,3.3,7107*41
$GPGGA,075945.40,3542.279189231,N,13943.264586794,E,5,05,1.62,31.029,M,36.995,M,3.4,7107*46
$GPGGA,075945.50,3542.279189220,N,13943.264586808,E,5,05,1.62,31.029,M,36.995,M,3.5,7107*4C
$GPGGA,075945.60,3542.279189221,N,13943.264586818,E,5,05,1.62,31.029,M,36.995,M,3.6,7107*4C
$GPGGA,075945.70,3542.279189228,N,13943.264586824,E,5,05,1.62,31.029,M,36.995,M,3.7,7107*4A
$GPGGA,075945.80,3542.279189232,N,13943.264586829,E,5,05,1.62,31.029,M,36.995,M,3.8,7107*4C
$GPGGA,075945.90,3542.279189224,N,13943.264586849,E,5,05,1.62,31.029,M,36.995,M,3.9,7107*4D
$GPGGA,075946.00,3542.279189229,N,13943.264586853,E,5,05,1.62,31.029,M,36.995,M,4.0,7107*4F
$GPGGA,075946.10,3542.279189238,N,13943.264586857,E,5,05,1.62,31.029,M,36.995,M,4.1,7107*4B
$GPGGA,075946.20,3542.279189232,N,13943.264586863,E,5,05,1.62,31.029,M,36.995,M,4.2,7107*46
$GPGGA,075946.30,3542.279189234,N,13943.264586864,E,5,05,1.62,31.029,M,36.995,M,4.3,7107*47
$GPGGA,075946.40,3542.279189247,N,13943.264586866,E,5,05,1.62,31.029,M,36.995,M,4.4,7107*41
$GPGGA,075946.50,3542.279189254,N,13943.264586869,E,5,05,1.62,31.029,M,36.995,M,4.5,7107*4C
$GPGGA,075946.60,3542.279189253,N,13943.264586885,E,5,05,1.62,31.029,M,36.995,M,4.6,7107*49
$GPGGA,075946.70,3542.279189263,N,13943.264586895,E,5,05,1.62,31.029,M,36.995,M,4.7,7107*4B
$GPGGA,075946.80,3542.279189270,N,13943.264586899,E,5,05,1.62,31.029,M,36.995,M,4.8,7107*45
$GPGGA,075946.90,3542.279189272,N,13943.264586916,E,5,05,1.62,31.029,M,36.995,M,4.9,7107*41
$GPGGA,075947.00,3542.279189270,N,13943.264586923,E,5,05,1.62,31.029,M,36.995,M,5.0,7107*45
$GPGGA,075947.10,3542.279189282,N,13943.264586936,E,5,05,1.62,31.029,M,36.995,M,5.1,7107*4C
$GPGGA,075947.20,3542.279189281,N,13943.264586935,E,5,05,1.62,31.029,M,36.995,M,5.2,7107*4C
$GPGGA,075947.30,3542.279189297,N,13943.264586951,E,5,05,1.62,31.029,M,36.995,M,5.3,7107*49
$GPGGA,075947.40,3542.279189298,N,13943.264586962,E,5,05,1.62,31.029,M,36.995,M,5.4,7107*46
$GPGGA,075947.50,3542.279189294,N,13943.264586982,E,5,05,1.62,31.029,M,36.995,M,5.5,7107*44
$GPGGA,075947.60,3542.279189291,N,13943.264586996,E,5,05,1.62,31.029,M,36.995,M,5.6,7107*44
$GPGGA,075947.70,3542.279189288,N,13943.264587023,E,5,05,1.62,31.029,M,36.995,M,5.7,7107*4A
$GPGGA,075947.80,3542.279189373,N,13943.264587152,E,5,05,1.62,31.029,M,36.995,M,5.8,7107*48
$GPGGA,075947.90,3542.279189024,N,13943.264587224,E,5,05,1.62,31.029,M,36.995,M,5.9,7107*4B
$GPGGA,075948.00,3542.279187328,N,13943.264586894,E,5,05,1.62,31.027,M,36.995,M,6.0,7107*48
$GPGGA,075948.10,3542.279184811,N,13943.264585267,E,5,05,1.62,31.022,M,36.995,M,1.1,7107*4D
$GPGGA,075948.20,3542.279181595,N,13943.264582730,E,5,05,1.62,31.017,M,36.995,M,1.2,7107*4F
$GPGGA,075948.30,3542.279176038,N,13943.264581480,E,5,05,1.62,31.009,M,36.995,M,1.3,7107*41
$GPGGA,075948.40,3542.279169143,N,13943.264577417,E,5,05,1.62,31.004,M,36.995,M,1.4,7107*48
$GPGGA,075948.50,3542.279158655,N,13943.264574452,E,5,05,1.62,30.997,M,36.995,M,1.5,7107*4A
$GPGGA,075948.60,3542.279144124,N,13943.264565779,E,5,05,1.62,30.985,M,36.995,M,1.6,7107*4F
$GPGGA,075948.70,3542.279131311,N,13943.264559986,E,5,04,99.90,30.994,M,36.995,M,1.7,7107*75
$GPGGA,075948.80,3542.279111599,N,13943.264557070,E,5,04,99.90,30.987,M,36.995,M,1.8,7107*7D
$GPGGA,075948.90,3542.279098527,N,13943.264550294,E,5,05,1.62,30.984,M,36.995,M,1.9,7107*49
$GPGGA,075949.00,3542.279084628,N,13943.264537431,E,5,05,1.62,30.960,M,36.995,M,2.0,7107*48
$GPGGA,075949.10,3542.279066529,N,13943.264523939,E,5,05,1.62,30.961,M,36.995,M,2.1,7107*47
$GPGGA,075949.20,3542.279046763,N,13943.264519622,E,5,05,1.62,30.961,M,36.995,M,2.2,7107*45
$GPGGA,075949.30,3542.279025821,N,13943.264518653,E,5,05,1.62,30.948,M,36.995,M,2.3,7107*45
$GPGGA,075949.40,3542.279007209,N,13943.264502405,E,5,05,1.62,30.958,M,36.995,M,2.4,7107*4E
$GPGGA,075949.50,3542.278972752,N,13943.264498070,E,5,05,1.62,30.963,M,36.995,M,2.5,7107*43
$GPGGA,075949.60,3542.278947372,N,13943.264491385,E,5,05,1.62,30.963,M,36.995,M,2.6,7107*43
$GPGGA,075949.70,3542.278922813,N,13943.264484532,E,5,04,99.90,30.939,M,36.995,M,2.7,7107*70
$GPGGA,075949.80,3542.278900828,N,13943.264476311,E,5,04,99.90,30.923,M,36.995,M,2.8,7107*79
$GPGGA,075949.90,3542.278875097,N,13943.264466997,E,5,04,99.90,30.936,M,36.995,M,2.9,7107*77
$GPGGA,075950.00,3542.278841119,N,13943.264458168,E,5,04,99.90,30.915,M,36.995,M,3.0,7107*7A
$GPGGA,075950.10,3542.278806703,N,13943.264444941,E,5,04,99.90,30.914,M,36.995,M,3.1,7107*7B
$GPGGA,075950.20,3542.278778932,N,13943.264433670,E,5,05,1.62,30.895,M,36.995,M,3.2,7107*49
$GPGGA,075950.30,3542.278747181,N,13943.264415318,E,5,04,99.90,30.872,M,36.995,M,3.3,7107*7E
$GPGGA,075950.40,3542.278706118,N,13943.264417485,E,5,04,99.90,30.880,M,36.995,M,3.4,7107*77
$GPGGA,075950.50,3542.278674486,N,13943.264406848,E,5,04,99.90,30.866,M,36.995,M,3.5,7107*74
$GPGGA,075950.60,3542.278635658,N,13943.264404469,E,5,05,1.62,30.814,M,36.995,M,3.6,7107*45
$GPGGA,075950.70,3542.278592722,N,13943.264389776,E,5,05,1.62,30.755,M,36.995,M,3.7,7107*42
$GPGGA,075950.80,3542.278565498,N,13943.264367257,E,5,05,1.62,30.729,M,36.995,M,3.8,7107*45
$GPGGA,075950.90,3542.278531170,N,13943.264355478,E,5,04,4.27,30.707,M,36.995,M,3.9,7107*44
$GPGGA,075951.00,3542.278493115,N,13943.264335689,E,5,05,1.62,30.691,M,36.995,M,4.0,7107*49
$GPGGA,075951.10,3542.278430760,N,13943.264317464,E,5,05,1.62,30.717,M,36.995,M,4.1,7107*4A
$GPGGA,075951.20,3542.278395547,N,13943.264300260,E,5,04,99.90,30.696,M,36.995,M,4.2,7107*74
$GPGGA,075951.30,3542.278350081,N,13943.264294250,E,5,04,99.90,30.671,M,36.995,M,4.3,7107*74
$GPGGA,075951.40,3542.278322362,N,13943.264262648,E,5,02,99.90,30.683,M,36.995,M,4.4,7107*70
$GPGGA,075951.50,3542.278289286,N,13943.264248735,E,5,03,99.90,30.671,M,36.995,M,4.5,7107*74
$GPGGA,075951.60,3542.278257194,N,13943.264231886,E,5,03,99.90,30.669,M,36.995,M,4.6,7107*77
$GPGGA,075951.70,3542.278216044,N,13943.264217541,E,5,02,99.90,30.660,M,36.995,M,4.7,7107*74
$GPGGA,075951.80,3542.278181872,N,13943.264196344,E,5,02,99.90,30.657,M,36.995,M,4.8,7107*79
$GPGGA,075951.90,3542.278147730,N,13943.264201678,E,5,02,99.90,30.574,M,36.995,M,4.9,7107*7F
$GPGGA,075952.00,3542.278099305,N,13943.264198272,E,5,03,99.90,30.591,M,36.995,M,5.0,7107*7A
$GPGGA,075952.10,3542.278057409,N,13943.264180927,E,5,02,99.90,30.583,M,36.995,M,5.1,7107*73
$GPGGA,075952.20,3542.278017217,N,13943.264169167,E,5,02,99.90,30.571,M,36.995,M,5.2,7107*78
$GPGGA,075952.30,3542.277978092,N,13943.264156610,E,5,02,99.90,30.569,M,36.995,M,5.3,7107*7A
$GPGGA,075952.40,3542.277937939,N,13943.264142131,E,5,02,99.90,30.563,M,36.995,M,5.4,7107*72
$GPGGA,075952.50,3542.277891723,N,13943.264124551,E,5,02,99.90,30.492,M,36.995,M,5.5,7107*77
$GPGGA,075952.60,3542.277859507,N,13943.264117000,E,5,02,99.90,30.489,M,36.995,M,5.6,7107*7C
$GPGGA,075952.70,3542.277826219,N,13943.264090078,E,5,02,99.90,30.462,M,36.995,M,5.7,7107*78
$GPGGA,075952.80,3542.277792238,N,13943.264087637,E,5,02,99.90,30.436,M,36.995,M,5.8,7107*71
$GPGGA,075952.90,3542.277758626,N,13943.264070298,E,5,02,99.90,30.425,M,36.995,M,5.9,7107*77
$GPGGA,075953.00,3542.277729178,N,13943.264039594,E,5,02,99.90,30.394,M,36.995,M,6.0,7107*74
$GPGGA,075953.10,3542.277694289,N,13943.264012912,E,5,02,99.90,30.368,M,36.995,M,1.1,7107*71
$GPGGA,075953.20,3542.277649949,N,13943.264000550,E,5,02,99.90,30.365,M,36.995,M,1.2,7107*72
$GPGGA,075953.30,3542.277625644,N,13943.263984977,E,5,02,99.90,30.415,M,36.995,M,1.3,7107*71
$GPGGA,075953.40,3542.277554924,N,13943.263982701,E,5,02,99.90,30.357,M,36.995,M,1.4,7107*75
$GPGGA,075953.50,3542.277516804,N,13943.263995095,E,5,02,99.90,30.346,M,36.995,M,1.5,7107*7C
$GPGGA,075953.60,3542.277489909,N,13943.263994985,E,5,02,99.90,30.286,M,36.995,M,1.6,7107*73
$GPGGA,075953.70,3542.277448835,N,13943.263988956,E,5,02,99.90,30.293,M,36.995,M,1.7,7107*77
$GPGGA,075953.80,3542.277412247,N,13943.263996753,E,5,02,99.90,30.268,M,36.995,M,1.8,7107*77
$GPGGA,075953.90,3542.277373606,N,13943.263992409,E,5,02,99.90,30.242,M,36.995,M,1.9,7107*76
$GPGGA,075954.00,3542.277338383,N,13943.263990871,E,5,02,99.90,30.232,M,36.995,M,2.0,7107*73
$GPGGA,075954.10,3542.277308170,N,13943.263981320,E,5,02,99.90,30.204,M,36.995,M,2.1,7107*74
$GPGGA,075954.20,3542.277272493,N,13943.263970337,E,5,02,99.90,30.186,M,36.995,M,2.2,7107*71
$GPGGA,075954.30,3542.277239715,N,13943.263958729,E,5,02,99.90,30.177,M,36.995,M,2.3,7107*7C
$GPGGA,075954.40,3542.277201997,N,13943.263939568,E,5,02,99.90,30.166,M,36.995,M,2.4,7107*73
$GPGGA,075954.50,3542.277165301,N,13943.263921815,E,5,02,99.90,30.136,M,36.995,M,2.5,7107*7C
$GPGGA,075954.60,3542.277134205,N,13943.263910475,E,5,02,99.90,30.144,M,36.995,M,2.6,7107*70
$GPGGA,075954.70,3542.277102427,N,13943.263898593,E,5,02,99.90,30.113,M,36.995,M,2.7,7107*79
$GPGGA,075954.80,3542.277081838,N,13943.263868548,E,5,02,99.90,30.067,M,36.995,M,2.8,7107*7A
$GPGGA,075954.90,3542.277047549,N,13943.263848534,E,5,02,99.90,30.043,M,36.995,M,2.9,7107*74
$GPGGA,075955.00,3542.277016880,N,13943.263835636,E,5,02,99.90,30.016,M,36.995,M,3.0,7107*73
$GPGGA,075955.10,3542.276979149,N,13943.263812183,E,5,02,99.90,30.009,M,36.995,M,3.1,7107*7C
$GPGGA,075955.20,3542.276935015,N,13943.263820891,E,5,02,99.90,29.981,M,36.995,M,3.2,7107*76
$GPGGA,075955.30,3542.276905785,N,13943.263806073,E,5,02,99.90,29.959,M,36.995,M,3.3,7107*7E
$GPGGA,075955.40,3542.276876176,N,13943.263787925,E,5,02,99.90,29.944,M,36.995,M,3.4,7107*71
$GPGGA,075955.50,3542.276834162,N,13943.263763585,E,5,02,99.90,29.937,M,36.995,M,3.5,7107*7A
$GPGGA,075955.60,3542.276793229,N,13943.263755396,E,5,02,99.90,29.922,M,36.995,M,3.6,7107*71
$GPGGA,075955.70,3542.276765495,N,13943.263743145,E,5,02,99.90,29.913,M,36.995,M,3.7,7107*70
$GPGGA,075955.80,3542.276731558,N,13943.263723233,E,5,02,99.90,29.910,M,36.995,M,3.8,7107*76
$GPGGA,075955.90,3542.276700442,N,13943.263686708,E,5,02,99.90,29.908,M,36.995,M,3.9,7107*74
$GPGGA,075956.00,3542.276671035,N,13943.263672377,E,5,02,99.90,29.879,M,36.995,M,4.0,7107*73
$GPGGA,075956.10,3542.276634736,N,13943.263648817,E,5,02,99.90,29.876,M,36.995,M,4.1,7107*7D
$GPGGA,075956.20,3542.276603617,N,13943.263622404,E,5,01,99.90,29.862,M,36.995,M,4.2,7107*7F
$GPGGA,075956.30,3542.276568859,N,13943.263615420,E,5,02,99.90,29.863,M,36.995,M,4.3,7107*75
$GPGGA,075956.40,3542.276543209,N,13943.263594590,E,5,03,99.90,29.871,M,36.995,M,4.4,7107*71
$GPGGA,075956.50,3542.276480652,N,13943.263585192,E,5,03,99.90,29.895,M,36.995,M,4.5,7107*79
$GPGGA,075956.60,3542.276463849,N,13943.263579327,E,5,03,99.90,29.862,M,36.995,M,4.6,7107*77
$GPGGA,075956.70,3542.276406322,N,13943.263569920,E,5,03,99.90,29.893,M,36.995,M,4.7,7107*70
$GPGGA,075956.80,3542.276367470,N,13943.263556916,E,5,03,99.90,29.983,M,36.995,M,4.8,7107*79
$GPGGA,075956.90,3542.276333176,N,13943.263549310,E,5,03,99.90,29.979,M,36.995,M,4.9,7107*7C
$GPGGA,075957.00,3542.276291222,N,13943.263527172,E,5,03,99.90,29.989,M,36.995,M,5.0,7107*76
$GPGGA,075957.10,3542.276256044,N,13943.263493851,E,5,03,99.90,30.000,M,36.995,M,5.1,7107*79
$GPGGA,075957.20,3542.276216036,N,13943.263483655,E,5,03,99.90,30.002,M,36.995,M,5.2,7107*71
$GPGGA,075957.30,3542.276166553,N,13943.263502858,E,5,03,99.90,30.015,M,36.995,M,5.3,7107*7E
$GPGGA,075957.40,3542.276131399,N,13943.263488599,E,5,03,99.90,30.035,M,36.995,M,5.4,7107*7D
$GPGGA,075957.50,3542.276095913,N,13943.263460091,E,5,03,99.90,30.079,M,36.995,M,5.5,7107*79
$GPGGA,075957.60,3542.276046198,N,13943.263442350,E,5,03,99.90,30.132,M,36.995,M,5.6,7107*7C
$GPGGA,075957.70,3542.276006517,N,13943.263427535,E,5,03,99.90,30.146,M,36.995,M,5.7,7107*7E
$GPGGA,075957.80,3542.275968778,N,13943.263408594,E,5,03,99.90,30.142,M,36.995,M,5.8,7107*75
$GPGGA,075957.90,3542.275930971,N,13943.263381450,E,5,02,99.90,30.123,M,36.995,M,5.9,7107*76
$GPGGA,075958.00,3542.275895712,N,13943.263363492,E,5,02,99.90,30.139,M,36.995,M,6.0,7107*76
$GPGGA,075958.10,3542.275864743,N,13943.263354906,E,5,03,99.90,30.185,M,36.995,M,1.1,7107*79
$GPGGA,075958.20,3542.275810055,N,13943.263323365,E,5,03,99.90,30.093,M,36.995,M,1.2,7107*73
$GPGGA,075958.30,3542.275796911,N,13943.263328378,E,5,03,99.90,30.115,M,36.995,M,1.3,7107*73
$GPGGA,075958.40,3542.275761406,N,13943.263312876,E,5,03,99.90,30.123,M,36.995,M,1.4,7107*79
$GPGGA,075958.50,3542.275725349,N,13943.263290773,E,5,03,99.90,30.117,M,36.995,M,1.5,7107*73
$GPGGA,075958.60,3542.275690054,N,13943.263277051,E,5,03,99.90,30.126,M,36.995,M,1.6,7107*7F
$GPGGA,075958.70,3542.275649035,N,13943.263248489,E,5,03,99.90,30.146,M,36.995,M,1.7,7107*77
$GPGGA,075958.80,3542.275622650,N,13943.263226539,E,5,03,99.90,30.151,M,36.995,M,1.8,7107*7B
$GPGGA,075958.90,3542.275591660,N,13943.263213275,E,5,03,99.90,30.161,M,36.995,M,1.9,7107*79
$GPGGA,075959.00,3542.275539935,N,13943.263162189,E,5,03,99.90,30.149,M,36.995,M,2.0,7107*79
$GPGGA,075959.10,3542.275488230,N,13943.263133649,E,5,03,99.90,30.169,M,36.995,M,2.1,7107*71
$GPGGA,075959.20,3542.275476564,N,13943.263119325,E,5,02,99.90,30.165,M,36.995,M,2.2,7107*7C
$GPGGA,075959.30,3542.275438256,N,13943.263072056,E,5,03,99.90,30.193,M,36.995,M,2.3,7107*73
$GPGGA,075959.40,3542.275409155,N,13943.263034802,E,5,03,99.90,30.231,M,36.995,M,2.4,7107*71
$GPGGA,075959.50,3542.275383419,N,13943.263009946,E,5,03,99.90,30.248,M,36.995,M,2.5,7107*78
$GPGGA,075959.60,3542.275352176,N,13943.262989379,E,5,03,99.90,30.263,M,36.995,M,2.6,7107*77
$GPGGA,075959.70,3542.275324816,N,13943.262960511,E,5,02,99.90,30.255,M,36.995,M,2.7,7107*72
$GPGGA,075959.80,3542.275286634,N,13943.262938968,E,5,03,99.90,30.199,M,36.995,M,2.8,7107*78
$GPGGA,075959.90,3542.275230080,N,13943.262910937,E,5,03,99.90,30.192,M,36.995,M,2.9,7107*77
$GPGGA,080000.00,3542.275189954,N,13943.262882415,E,5,03,99.90,30.199,M,36.995,M,3.0,7107*74
$GPGGA,080000.10,3542.275150762,N,13943.262864026,E,5,03,99.90,30.131,M,36.995,M,3.1,7107*75
$GPGGA,080000.20,3542.275088674,N,13943.262837102,E,5,03,99.90,30.174,M,36.995,M,3.2,7107*77
$GPGGA,080000.30,3542.275050817,N,13943.262809381,E,5,03,99.90,30.177,M,36.995,M,3.3,7107*7E
$GPGGA,080000.40,3542.275014150,N,13943.262782167,E,5,02,99.90,30.162,M,36.995,M,3.4,7107*77
$GPGGA,080000.50,3542.274973059,N,13943.262756852,E,5,02,99.90,30.165,M,36.995,M,3.5,7107*77
$GPGGA,080000.60,3542.274932985,N,13943.262736032,E,5,02,99.90,30.169,M,36.995,M,3.6,7107*7E
$GPGGA,080000.70,3542.274896980,N,13943.262700573,E,5,03,99.90,30.139,M,36.995,M,3.7,7107*75
$GPGGA,080000.80,3542.274861415,N,13943.262676296,E,5,03,99.90,30.156,M,36.995,M,3.8,7107*79
$GPGGA,080000.90,3542.274824074,N,13943.262648707,E,5,03,99.90,30.237,M,36.995,M,3.9,7107*7F
$GPGGA,080001.00,3542.274792347,N,13943.262614373,E,5,03,99.90,30.233,M,36.995,M,4.0,7107*72
$GPGGA,080001.10,3542.274752658,N,13943.262597065,E,5,03,99.90,30.246,M,36.995,M,4.1,7107*7B
$GPGGA,080001.20,3542.274723664,N,13943.262549291,E,5,02,99.90,30.240,M,36.995,M,4.2,7107*7F
$GPGGA,080001.30,3542.274690744,N,13943.262519139,E,5,02,99.90,30.230,M,36.995,M,4.3,7107*76
$GPGGA,080001.40,3542.274661712,N,13943.262486235,E,5,03,99.90,30.234,M,36.995,M,4.4,7107*76
$GPGGA,080001.50,3542.274630298,N,13943.262456289,E,5,03,99.90,30.243,M,36.995,M,4.5,7107*7F
$GPGGA,080001.60,3542.274604215,N,13943.262440179,E,5,02,99.90,30.194,M,36.995,M,4.6,7107*7E
$GPGGA,080001.70,3542.274566855,N,13943.262418758,E,5,02,99.90,30.170,M,36.995,M,4.7,7107*75
$GPGGA,080001.80,3542.274526344,N,13943.262395574,E,5,02,99.90,30.177,M,36.995,M,4.8,7107*73
$GPGGA,080001.90,3542.274487983,N,13943.262372647,E,5,02,99.90,30.163,M,36.995,M,4.9,7107*77
$GPGGA,080002.00,3542.274447240,N,13943.262359443,E,5,02,99.90,30.149,M,36.995,M,5.0,7107*7A
$GPGGA,080002.10,3542.274407231,N,13943.262343281,E,5,02,99.90,30.148,M,36.995,M,5.1,7107*7A
$GPGGA,080002.20,3542.274363805,N,13943.262321900,E,5,02,99.90,30.161,M,36.995,M,5.2,7107*7F
$GPGGA,080002.30,3542.274332011,N,13943.262293051,E,5,02,99.90,30.148,M,36.995,M,5.3,7107*78
$GPGGA,080002.40,3542.274297953,N,13943.262266286,E,5,02,99.90,30.134,M,36.995,M,5.4,7107*70
$GPGGA,080002.50,3542.274259575,N,13943.262245190,E,5,02,99.90,30.133,M,36.995,M,5.5,7107*78
$GPGGA,080002.60,3542.274225425,N,13943.262221750,E,5,02,99.90,30.138,M,36.995,M,5.6,7107*74
$GPGGA,080002.70,3542.274194794,N,13943.262189675,E,5,02,99.90,30.130,M,36.995,M,5.7,7107*7B
$GPGGA,080002.80,3542.274161945,N,13943.262153179,E,5,02,99.90,30.125,M,36.995,M,5.8,7107*7B
$GPGGA,080002.90,3542.274114306,N,13943.262140359,E,5,02,99.90,30.155,M,36.995,M,5.9,7107*71
$GPGGA,080003.00,3542.274076649,N,13943.262111393,E,5,02,99.90,30.183,M,36.995,M,6.0,7107*71
$GPGGA,080003.10,3542.274047698,N,13943.262073973,E,5,02,99.90,30.179,M,36.995,M,6.1,7107*7B
$GPGGA,080003.20,3542.274001785,N,13943.262058604,E,5,02,99.90,30.223,M,36.995,M,1.2,7107*79
$GPGGA,080003.30,3542.273966791,N,13943.262019543,E,5,02,99.90,30.208,M,36.995,M,1.3,7107*7F
$GPGGA,080003.40,3542.273932620,N,13943.261986507,E,5,02,99.90,30.202,M,36.995,M,1.4,7107*73
$GPGGA,080003.50,3542.273890960,N,13943.261964095,E,5,02,99.90,30.209,M,36.995,M,1.5,7107*78
$GPGGA,080003.60,3542.273852514,N,13943.261940288,E,5,02,99.90,30.253,M,36.995,M,1.6,7107*7E
$GPGGA,080003.70,3542.273804629,N,13943.261920229,E,5,02,99.90,30.320,M,36.995,M,1.7,7107*78
$GPGGA,080003.80,3542.273750109,N,13943.261900441,E,5,02,99.90,30.385,M,36.995,M,1.8,7107*76
$GPGGA,080003.90,3542.273719163,N,13943.261868775,E,5,02,99.90,30.373,M,36.995,M,1.9,7107*75
$GPGGA,080004.00,3542.273683708,N,13943.261848083,E,5,02,99.90,30.365,M,36.995,M,2.0,7107*73
$GPGGA,080004.10,3542.273644455,N,13943.261813247,E,5,02,99.90,30.356,M,36.995,M,2.1,7107*77
$GPGGA,080004.20,3542.273611100,N,13943.261780833,E,5,02,99.90,30.354,M,36.995,M,2.2,7107*7C
$GPGGA,080004.30,3542.273577532,N,13943.261759011,E,5,02,99.90,30.333,M,36.995,M,2.3,7107*77
$GPGGA,080004.40,3542.273538048,N,13943.261718434,E,5,02,99.90,30.324,M,36.995,M,2.4,7107*74
$GPGGA,080004.50,3542.273501045,N,13943.261685879,E,5,02,99.90,30.308,M,36.995,M,2.5,7107*7D
$GPGGA,080004.60,3542.273456043,N,13943.261671589,E,5,02,99.90,30.312,M,36.995,M,2.6,7107*7A
$GPGGA,080004.70,3542.273417563,N,13943.261645659,E,5,02,99.90,30.301,M,36.995,M,2.7,7107*73
$GPGGA,080004.80,3542.273390114,N,13943.261603515,E,5,02,99.90,30.288,M,36.995,M,2.8,7107*76
$GPGGA,080004.90,3542.273357576,N,13943.261567152,E,5,02,99.90,30.281,M,36.995,M,2.9,7107*72
$GPGGA,080005.00,3542.273324464,N,13943.261533938,E,5,02,99.90,30.270,M,36.995,M,3.0,7107*7F
$GPGGA,080005.10,3542.273280681,N,13943.261517954,E,5,02,99.90,30.251,M,36.995,M,3.1,7107*76
$GPGGA,080005.20,3542.273243926,N,13943.261490303,E,5,02,99.90,30.247,M,36.995,M,3.2,7107*7A
$GPGGA,080005.30,3542.273216409,N,13943.261446232,E,5,02,99.90,30.239,M,36.995,M,3.3,7107*7B
$GPGGA,080005.40,3542.273182324,N,13943.261422213,E,5,02,99.90,30.231,M,36.995,M,3.4,7107*74
$GPGGA,080005.50,3542.273143489,N,13943.261399883,E,5,02,99.90,30.218,M,36.995,M,3.5,7107*76
$GPGGA,080005.60,3542.273109910,N,13943.261361393,E,5,02,99.90,30.206,M,36.995,M,3.6,7107*77
$GPGGA,080005.70,3542.273081607,N,13943.261332084,E,5,02,99.90,30.190,M,36.995,M,3.7,7107*70
$GPGGA,080005.80,3542.273041299,N,13943.261310786,E,5,02,99.90,30.191,M,36.995,M,3.8,7107*7B
$GPGGA,080005.90,3542.273001698,N,13943.261287064,E,5,02,99.90,30.178,M,36.995,M,3.9,7107*79
$GPGGA,080006.00,3542.272968066,N,13943.261256474,E,5,02,99.90,30.161,M,36.995,M,4.0,7107*7C
$GPGGA,080006.10,3542.272940566,N,13943.261216749,E,5,02,99.90,30.150,M,36.995,M,4.1,7107*78
$GPGGA,080006.20,3542.272904398,N,13943.261193385,E,5,02,99.90,30.137,M,36.995,M,4.2,7107*74
$GPGGA,080006.30,3542.272871651,N,13943.261166195,E,5,02,99.90,30.116,M,36.995,M,4.3,7107*7D
$GPGGA,080006.40,3542.272834583,N,13943.261142315,E,5,02,99.90,30.112,M,36.995,M,4.4,7107*78
$GPGGA,080006.50,3542.272797055,N,13943.261116226,E,5,02,99.90,30.100,M,36.995,M,4.5,7107*73
$GPGGA,080006.60,3542.272763516,N,13943.261087352,E,5,02,99.90,30.080,M,36.995,M,4.6,7107*78
$GPGGA,080006.70,3542.272727480,N,13943.261062180,E,5,02,99.90,30.062,M,36.995,M,4.7,7107*7C
$GPGGA,080006.80,3542.272690888,N,13943.261042182,E,5,02,99.90,30.044,M,36.995,M,4.8,7107*71
$GPGGA,080006.90,3542.272657040,N,13943.261008715,E,5,02,99.90,30.042,M,36.995,M,4.9,7107*76
$GPGGA,080007.00,3542.272617271,N,13943.260984569,E,5,02,99.90,30.039,M,36.995,M,5.0,7107*7B
$GPGGA,080007.10,3542.272578881,N,13943.260954024,E,5,02,99.90,30.029,M,36.995,M,5.1,7107*74
$GPGGA,080007.20,3542.272549606,N,13943.260913360,E,5,02,99.90,30.025,M,36.995,M,5.2,7107*7B
$GPGGA,080007.30,3542.272515462,N,13943.260884250,E,5,02,99.90,29.999,M,36.995,M,5.3,7107*79
$GPGGA,080007.40,3542.272474121,N,13943.260864063,E,5,02,99.90,29.984,M,36.995,M,5.4,7107*7D
$GPGGA,080007.50,3542.272439599,N,13943.260830134,E,5,02,99.90,29.965,M,36.995,M,5.5,7107*7E
$GPGGA,080007.60,3542.272399630,N,13943.260805094,E,5,02,99.90,29.954,M,36.995,M,5.6,7107*7C
$GPGGA,080007.70,3542.272364529,N,13943.260770247,E,5,02,99.90,29.950,M,36.995,M,5.7,7107*70
$GPGGA,080007.80,3542.272326691,N,13943.260741938,E,5,02,99.90,29.944,M,36.995,M,5.8,7107*72
$GPGGA,080007.90,3542.272297681,N,13943.260706018,E,5,02,99.90,29.917,M,36.995,M,5.9,7107*76
$GPGGA,080008.00,3542.272267493,N,13943.260668425,E,5,02,99.90,29.902,M,36.995,M,6.0,7107*73
$GPGGA,080008.10,3542.272238598,N,13943.260622757,E,5,02,99.90,29.883,M,36.995,M,1.1,7107*74
$GPGGA,080008.20,3542.272207242,N,13943.260586192,E,5,02,99.90,29.865,M,36.995,M,1.2,7107*72
$GPGGA,080008.30,3542.272173529,N,13943.260549377,E,5,02,99.90,29.856,M,36.995,M,1.3,7107*72
$GPGGA,080008.40,3542.272136187,N,13943.260512431,E,5,02,99.90,29.851,M,36.995,M,1.4,7107*7F
$GPGGA,080008.50,3542.272099009,N,13943.260475034,E,5,02,99.90,29.854,M,36.995,M,1.5,7107*78
$GPGGA,080008.60,3542.272066357,N,13943.260449047,E,5,02,99.90,29.835,M,36.995,M,1.6,7107*7C
$GPGGA,080008.70,3542.272023858,N,13943.260446238,E,5,02,99.90,29.822,M,36.995,M,1.7,7107*7A
$GPGGA,080008.80,3542.271987461,N,13943.260400646,E,5,02,99.90,29.816,M,36.995,M,1.8,7107*70
$GPGGA,080008.90,3542.271957046,N,13943.260364446,E,5,02,99.90,29.795,M,36.995,M,1.9,7107*7F
$GPGGA,080009.00,3542.271921151,N,13943.260330661,E,5,02,99.90,29.787,M,36.995,M,2.0,7107*7E
$GPGGA,080009.10,3542.271886557,N,13943.260296687,E,5,02,99.90,29.784,M,36.995,M,2.1,7107*76
$GPGGA,080009.20,3542.271850351,N,13943.260269940,E,5,02,99.90,29.778,M,36.995,M,2.2,7107*7A
$GPGGA,080009.30,3542.271809085,N,13943.260256232,E,5,02,99.90,29.769,M,36.995,M,2.3,7107*7E
$GPGGA,080009.40,3542.271771665,N,13943.260223474,E,5,02,99.90,29.757,M,36.995,M,2.4,7107*7D
$GPGGA,080009.50,3542.271734307,N,13943.260196074,E,5,02,99.90,29.749,M,36.995,M,2.5,7107*7B
$GPGGA,080009.60,3542.271698115,N,13943.260160176,E,5,02,99.90,29.721,M,36.995,M,2.6,7107*79
$GPGGA,080009.70,3542.271667288,N,13943.260126767,E,5,02,99.90,29.687,M,36.995,M,2.7,7107*77
$GPGGA,080009.80,3542.271632517,N,13943.260091819,E,5,02,99.90,29.676,M,36.995,M,2.8,7107*73
$GPGGA,080009.90,3542.271593626,N,13943.260063732,E,5,02,99.90,29.682,M,36.995,M,2.9,7107*7A
$GPGGA,080010.00,3542.271553343,N,13943.260038103,E,5,02,99.90,29.675,M,36.995,M,3.0,7107*7B
$GPGGA,080010.10,3542.271517832,N,13943.260012823,E,5,02,99.90,29.674,M,36.995,M,3.1,7107*74
$GPGGA,080010.20,3542.271486237,N,13943.259980659,E,5,02,99.90,29.659,M,36.995,M,3.2,7107*76
$GPGGA,080010.30,3542.271458114,N,13943.259944881,E,5,02,99.90,29.660,M,36.995,M,3.3,7107*7E
$GPGGA,080010.40,3542.271419606,N,13943.259917241,E,5,02,99.90,29.643,M,36.995,M,3.4,7107*7E
$GPGGA,080010.50,3542.271383045,N,13943.259872326,E,5,02,99.90,29.620,M,36.995,M,3.5,7107*7C
$GPGGA,080010.60,3542.271348109,N,13943.259833977,E,5,02,99.90,29.608,M,36.995,M,3.6,7107*73
$GPGGA,080010.70,3542.271308994,N,13943.259809524,E,5,02,99.90,29.602,M,36.995,M,3.7,7107*72
$GPGGA,080010.80,3542.271265341,N,13943.259790605,E,5,02,99.90,29.608,M,36.995,M,3.8,7107*7F
$GPGGA,080010.90,3542.271225710,N,13943.259763905,E,5,02,99.90,29.592,M,36.995,M,3.9,7107*78
$GPGGA,080011.00,3542.271181502,N,13943.259754433,E,5,02,99.90,29.569,M,36.995,M,4.0,7107*7A
$GPGGA,080011.10,3542.271136245,N,13943.259750806,E,5,02,99.90,29.563,M,36.995,M,4.1,7107*76
$GPGGA,080011.20,3542.271103799,N,13943.259736830,E,5,02,99.90,29.540,M,36.995,M,4.2,7107*70
$GPGGA,080011.30,3542.271060155,N,13943.259716068,E,5,02,99.90,29.552,M,36.995,M,4.3,7107*76
$GPGGA,080011.40,3542.271027816,N,13943.259678177,E,5,02,99.90,29.522,M,36.995,M,4.4,7107*7A
$GPGGA,080011.50,3542.270989311,N,13943.259651402,E,5,02,99.90,29.515,M,36.995,M,4.5,7107*72
$GPGGA,080011.60,3542.270943548,N,13943.259627711,E,5,01,99.90,29.514,M,36.995,M,4.6,7107*7C
$GPGGA,080011.70,3542.270908735,N,13943.259598013,E,5,02,99.90,29.514,M,36.995,M,4.7,7107*7A
$GPGGA,080011.80,3542.270873327,N,13943.259555062,E,5,02,99.90,29.537,M,36.995,M,4.8,7107*76
$GPGGA,080011.90,3542.270841416,N,13943.259500992,E,5,02,99.90,29.542,M,36.995,M,4.9,7107*76
$GPGGA,080012.00,3542.270800964,N,13943.259470260,E,5,02,99.90,29.524,M,36.995,M,5.0,7107*79
$GPGGA,080012.10,3542.270762807,N,13943.259440759,E,5,02,99.90,29.518,M,36.995,M,5.1,7107*75
$GPGGA,080012.20,3542.270727825,N,13943.259409369,E,5,02,99.90,29.507,M,36.995,M,5.2,7107*70
$GPGGA,080012.30,3542.270690725,N,13943.259379079,E,5,02,99.90,29.485,M,36.995,M,5.3,7107*7B
$GPGGA,080012.40,3542.270651764,N,13943.259347072,E,5,02,99.90,29.467,M,36.995,M,5.4,7107*79
$GPGGA,080012.50,3542.270602247,N,13943.259337213,E,5,02,99.90,29.528,M,36.995,M,5.5,7107*73
$GPGGA,080012.60,3542.270565084,N,13943.259312119,E,5,02,99.90,29.568,M,36.995,M,5.6,7107*76
$GPGGA,080012.70,3542.270526055,N,13943.259293982,E,5,02,99.90,29.580,M,36.995,M,5.7,7107*79
$GPGGA,080012.80,3542.270477164,N,13943.259275663,E,5,02,99.90,29.616,M,36.995,M,5.8,7107*7B
$GPGGA,080012.90,3542.270444276,N,13943.259231113,E,5,02,99.90,29.622,M,36.995,M,5.9,7107*7C
$GPGGA,080013.00,3542.270401805,N,13943.259210683,E,5,02,99.90,29.655,M,36.995,M,6.0,7107*7C
$GPGGA,080013.10,3542.270372016,N,13943.259201086,E,5,02,99.90,29.670,M,36.995,M,6.1,7107*71
$GPGGA,080013.20,3542.270341173,N,13943.259159328,E,5,02,99.90,29.651,M,36.995,M,6.2,7107*79
$GPGGA,080013.30,3542.270311745,N,13943.259128511,E,5,02,99.90,29.584,M,36.995,M,6.3,7107*7E
$GPGGA,080013.40,3542.270279993,N,13943.259101857,E,5,01,99.90,29.522,M,36.995,M,6.4,7107*7F
$GPGGA,080013.50,3542.270237619,N,13943.259072905,E,5,02,99.90,29.577,M,36.995,M,6.5,7107*78
$GPGGA,080013.60,3542.270201134,N,13943.259044175,E,5,02,99.90,29.615,M,36.995,M,6.6,7107*78
$GPGGA,080013.70,3542.270166850,N,13943.259021062,E,5,02,99.90,29.585,M,36.995,M,6.7,7107*7F
$GPGGA,080013.80,3542.270126678,N,13943.258990083,E,5,02,99.90,29.574,M,36.995,M,6.8,7107*7C
$GPGGA,080013.90,3542.270099086,N,13943.258957320,E,5,01,99.90,29.573,M,36.995,M,6.9,7107*7B
$GPGGA,080014.00,3542.270065455,N,13943.258922795,E,5,01,99.90,29.560,M,36.995,M,7.0,7107*7E
$GPGGA,080014.10,3542.270031802,N,13943.258892728,E,5,01,99.90,29.538,M,36.995,M,7.1,7107*70
$GPGGA,080014.20,3542.269999554,N,13943.258866614,E,5,01,99.90,29.520,M,36.995,M,7.2,7107*71
$GPGGA,080014.30,3542.269969592,N,13943.258827923,E,5,01,99.90,29.518,M,36.995,M,7.3,7107*71
$GPGGA,080014.40,3542.269943204,N,13943.258807644,E,5,01,99.90,29.500,M,36.995,M,7.4,7107*74
$GPGGA,080014.50,3542.269921486,N,13943.258779437,E,5,01,99.90,29.491,M,36.995,M,7.5,7107*75
$GPGGA,080014.60,3542.269891990,N,13943.258740864,E,5,01,99.90,29.484,M,36.995,M,7.6,7107*71
$GPGGA,080014.70,3542.269857126,N,13943.258724080,E,5,01,99.90,29.461,M,36.995,M,7.7,7107*75
$GPGGA,080014.80,3542.269830430,N,13943.258700016,E,5,01,99.90,29.449,M,36.995,M,7.8,7107*75
$GPGGA,080014.90,3542.269794805,N,13943.258658937,E,5,01,99.90,29.444,M,36.995,M,7.9,7107*75
$GPGGA,080015.00,3542.269758989,N,13943.258619864,E,5,01,99.90,29.448,M,36.995,M,8.0,7107*70
$GPGGA,080015.10,3542.269723460,N,13943.258588190,E,5,01,99.90,29.440,M,36.995,M,8.1,7107*77
$GPGGA,080015.20,3542.269682218,N,13943.258565474,E,5,01,99.90,29.418,M,36.995,M,8.2,7107*75
$GPGGA,080015.30,3542.269649634,N,13943.258533817,E,5,01,99.90,29.416,M,36.995,M,8.3,7107*7C
$GPGGA,080015.40,3542.269612026,N,13943.258504869,E,5,01,99.90,29.398,M,36.995,M,8.4,7107*7B
$GPGGA,080015.50,3542.269569941,N,13943.258474854,E,5,01,99.90,29.379,M,36.995,M,8.5,7107*7B
$GPGGA,080015.60,3542.269536231,N,13943.258440338,E,5,01,99.90,29.362,M,36.995,M,8.6,7107*71
$GPGGA,080015.70,3542.269511521,N,13943.258401415,E,5,01,99.90,29.338,M,36.995,M,8.7,7107*70
$GPGGA,080015.80,3542.269478750,N,13943.258367672,E,5,01,99.90,29.320,M,36.995,M,8.8,7107*77
$GPGGA,080015.90,3542.269444828,N,13943.258331445,E,5,01,99.90,29.306,M,36.994,M,8.9,7107*78
$GPGGA,080016.00,3542.269415708,N,13943.258306053,E,5,01,99.90,29.284,M,36.994,M,9.0,7107*7F
$GPGGA,080016.10,3542.269381096,N,13943.258281638,E,5,02,99.90,29.263,M,36.994,M,9.1,7107*7A
$GPGGA,080016.20,3542.269352446,N,13943.258240974,E,5,02,99.90,29.220,M,36.994,M,9.2,7107*70
$GPGGA,080016.30,3542.269311666,N,13943.258209478,E,5,01,99.90,29.193,M,36.994,M,9.3,7107*73
$GPGGA,080016.40,3542.269274364,N,13943.258193412,E,5,01,99.90,29.166,M,36.994,M,9.4,7107*70
$GPGGA,080016.50,3542.269234067,N,13943.258176030,E,5,01,99.90,29.162,M,36.994,M,9.5,7107*7F
$GPGGA,080016.60,3542.269191293,N,13943.258162207,E,5,01,99.90,29.166,M,36.994,M,9.6,7107*7D
$GPGGA,080016.70,3542.269155319,N,13943.258131166,E,5,01,99.90,29.152,M,36.994,M,9.7,7107*73
$GPGGA,080016.80,3542.269113605,N,13943.258111750,E,5,01,99.90,29.151,M,36.994,M,9.8,7107*7B
$GPGGA,080016.90,3542.269068795,N,13943.258102362,E,5,01,99.90,29.136,M,36.994,M,9.9,7107*78
$GPGGA,080017.00,3542.269032560,N,13943.258079779,E,5,01,99.90,29.116,M,36.994,M,10.0,7107*47
$GPGGA,080017.10,3542.268999887,N,13943.258057390,E,5,01,99.90,29.086,M,36.994,M,10.1,7107*4D
$GPGGA,080017.20,3542.268970415,N,13943.258014231,E,5,01,99.90,29.076,M,36.994,M,10.2,7107*4F
$GPGGA,080017.30,3542.268932264,N,13943.257982418,E,5,01,99.90,29.076,M,36.994,M,10.3,7107*4D
$GPGGA,080017.40,3542.268900582,N,13943.257938537,E,5,01,99.90,29.057,M,36.994,M,10.4,7107*4D
$GPGGA,080017.50,3542.268872192,N,13943.257898189,E,5,01,99.90,29.014,M,36.994,M,10.5,7107*41
$GPGGA,080017.60,3542.268842738,N,13943.257872951,E,5,01,99.90,28.971,M,36.994,M,10.6,7107*46
$GPGGA,080017.70,3542.268803298,N,13943.257845795,E,5,01,99.90,28.930,M,36.994,M,10.7,7107*4B
$GPGGA,080017.80,3542.268768848,N,13943.257816582,E,5,01,99.90,28.924,M,36.994,M,10.8,7107*49
$GPGGA,080017.90,3542.268734554,N,13943.257785999,E,5,01,99.90,28.911,M,36.994,M,10.9,7107*45
$GPGGA,080018.00,3542.268697899,N,13943.257751477,E,5,01,99.90,28.896,M,36.994,M,11.0,7107*45
$GPGGA,080018.10,3542.268664750,N,13943.257720038,E,5,01,99.90,28.895,M,36.994,M,11.1,7107*49
$GPGGA,080018.20,3542.268637088,N,13943.257697796,E,5,01,99.90,28.891,M,36.994,M,11.2,7107*47
$GPGGA,080018.30,3542.268606824,N,13943.257658811,E,5,01,99.90,28.881,M,36.994,M,11.3,7107*49
$GPGGA,080018.40,3542.268576402,N,13943.257617590,E,5,01,99.90,28.874,M,36.994,M,11.4,7107*40
$GPGGA,080018.50,3542.268544516,N,13943.257584639,E,5,01,99.90,28.863,M,36.994,M,11.5,7107*4A
$GPGGA,080018.60,3542.268511905,N,13943.257539530,E,5,01,99.90,28.845,M,36.994,M,11.6,7107*4C
$GPGGA,080018.70,3542.268479443,N,13943.257509546,E,5,01,99.90,28.841,M,36.994,M,11.7,7107*4A
$GPGGA,080018.80,3542.268440208,N,13943.257449826,E,5,02,99.90,28.826,M,36.994,M,11.8,7107*45
$GPGGA,080018.90,3542.268410527,N,13943.257422878,E,5,02,99.90,28.784,M,36.994,M,11.9,7107*4B
$GPGGA,080019.00,3542.268361940,N,13943.257413011,E,5,02,99.90,28.775,M,36.994,M,12.0,7107*4E
$GPGGA,080019.10,3542.268343834,N,13943.257385081,E,5,02,99.90,28.757,M,36.994,M,12.1,7107*4D
$GPGGA,080019.20,3542.268301024,N,13943.257368985,E,5,02,99.90,28.741,M,36.994,M,12.2,7107*4B
$GPGGA,080019.30,3542.268242043,N,13943.257368583,E,5,02,99.90,28.726,M,36.994,M,12.3,7107*47
$GPGGA,080019.40,3542.268192477,N,13943.257362602,E,5,02,99.90,28.707,M,36.994,M,12.4,7107*49
$GPGGA,080019.50,3542.268147183,N,13943.257343005,E,5,02,99.90,28.689,M,36.994,M,12.5,7107*4A
$GPGGA,080019.60,3542.268099172,N,13943.257321878,E,5,02,99.90,28.803,M,36.994,M,12.6,7107*4C
$GPGGA,080019.70,3542.268035301,N,13943.257336369,E,5,02,99.90,28.856,M,36.994,M,12.7,7107*41
$GPGGA,080019.80,3542.267989150,N,13943.257320930,E,5,02,99.90,28.907,M,36.994,M,12.8,7107*42
$GPGGA,080019.90,3542.267948395,N,13943.257290514,E,5,02,99.90,28.975,M,36.994,M,12.9,7107*41
$GPGGA,080020.00,3542.267894428,N,13943.257276789,E,5,02,99.90,29.039,M,36.994,M,13.0,7107*45
$GPGGA,080020.10,3542.267857418,N,13943.257252637,E,5,02,99.90,29.140,M,36.994,M,13.1,7107*44
$GPGGA,080020.20,3542.267812516,N,13943.257202767,E,5,02,99.90,29.190,M,36.994,M,13.2,7107*46
$GPGGA,080020.30,3542.267768245,N,13943.257178018,E,5,03,99.90,29.207,M,36.994,M,13.3,7107*48
$GPGGA,080020.40,3542.267725954,N,13943.257151587,E,5,02,99.90,29.208,M,36.994,M,13.4,7107*4C
$GPGGA,080020.50,3542.267681793,N,13943.257125513,E,5,02,99.90,29.215,M,36.994,M,13.5,7107*44
$GPGGA,080020.60,3542.267634544,N,13943.257104200,E,5,02,99.90,29.244,M,36.994,M,13.6,7107*40
$GPGGA,080020.70,3542.267597163,N,13943.257070320,E,5,02,99.90,29.271,M,36.994,M,13.7,7107*4C
$GPGGA,080020.80,3542.267563939,N,13943.257021256,E,5,02,99.90,29.257,M,36.994,M,13.8,7107*40
$GPGGA,080020.90,3542.267520080,N,13943.256999727,E,5,02,99.90,29.249,M,36.994,M,13.9,7107*4B
$GPGGA,080021.00,3542.267477963,N,13943.256971830,E,5,02,99.90,29.279,M,36.994,M,14.0,7107*46
$GPGGA,080021.10,3542.267440758,N,13943.256946137,E,5,02,99.90,29.228,M,36.994,M,14.1,7107*4A
$GPGGA,080021.20,3542.267408186,N,13943.256904395,E,5,03,99.90,29.187,M,36.994,M,14.2,7107*48
$GPGGA,080021.30,3542.267365742,N,13943.256889005,E,5,04,5.29,29.129,M,36.994,M,14.3,7107*70
$GPGGA,080021.40,3542.267327321,N,13943.256866476,E,5,04,5.29,29.140,M,36.994,M,14.4,7107*79
$GPGGA,080021.50,3542.267287605,N,13943.256835961,E,5,04,5.29,29.122,M,36.994,M,14.5,7107*78
$GPGGA,080021.60,3542.267271750,N,13943.256769958,E,5,03,99.90,29.020,M,36.994,M,14.6,7107*4F
$GPGGA,080021.70,3542.267231662,N,13943.256737173,E,5,05,4.54,28.991,M,36.994,M,14.7,7107*79
$GPGGA,080021.80,3542.267200375,N,13943.256702293,E,5,04,5.29,28.971,M,36.994,M,14.8,7107*77
$GPGGA,080021.90,3542.267171804,N,13943.256647105,E,5,04,5.29,28.945,M,36.994,M,14.9,7107*74
$GPGGA,080022.00,3542.267140471,N,13943.256625724,E,5,03,99.90,28.852,M,36.994,M,15.0,7107*4C
$GPGGA,080022.10,3542.267105441,N,13943.256596999,E,5,04,5.29,28.857,M,36.994,M,15.1,7107*78
$GPGGA,080022.20,3542.267054845,N,13943.256609622,E,5,04,5.29,28.724,M,36.994,M,15.2,7107*74
$GPGGA,080022.30,3542.266998286,N,13943.256604149,E,5,04,5.29,28.776,M,36.994,M,15.3,7107*79
$GPGGA,080022.40,3542.266950827,N,13943.256605353,E,5,05,4.53,28.758,M,36.994,M,15.4,7107*75
$GPGGA,080022.50,3542.266909013,N,13943.256597506,E,5,02,99.90,28.723,M,36.994,M,15.5,7107*48
$GPGGA,080022.60,3542.266864762,N,13943.256604499,E,5,04,5.29,28.678,M,36.994,M,15.6,7107*73
$GPGGA,080022.70,3542.266824375,N,13943.256572861,E,5,04,5.29,28.709,M,36.994,M,15.7,7107*7B
$GPGGA,080022.80,3542.266789207,N,13943.256552158,E,5,04,5.29,28.677,M,36.994,M,15.8,7107*7E
$GPGGA,080022.90,3542.266752772,N,13943.256527608,E,5,05,4.53,28.624,M,36.994,M,15.9,7107*74
$GPGGA,080023.00,3542.266716402,N,13943.256496593,E,5,05,4.53,28.618,M,36.994,M,16.0,7107*77
$GPGGA,080023.10,3542.266683257,N,13943.256473910,E,5,05,4.53,28.616,M,36.994,M,16.1,7107*7E
$GPGGA,080023.20,3542.266656471,N,13943.256430176,E,5,05,4.53,28.565,M,36.994,M,16.2,7107*7C
$GPGGA,080023.30,3542.266611289,N,13943.256374533,E,5,05,4.53,28.515,M,36.994,M,16.3,7107*7B
$GPGGA,080023.40,3542.266579138,N,13943.256372438,E,5,05,4.53,28.418,M,36.994,M,16.4,7107*7F
$GPGGA,080023.50,3542.266502771,N,13943.256295888,E,5,02,99.90,28.413,M,36.994,M,16.5,7107*40
$GPGGA,080023.60,3542.266440507,N,13943.256229922,E,5,04,5.28,28.415,M,36.994,M,16.6,7107*74
$GPGGA,080023.70,3542.266411339,N,13943.256200981,E,5,04,5.28,28.345,M,36.994,M,16.7,7107*7B
$GPGGA,080023.80,3542.266375706,N,13943.256173932,E,5,04,5.28,28.302,M,36.994,M,16.8,7107*7A
$GPGGA,080023.90,3542.266382881,N,13943.256246610,E,5,04,5.28,28.213,M,36.994,M,16.9,7107*79
$GPGGA,080024.00,3542.266348801,N,13943.256248106,E,5,04,5.28,28.168,M,36.994,M,17.0,7107*70
$GPGGA,080024.10,3542.266306570,N,13943.256237705,E,5,04,5.28,28.113,M,36.994,M,17.1,7107*70
$GPGGA,080024.20,3542.266260354,N,13943.256212996,E,5,02,99.90,28.129,M,36.994,M,17.2,7107*4B
$GPGGA,080024.30,3542.266225326,N,13943.256201251,E,5,02,99.90,28.116,M,36.994,M,17.3,7107*41
$GPGGA,080024.40,3542.266178837,N,13943.256190633,E,5,02,99.90,28.159,M,36.994,M,17.4,7107*41
$GPGGA,080024.50,3542.266118201,N,13943.256181307,E,5,04,5.28,28.237,M,36.994,M,17.5,7107*71
$GPGGA,080024.60,3542.266070759,N,13943.256150847,E,5,04,5.28,28.229,M,36.994,M,17.6,7107*7A
$GPGGA,080024.70,3542.266033744,N,13943.256130490,E,5,04,5.28,28.192,M,36.994,M,17.7,7107*72
$GPGGA,080024.80,3542.265997953,N,13943.256105815,E,5,04,5.28,28.163,M,36.994,M,17.8,7107*77
$GPGGA,080024.90,3542.265966399,N,13943.256078641,E,5,02,99.90,28.138,M,36.994,M,17.9,7107*4F
$GPGGA,080025.00,3542.265931121,N,13943.256049988,E,5,02,99.90,28.108,M,36.994,M,18.0,7107*49
$GPGGA,080025.10,3542.265897303,N,13943.256024189,E,5,02,99.90,28.081,M,36.994,M,18.1,7107*44
$GPGGA,080025.20,3542.266079353,N,13943.256167164,E,5,04,5.28,28.011,M,36.994,M,18.2,7107*76
$GPGGA,080025.30,3542.266080698,N,13943.256167312,E,5,05,4.24,28.010,M,36.994,M,18.3,7107*7C
$GPGGA,080025.40,3542.266080197,N,13943.256167064,E,5,05,4.24,28.011,M,36.994,M,18.4,7107*77
$GPGGA,080025.50,3542.266080278,N,13943.256167389,E,5,05,4.24,28.012,M,36.994,M,18.5,7107*76
$GPGGA,080025.60,3542.266080275,N,13943.256167722,E,5,05,4.24,28.014,M,36.994,M,18.6,7107*78
$GPGGA,080025.70,3542.266080269,N,13943.256167910,E,5,05,4.24,28.014,M,36.994,M,18.7,7107*7A
$GPGGA,080025.80,3542.266080268,N,13943.256168002,E,5,05,4.24,28.014,M,36.994,M,18.8,7107*7E
$GPGGA,080025.90,3542.266080227,N,13943.256168109,E,5,05,4.24,28.014,M,36.994,M,18.9,7107*7F
$GPGGA,080026.00,3542.266080185,N,13943.256168187,E,5,05,4.24,28.015,M,36.994,M,19.0,7107*71
$GPGGA,080026.10,3542.266080129,N,13943.256168218,E,5,05,4.24,28.015,M,36.994,M,19.1,7107*72
$GPGGA,080026.20,3542.266080079,N,13943.256168114,E,5,05,4.24,28.014,M,36.994,M,19.2,7107*78
$GPGGA,080026.30,3542.266080040,N,13943.256168019,E,5,06,3.41,28.014,M,36.994,M,19.3,7107*79
$GPGGA,080026.40,3542.266079989,N,13943.256168009,E,5,06,3.41,28.014,M,36.994,M,19.4,7107*72
$GPGGA,080026.50,3542.266079963,N,13943.256168000,E,5,05,4.24,28.014,M,36.994,M,19.5,7107*78
$GPGGA,080026.60,3542.266079918,N,13943.256167976,E,5,05,4.24,28.013,M,36.994,M,19.6,7107*74
$GPGGA,080026.70,3542.266079883,N,13943.256167981,E,5,05,4.24,28.013,M,36.994,M,19.7,7107*7F
$GPGGA,080026.80,3542.266079867,N,13943.256167988,E,5,05,4.24,28.013,M,36.994,M,19.8,7107*7C
$GPGGA,080026.90,3542.266079832,N,13943.256168002,E,5,05,4.25,28.013,M,36.994,M,19.9,7107*79
$GPGGA,080027.00,3542.266079805,N,13943.256168009,E,5,05,4.25,28.013,M,36.994,M,20.0,7107*7D
$GPGGA,080027.10,3542.266079776,N,13943.256168067,E,5,05,4.25,28.013,M,36.994,M,20.1,7107*7E
$GPGGA,080027.20,3542.266079755,N,13943.256168096,E,5,05,4.25,28.013,M,36.994,M,20.2,7107*71
$GPGGA,080027.30,3542.266079745,N,13943.256168066,E,5,05,4.25,28.012,M,36.994,M,20.3,7107*7E
$GPGGA,080027.40,3542.266079729,N,13943.256168089,E,5,05,4.25,28.012,M,36.994,M,20.4,7107*75
$GPGGA,080027.50,3542.266079709,N,13943.256168120,E,5,06,3.41,28.012,M,36.994,M,20.5,7107*73
$GPGGA,080027.60,3542.266079602,N,13943.256168254,E,5,06,3.41,28.012,M,36.994,M,20.6,7107*79
$GPGGA,080027.70,3542.266079590,N,13943.256168243,E,5,06,3.41,28.012,M,36.994,M,20.7,7107*77
$GPGGA,080027.80,3542.266079539,N,13943.256168241,E,5,06,3.41,28.011,M,36.994,M,20.8,7107*75
$GPGGA,080027.90,3542.266079502,N,13943.256168237,E,5,06,3.41,28.011,M,36.994,M,20.9,7107*7C
$GPGGA,080028.00,3542.266079481,N,13943.256168217,E,5,06,3.41,28.010,M,36.994,M,21.0,7107*7B
