$GPGGA,091558.30,3542.265578658,N,13943.255677789,E,5,08,2.30,23.415,M,36.994,M,6.3,7107*46
$PMSBATV,091558.30,2,2,0.41526,0.67769,-174.98273,-0.035,0.033,-0.000,52.60869,0.000*5B,,,
$GPGGA,091558.40,3542.265583209,N,13943.255673495,E,5,08,2.30,23.416,M,36.994,M,6.4,7107*4B
$PMSBATV,091558.40,2,2,0.44628,0.71916,-174.98490,-0.044,0.042,0.000,52.60869,0.000*73,,,
$GPGGA,091558.50,3542.265586952,N,13943.255669917,E,5,08,2.30,23.417,M,36.994,M,6.5,7107*46
$PMSBATV,091558.50,2,2,0.35843,0.67409,-174.99545,-0.021,0.020,-0.000,52.60869,0.000*51,,,
$GPGGA,091558.60,3542.265582209,N,13943.255674937,E,5,08,2.30,23.416,M,36.994,M,6.6,7107*48
$PMSBATV,091558.60,2,2,0.37562,0.70263,-174.99973,-0.031,0.029,0.000,52.60869,0.000*7E,,,
$GPGGA,091558.70,3542.265585284,N,13943.255672071,E,5,08,2.30,23.417,M,36.994,M,6.7,7107*46
$PMSBATV,091558.70,2,2,0.33786,0.68430,-175.01102,-0.021,0.021,0.000,52.60869,0.000*7D,,,
$GPGGA,091558.80,3542.265583643,N,13943.255673910,E,5,08,2.30,23.416,M,36.994,M,6.8,7107*41
$PMSBATV,091558.80,2,2,0.36035,0.67256,-175.00290,-0.026,0.025,-0.000,52.60869,0.000*56,,,
$GPGGA,091558.90,3542.265585239,N,13943.255672208,E,5,08,2.30,23.416,M,36.994,M,6.9,7107*4D
$PMSBATV,091558.90,2,2,0.35774,0.65323,-174.99933,-0.024,0.023,-0.000,52.60869,0.000*50,,,
$GPGGA,091559.00,3542.265585477,N,13943.255671934,E,5,08,2.30,23.416,M,36.994,M,7.0,7107*46
$PMSBATV,091559.00,2,2,0.34781,0.67151,-175.01411,-0.025,0.024,0.000,52.60869,0.000*70,,,
$GPGGA,091559.10,3542.265586428,N,13943.255671349,E,5,08,2.30,23.416,M,36.994,M,2.1,7107*4A
$PMSBATV,091559.10,2,2,0.31214,0.60437,-175.00825,-0.012,0.012,-0.000,52.60869,0.000*59,,,
$GPGGA,091559.20,3542.265583606,N,13943.255673982,E,5,08,2.30,23.415,M,36.994,M,2.2,7107*4D
$PMSBATV,091559.20,2,2,0.35732,0.60900,-175.00306,-0.023,0.022,-0.000,52.60869,0.000*5D,,,
$GPGGA,091559.30,3542.265586670,N,13943.255670820,E,5,08,2.30,23.415,M,36.994,M,2.3,7107*43
$PMSBATV,091559.30,2,2,0.31808,0.59394,-175.00850,-0.012,0.012,0.000,52.60869,0.000*77,,,
$GPGGA,091559.40,3542.265584348,N,13943.255673282,E,5,08,2.30,23.415,M,36.994,M,2.4,7107*4E
$PMSBATV,091559.40,2,2,0.29406,0.53615,-175.00198,-0.002,0.002,-0.000,52.60869,0.000*5D,,,
$GPGGA,091559.50,3542.265581548,N,13943.255675934,E,5,08,2.30,23.414,M,36.994,M,2.5,7107*4C
$PMSBATV,091559.50,2,2,0.27140,0.52043,-175.00391,0.005,-0.005,-0.000,52.60869,0.000*5A,,,
$GPGGA,091559.60,3542.265579166,N,13943.255678329,E,5,08,2.30,23.414,M,36.994,M,2.6,7107*48
$PMSBATV,091559.60,2,2,0.24239,0.51985,-175.01422,0.011,-0.010,-0.000,52.60869,0.000*58,,,
$GPGGA,091559.70,3542.265576913,N,13943.255680847,E,5,08,2.30,23.414,M,36.994,M,2.7,7107*49
$PMSBATV,091559.70,2,2,0.26129,0.54421,-175.01585,0.006,-0.006,0.000,52.60869,0.000*7F,,,
$GPGGA,091559.80,3542.265577113,N,13943.255680731,E,5,08,2.30,23.414,M,36.994,M,2.8,7107*4E
$PMSBATV,091559.80,2,2,0.24074,0.53883,-175.01977,0.012,-0.012,-0.000,52.60869,0.000*54,,,
$GPGGA,091559.90,3542.265574680,N,13943.255683273,E,5,08,2.30,23.415,M,36.994,M,2.9,7107*41
$PMSBATV,091559.90,2,2,0.21269,0.55611,-175.03123,0.018,-0.018,-0.000,52.60869,0.000*56,,,
$GPGGA,091600.00,3542.265571597,N,13943.255686641,E,5,08,2.30,23.415,M,36.994,M,3.0,7107*4F
$PMSBATV,091600.00,2,2,0.21037,0.58688,-175.03649,0.017,-0.017,-0.000,52.60869,0.000*5F,,,
$GPGGA,091600.10,3542.265570332,N,13943.255688129,E,5,08,2.30,23.416,M,36.994,M,3.1,7107*43
$PMSBATV,091600.10,2,2,0.22688,0.64032,-175.04554,0.015,-0.014,-0.000,52.60869,0.000*5E,,,
$GPGGA,091600.20,3542.265569401,N,13943.255689312,E,5,08,2.30,23.417,M,36.994,M,3.2,7107*46
$PMSBATV,091600.20,2,2,0.27411,0.68061,-175.04343,0.003,-0.003,-0.000,52.60869,0.000*51,,,
$GPGGA,091600.30,3542.265571116,N,13943.255687651,E,5,08,2.30,23.418,M,36.994,M,3.3,7107*4F
$PMSBATV,091600.30,2,2,0.30229,0.72813,-175.04739,-0.007,0.006,-0.000,52.60869,0.000*55,,,
$GPGGA,091600.40,3542.265572821,N,13943.255686165,E,5,08,2.30,23.419,M,36.994,M,3.4,7107*41
$PMSBATV,091600.40,2,2,0.33165,0.72855,-175.03819,-0.012,0.011,-0.000,52.60869,0.000*50,,,
$GPGGA,091600.50,3542.265573817,N,13943.255685020,E,5,08,2.30,23.419,M,36.994,M,3.5,7107*46
$PMSBATV,091600.50,2,2,0.32227,0.71369,-175.03866,-0.008,0.008,0.000,52.60869,0.000*74,,,
$GPGGA,091600.60,3542.265572487,N,13943.255686398,E,5,08,2.30,23.419,M,36.994,M,3.6,7107*41
$PMSBATV,091600.60,2,2,0.37144,0.73857,-175.03421,-0.020,0.019,-0.000,52.60869,0.000*58,,,
$GPGGA,091600.70,3542.265575504,N,13943.255683369,E,5,08,2.30,23.419,M,36.994,M,3.7,7107*47
$PMSBATV,091600.70,2,2,0.39641,0.73627,-175.02733,-0.028,0.026,-0.001,52.60869,0.000*58,,,
$GPGGA,091600.80,3542.265577738,N,13943.255681059,E,5,08,2.30,23.419,M,36.994,M,3.8,7107*4A
$PMSBATV,091600.80,2,2,0.39661,0.73215,-175.02967,-0.028,0.026,-0.000,52.60869,0.000*5E,,,
$GPGGA,091600.90,3542.265578391,N,13943.255680524,E,5,08,2.30,23.419,M,36.994,M,3.9,7107*4C
$PMSBATV,091600.90,2,2,0.41703,0.77467,-175.03663,-0.039,0.037,-0.000,52.60869,0.000*58,,,
$GPGGA,091601.00,3542.265582127,N,13943.255677086,E,5,08,2.30,23.420,M,36.994,M,4.0,7107*4F
$PMSBATV,091601.00,2,2,0.41543,0.76774,-175.02912,-0.041,0.039,-0.000,52.60869,0.000*5F,,,
$GPGGA,091601.10,3542.265583996,N,13943.255675186,E,5,07,2.61,23.420,M,36.994,M,4.1,7107*44
$PMSBATV,091601.10,2,2,0.27561,0.55814,-175.00882,0.008,-0.007,0.000,52.60869,0.000*71,,,
$GPGGA,091601.20,3542.265572071,N,13943.255686549,E,5,07,2.61,23.416,M,36.994,M,4.2,7107*44
$PMSBATV,091601.20,2,2,0.10341,0.37336,-174.99757,0.063,-0.061,-0.000,52.60869,0.000*5B,,,
$GPGGA,091601.30,3542.265555980,N,13943.255702261,E,5,07,2.61,23.414,M,36.994,M,4.3,7107*44
$PMSBATV,091601.30,2,2,0.13250,0.27821,-174.96628,0.066,-0.064,-0.000,52.60869,0.000*52,,,
$GPGGA,091601.40,3542.265551712,N,13943.255705711,E,5,07,2.61,23.412,M,36.994,M,4.4,7107*46
$PMSBATV,091601.40,2,2,0.14113,0.21676,-174.94772,0.074,-0.071,0.000,52.60869,0.000*7A,,,
$GPGGA,091601.50,3542.265546048,N,13943.255710803,E,5,07,2.61,23.410,M,36.994,M,4.5,7107*42
$PMSBATV,091601.50,2,2,0.18800,0.19635,-174.93019,0.071,-0.068,0.000,52.60869,0.000*70,,,
$GPGGA,091601.60,3542.265543046,N,13943.255713393,E,5,07,2.61,23.410,M,36.994,M,4.6,7107*48
$PMSBATV,091601.60,2,2,0.20774,0.17295,-174.91536,0.070,-0.067,-0.000,52.60869,0.000*5D,,,
$GPGGA,091601.70,3542.265539491,N,13943.255716560,E,5,07,2.61,23.409,M,36.994,M,4.7,7107*4C
$PMSBATV,091601.70,2,2,0.28108,0.17411,-174.89532,0.056,-0.053,0.000,52.60869,0.000*70,,,
$GPGGA,091601.80,3542.265539767,N,13943.255715775,E,5,07,2.61,23.409,M,36.994,M,4.8,7107*43
$PMSBATV,091601.80,2,2,0.34386,0.18913,-174.88568,0.043,-0.041,-0.000,52.60869,0.000*52,,,
$GPGGA,091601.90,3542.265540403,N,13943.255714835,E,5,07,2.61,23.409,M,36.994,M,4.9,7107*46
$PMSBATV,091601.90,2,2,0.36315,0.18173,-174.88217,0.040,-0.038,0.000,52.60869,0.000*7A,,,
$GPGGA,091602.00,3542.265538874,N,13943.255716175,E,5,07,2.61,23.409,M,36.994,M,5.0,7107*48
$PMSBATV,091602.00,2,2,0.45508,0.20436,-174.86518,0.017,-0.016,-0.001,52.60869,0.000*55,,,
$GPGGA,091602.10,3542.265543113,N,13943.255711488,E,5,07,2.61,23.409,M,36.994,M,5.1,7107*4C
$PMSBATV,091602.10,2,2,0.44485,0.18069,-174.85291,0.016,-0.016,-0.001,52.60869,0.000*50,,,
$GPGGA,091602.20,3542.265542191,N,13943.255712075,E,5,07,2.61,23.409,M,36.994,M,5.2,7107*42
$PMSBATV,091602.20,2,2,0.52611,0.19197,-174.83561,-0.003,0.004,0.000,52.60869,0.000*7F,,,
$GPGGA,091602.30,3542.265546867,N,13943.255706988,E,5,07,2.61,23.409,M,36.994,M,5.3,7107*48
$PMSBATV,091602.30,2,2,0.52859,0.16623,-174.82951,-0.003,0.003,-0.000,52.60869,0.000*5F,,,
$GPGGA,091602.40,3542.265546959,N,13943.255706654,E,5,07,2.61,23.408,M,36.994,M,5.4,7107*4B
$PMSBATV,091602.40,2,2,0.47885,0.09190,-174.81623,0.012,-0.011,-0.000,52.60869,0.000*56,,,
$GPGGA,091602.50,3542.265543060,N,13943.255710048,E,5,07,2.61,23.407,M,36.994,M,5.5,7107*4E
$PMSBATV,091602.50,2,2,0.48822,0.06915,-174.77570,0.019,-0.018,0.001,52.60869,0.000*7D,,,
$GPGGA,091602.60,3542.265539456,N,13943.255712205,E,5,07,2.61,23.407,M,36.994,M,5.6,7107*4B
$PMSBATV,091602.60,2,2,0.54244,0.08051,-174.74375,0.015,-0.014,0.000,52.60869,0.000*7F,,,
$GPGGA,091602.70,3542.265538786,N,13943.255711656,E,5,07,2.61,23.407,M,36.994,M,5.7,7107*45
$PMSBATV,091602.70,2,2,0.54149,0.07451,-174.72034,0.017,-0.016,-0.000,52.60869,0.000*56,,,
$GPGGA,091602.80,3542.265536915,N,13943.255712547,E,5,07,2.61,23.407,M,36.994,M,5.8,7107*4F
$PMSBATV,091602.80,2,2,0.52803,0.07764,-174.70652,0.022,-0.021,0.000,52.60869,0.000*76,,,
$GPGGA,091602.90,3542.265534186,N,13943.255714569,E,5,07,2.61,23.408,M,36.994,M,5.9,7107*4A
$PMSBATV,091602.90,2,2,0.58288,0.11369,-174.69101,0.011,-0.010,-0.000,52.60869,0.000*5C,,,
$GPGGA,091603.00,3542.265535694,N,13943.255712395,E,5,08,1.96,23.408,M,36.994,M,6.0,7107*4A
$PMSBATV,091603.00,2,2,0.59910,0.12502,-174.67894,0.008,-0.007,-0.000,52.60869,0.000*52,,,
$GPGGA,091603.10,3542.265535579,N,13943.255711722,E,5,08,1.96,23.409,M,36.994,M,6.1,7107*40
$PMSBATV,091603.10,2,2,0.61118,0.12651,-174.66705,0.003,-0.002,-0.000,52.60869,0.000*55,,,
$GPGGA,091603.20,3542.265536343,N,13943.255710282,E,5,08,1.96,23.409,M,36.994,M,6.2,7107*42
$PMSBATV,091603.20,2,2,0.59442,0.10007,-174.65701,0.009,-0.008,0.000,52.60869,0.000*7A,,,
$GPGGA,091603.30,3542.265534326,N,13943.255711642,E,5,08,1.96,23.409,M,36.994,M,6.3,7107*4A
$PMSBATV,091603.30,2,2,0.61198,0.10008,-174.65412,0.005,-0.004,0.000,52.60869,0.000*7C,,,
$GPGGA,091603.40,3542.265535168,N,13943.255710421,E,5,08,1.96,23.409,M,36.994,M,6.4,7107*45
$PMSBATV,091603.40,2,2,0.55910,0.06811,-174.65353,0.016,-0.015,-0.000,52.60869,0.000*5E,,,
$GPGGA,091603.50,3542.265531774,N,13943.255713490,E,5,08,1.96,23.409,M,36.994,M,6.5,7107*43
$PMSBATV,091603.50,2,2,0.60612,0.08539,-174.64610,0.003,-0.003,-0.000,52.60869,0.000*5D,,,
$GPGGA,091603.60,3542.265534381,N,13943.255710464,E,5,08,1.96,23.409,M,36.994,M,6.6,7107*40
$PMSBATV,091603.60,2,2,0.62245,0.06883,-174.63675,0.001,-0.001,-0.000,52.60869,0.000*5C,,,
$GPGGA,091603.70,3542.265534990,N,13943.255709453,E,5,08,1.96,23.409,M,36.994,M,6.7,7107*46
$PMSBATV,091603.70,2,2,0.63721,0.08285,-174.63709,-0.007,0.007,-0.000,52.60869,0.000*53,,,
$GPGGA,091603.80,3542.265537225,N,13943.255706997,E,5,08,1.96,23.409,M,36.994,M,6.8,7107*4A
$PMSBATV,091603.80,2,2,0.63331,0.09491,-174.63616,-0.008,0.009,0.001,52.60869,0.000*79,,,
$GPGGA,091603.90,3542.265537996,N,13943.255705956,E,5,08,1.96,23.409,M,36.994,M,6.9,7107*47
$PMSBATV,091603.90,2,2,0.63247,0.09465,-174.63569,-0.007,0.007,0.000,52.60869,0.000*78,,,
$GPGGA,091604.00,3542.265538085,N,13943.255705647,E,5,08,1.96,23.409,M,36.994,M,7.0,7107*4A
$PMSBATV,091604.00,2,2,0.59131,0.07027,-174.63657,0.001,-0.001,-0.000,52.60869,0.000*52,,,
$GPGGA,091604.10,3542.265536071,N,13943.255707415,E,5,08,1.96,23.409,M,36.994,M,2.1,7107*4D
$PMSBATV,091604.10,2,2,0.54222,0.06611,-174.64110,0.014,-0.012,-0.000,52.60869,0.000*58,,,
$GPGGA,091604.20,3542.265532714,N,13943.255710556,E,5,08,1.96,23.409,M,36.994,M,2.2,7107*4D
$PMSBATV,091604.20,2,2,0.54680,0.09445,-174.65069,0.010,-0.009,0.000,52.60869,0.000*76,,,
$GPGGA,091604.30,3542.265532834,N,13943.255710412,E,5,08,1.96,23.409,M,36.994,M,2.3,7107*41
$PMSBATV,091604.30,2,2,0.54034,0.11125,-174.65650,0.010,-0.010,0.001,52.60869,0.000*71,,,
$GPGGA,091604.40,3542.265532174,N,13943.255711051,E,5,08,1.96,23.410,M,36.994,M,2.4,7107*46
$PMSBATV,091604.40,2,2,0.55271,0.14997,-174.66197,0.002,-0.002,-0.000,52.60869,0.000*53,,,
$GPGGA,091604.50,3542.265533832,N,13943.255709389,E,5,08,1.96,23.410,M,36.994,M,2.5,7107*43
$PMSBATV,091604.50,2,2,0.55562,0.16729,-174.66503,-0.002,0.002,0.000,52.60869,0.000*7A,,,
$GPGGA,091604.60,3542.265534684,N,13943.255708414,E,5,08,1.96,23.411,M,36.994,M,2.6,7107*44
$PMSBATV,091604.60,2,2,0.56673,0.17939,-174.66858,-0.005,0.005,-0.000,52.60869,0.000*59,,,
$GPGGA,091604.70,3542.265535501,N,13943.255707547,E,5,08,1.96,23.411,M,36.994,M,2.7,7107*43
$PMSBATV,091604.70,2,2,0.58299,0.20160,-174.67495,-0.011,0.011,0.000,52.60869,0.000*77,,,
$GPGGA,091604.80,3542.265537291,N,13943.255705749,E,5,08,1.96,23.411,M,36.994,M,2.8,7107*41
$PMSBATV,091604.80,2,2,0.53197,0.20525,-174.68262,-0.004,0.004,-0.000,52.60869,0.000*57,,,
$GPGGA,091604.90,3542.265535720,N,13943.255707414,E,5,08,1.96,23.411,M,36.994,M,2.9,7107*45
$PMSBATV,091604.90,2,2,0.54299,0.22225,-174.68292,-0.007,0.007,0.000,52.60869,0.000*7B,,,
$GPGGA,091605.00,3542.265536617,N,13943.255706358,E,5,08,1.96,23.412,M,36.994,M,3.0,7107*4E
$PMSBATV,091605.00,2,2,0.49786,0.20556,-174.69251,0.004,-0.003,-0.000,52.60869,0.000*51,,,
$GPGGA,091605.10,3542.265533712,N,13943.255709236,E,5,08,1.96,23.412,M,36.994,M,3.1,7107*49
$PMSBATV,091605.10,2,2,0.50364,0.23707,-174.69716,0.001,-0.001,0.000,52.60869,0.000*79,,,
$GPGGA,091605.20,3542.265534123,N,13943.255708810,E,5,08,1.96,23.412,M,36.994,M,3.2,7107*45
$PMSBATV,091605.20,2,2,0.51432,0.25218,-174.69572,-0.002,0.003,-0.000,52.60869,0.000*5E,,,
$GPGGA,091605.30,3542.265534765,N,13943.255707965,E,5,08,1.96,23.413,M,36.994,M,3.3,7107*4C
$PMSBATV,091605.30,2,2,0.51981,0.26618,-174.70229,-0.004,0.004,0.000,52.60869,0.000*70,,,
$GPGGA,091605.40,3542.265535017,N,13943.255707718,E,5,08,1.96,23.413,M,36.994,M,3.4,7107*4B
$PMSBATV,091605.40,2,2,0.57488,0.30070,-174.69440,-0.020,0.019,-0.000,52.60869,0.000*5C,,,
$GPGGA,091605.50,3542.265539351,N,13943.255703169,E,5,08,1.96,23.414,M,36.994,M,3.5,7107*45
$PMSBATV,091605.50,2,2,0.53214,0.27633,-174.69760,-0.009,0.008,0.000,52.60869,0.000*7A,,,
$GPGGA,091605.60,3542.265537024,N,13943.255705354,E,5,08,1.96,23.413,M,36.994,M,3.6,7107*47
$PMSBATV,091605.60,2,2,0.53867,0.26921,-174.69357,-0.010,0.010,0.000,52.60869,0.000*7B,,,
$GPGGA,091605.70,3542.265537712,N,13943.255704453,E,5,08,1.96,23.413,M,36.994,M,3.7,7107*44
$PMSBATV,091605.70,2,2,0.56018,0.28218,-174.69354,-0.016,0.016,-0.000,52.60869,0.000*5E,,,
$GPGGA,091605.80,3542.265539691,N,13943.255702307,E,5,08,1.96,23.413,M,36.994,M,3.8,7107*40
$PMSBATV,091605.80,2,2,0.53170,0.28362,-174.70280,-0.012,0.012,-0.000,52.60869,0.000*57,,,
$GPGGA,091605.90,3542.265538939,N,13943.255703084,E,5,08,1.96,23.413,M,36.994,M,3.9,7107*45
$PMSBATV,091605.90,2,2,0.51450,0.27476,-174.70861,-0.008,0.008,-0.000,52.60869,0.000*5B,,,
$GPGGA,091606.00,3542.265538485,N,13943.255703497,E,5,08,1.96,23.413,M,36.994,M,4.0,7107*4D
$PMSBATV,091606.00,2,2,0.47034,0.26010,-174.71374,0.003,-0.003,-0.000,52.60869,0.000*5B,,,
$GPGGA,091606.10,3542.265535528,N,13943.255706414,E,5,08,1.96,23.413,M,36.994,M,4.1,7107*48
$PMSBATV,091606.10,2,2,0.49772,0.28415,-174.72185,-0.007,0.007,0.000,52.60869,0.000*7C,,,
$GPGGA,091606.20,3542.265537863,N,13943.255704171,E,5,08,1.96,23.413,M,36.994,M,4.2,7107*4C
$PMSBATV,091606.20,2,2,0.50997,0.29421,-174.72844,-0.011,0.011,0.000,52.60869,0.000*70,,,
$GPGGA,091606.30,3542.265539204,N,13943.255702842,E,5,08,1.96,23.414,M,36.994,M,4.3,7107*41
$PMSBATV,091606.30,2,2,0.48525,0.27744,-174.72701,-0.005,0.004,-0.000,52.60869,0.000*51,,,
$GPGGA,091606.40,3542.265537748,N,13943.255704169,E,5,08,1.96,23.413,M,36.994,M,4.4,7107*43
$PMSBATV,091606.40,2,2,0.55599,0.32953,-174.73209,-0.026,0.026,0.000,52.60869,0.000*71,,,
$GPGGA,091606.50,3542.265543703,N,13943.255698259,E,5,08,1.96,23.414,M,36.994,M,4.5,7107*4C
$PMSBATV,091606.50,2,2,0.46911,0.27138,-174.73721,-0.002,0.002,-0.000,52.60869,0.000*5D,,,
$GPGGA,091606.60,3542.265538017,N,13943.255703863,E,5,08,1.95,23.413,M,36.994,M,4.6,7107*46
$PMSBATV,091606.60,2,2,0.43699,0.23551,-174.73701,0.008,-0.008,-0.000,52.60869,0.000*59,,,
$GPGGA,091606.70,3542.265535290,N,13943.255706394,E,5,08,1.95,23.413,M,36.994,M,4.7,7107*40
$PMSBATV,091606.70,2,2,0.46664,0.27357,-174.73835,-0.003,0.003,0.000,52.60869,0.000*7E,,,
$GPGGA,091606.80,3542.265537673,N,13943.255704053,E,5,08,1.95,23.413,M,36.994,M,4.8,7107*41
$PMSBATV,091606.80,2,2,0.41756,0.23576,-174.74357,0.013,-0.011,0.000,52.60869,0.000*7D,,,
$GPGGA,091606.90,3542.265533344,N,13943.255708294,E,5,08,1.95,23.413,M,36.994,M,4.9,7107*41
$PMSBATV,091606.90,2,2,0.42265,0.24223,-174.74193,0.015,-0.014,0.000,52.60869,0.000*73,,,
$GPGGA,091607.00,3542.265531732,N,13943.255709762,E,5,08,1.95,23.413,M,36.994,M,5.0,7107*4B
$PMSBATV,091607.00,2,2,0.45031,0.28978,-174.75166,0.005,-0.004,-0.000,52.60869,0.000*50,,,
$GPGGA,091607.10,3542.265533604,N,13943.255708040,E,5,08,1.95,23.414,M,36.994,M,5.1,7107*4C
$PMSBATV,091607.10,2,2,0.47585,0.31972,-174.75710,-0.004,0.005,-0.000,52.60869,0.000*5C,,,
$GPGGA,091607.20,3542.265535497,N,13943.255706223,E,5,08,1.95,23.414,M,36.994,M,5.2,7107*4B
$PMSBATV,091607.20,2,2,0.55296,0.39184,-174.76387,-0.027,0.026,0.000,52.60869,0.000*74,,,
$GPGGA,091607.30,3542.265541544,N,13943.255700274,E,5,08,1.95,23.415,M,36.994,M,5.3,7107*42
$PMSBATV,091607.30,2,2,0.54726,0.41145,-174.77468,-0.030,0.029,0.000,52.60869,0.000*76,,,
$GPGGA,091607.40,3542.265543425,N,13943.255698599,E,5,08,1.95,23.416,M,36.994,M,5.4,7107*41
$PMSBATV,091607.40,2,2,0.52331,0.41152,-174.79172,-0.030,0.028,-0.000,52.60869,0.000*5F,,,
$GPGGA,091607.50,3542.265544492,N,13943.255697808,E,5,08,1.95,23.416,M,36.994,M,5.5,7107*40
$PMSBATV,091607.50,2,2,0.45398,0.37986,-174.80038,-0.011,0.011,-0.000,52.60869,0.000*5B,,,
$GPGGA,091607.60,3542.265540555,N,13943.255701790,E,5,08,1.95,23.415,M,36.994,M,5.6,7107*4D
$PMSBATV,091607.60,2,2,0.40696,0.35099,-174.80908,0.002,-0.001,0.001,52.60869,0.000*76,,,
$GPGGA,091607.70,3542.265537306,N,13943.255705082,E,5,08,1.95,23.415,M,36.994,M,5.7,7107*4D
$PMSBATV,091607.70,2,2,0.39445,0.33160,-174.81158,0.004,-0.003,-0.001,52.60869,0.000*51,,,
$GPGGA,091607.80,3542.265536365,N,13943.255705946,E,5,08,1.95,23.415,M,36.994,M,5.8,7107*48
$PMSBATV,091607.80,2,2,0.42880,0.36762,-174.81522,-0.006,0.006,0.000,52.60869,0.000*74,,,
$GPGGA,091607.90,3542.265538620,N,13943.255703737,E,5,08,1.95,23.415,M,36.994,M,5.9,7107*4C
$PMSBATV,091607.90,2,2,0.38600,0.34901,-174.82890,0.004,-0.003,-0.000,52.60869,0.000*5A,,,
$GPGGA,091608.00,3542.265535872,N,13943.255706642,E,5,08,1.95,23.415,M,36.994,M,6.0,7107*42
$PMSBATV,091608.00,2,2,0.38611,0.35124,-174.83246,0.004,-0.004,-0.000,52.60869,0.000*55,,,
$GPGGA,091608.10,3542.265535440,N,13943.255707055,E,5,08,1.95,23.415,M,36.994,M,6.1,7107*4E
$PMSBATV,091608.10,2,2,0.41151,0.40299,-174.84155,-0.006,0.006,-0.001,52.60869,0.000*59,,,
$GPGGA,091608.20,3542.265537551,N,13943.255705162,E,5,09,1.83,23.416,M,36.994,M,1.2,7107*48
$PMSBATV,091608.20,2,2,0.45280,0.39353,-174.82006,-0.012,0.012,-0.000,52.60869,0.000*58,,,
$GPGGA,091608.30,3542.265539097,N,13943.255703133,E,5,08,1.95,23.416,M,36.994,M,1.3,7107*4D
$PMSBATV,091608.30,2,2,0.48312,0.43851,-174.81970,-0.022,0.021,-0.000,52.60869,0.000*52,,,
$GPGGA,091608.40,3542.265542111,N,13943.255700174,E,5,09,1.83,23.417,M,36.994,M,1.4,7107*49
$PMSBATV,091608.40,2,2,0.46041,0.39754,-174.80459,-0.012,0.011,0.000,52.60869,0.000*73,,,
$GPGGA,091608.50,3542.265539795,N,13943.255702062,E,5,08,1.95,23.417,M,36.994,M,1.5,7107*4D
$PMSBATV,091608.50,2,2,0.50589,0.41433,-174.79847,-0.023,0.022,-0.000,52.60869,0.000*53,,,
$GPGGA,091608.60,3542.265543141,N,13943.255698570,E,5,09,1.83,23.417,M,36.994,M,1.6,7107*4D
$PMSBATV,091608.60,2,2,0.49408,0.36065,-174.78018,-0.017,0.017,-0.001,52.60869,0.000*54,,,
$GPGGA,091608.70,3542.265542374,N,13943.255698842,E,5,08,1.95,23.416,M,36.994,M,1.7,7107*43
$PMSBATV,091608.70,2,2,0.45588,0.34210,-174.79044,-0.009,0.009,0.001,52.60869,0.000*77,,,
$GPGGA,091608.80,3542.265540727,N,13943.255700565,E,5,09,1.83,23.416,M,36.994,M,1.8,7107*4D
$PMSBATV,091608.80,2,2,0.44368,0.29384,-174.77511,0.001,-0.001,0.001,52.60869,0.000*7A,,,
$GPGGA,091608.90,3542.265538039,N,13943.255702717,E,5,08,1.95,23.415,M,36.994,M,1.9,7107*4A
$PMSBATV,091608.90,2,2,0.49154,0.32518,-174.77946,-0.014,0.014,-0.000,52.60869,0.000*50,,,
$GPGGA,091609.00,3542.265542043,N,13943.255698784,E,5,09,1.83,23.415,M,36.994,M,2.0,7107*46
$PMSBATV,091609.00,2,2,0.41449,0.26557,-174.77971,0.007,-0.006,-0.000,52.60869,0.000*52,,,
$GPGGA,091609.10,3542.265536655,N,13943.255704013,E,5,09,1.83,23.415,M,36.994,M,2.1,7107*49
$PMSBATV,091609.10,2,2,0.45509,0.26286,-174.76406,0.002,-0.001,0.000,52.60869,0.000*7A,,,
$GPGGA,091609.20,3542.265537549,N,13943.255702723,E,5,09,1.83,23.415,M,36.994,M,2.2,7107*44
$PMSBATV,091609.20,2,2,0.45460,0.26510,-174.75602,0.003,-0.003,-0.000,52.60869,0.000*54,,,
$GPGGA,091609.30,3542.265536628,N,13943.255703439,E,5,09,1.83,23.415,M,36.994,M,2.3,7107*48
$PMSBATV,091609.30,2,2,0.44216,0.25255,-174.75047,0.009,-0.008,0.001,52.60869,0.000*7C,,,
$GPGGA,091609.40,3542.265534765,N,13943.255705057,E,5,09,1.83,23.415,M,36.994,M,2.4,7107*48
$PMSBATV,091609.40,2,2,0.45849,0.25099,-174.74254,0.007,-0.006,0.001,52.60869,0.000*79,,,
$GPGGA,091609.50,3542.265534470,N,13943.255705061,E,5,09,1.83,23.415,M,36.994,M,2.5,7107*4A
$PMSBATV,091609.50,2,2,0.42045,0.22413,-174.74178,0.019,-0.018,0.000,52.60869,0.000*76,,,
$GPGGA,091609.60,3542.265530403,N,13943.255708941,E,5,09,1.83,23.414,M,36.994,M,2.6,7107*4D
$PMSBATV,091609.60,2,2,0.41107,0.22106,-174.73988,0.022,-0.021,-0.000,52.60869,0.000*5F,,,
$GPGGA,091609.70,3542.265528472,N,13943.255710676,E,5,09,1.83,23.414,M,36.994,M,2.7,7107*40
$PMSBATV,091609.70,2,2,0.51673,0.25796,-174.72352,-0.002,0.003,-0.000,52.60869,0.000*5D,,,
$GPGGA,091609.80,3542.265533800,N,13943.255704960,E,5,09,1.83,23.415,M,36.994,M,2.8,7107*4F
$PMSBATV,091609.80,2,2,0.55900,0.28972,-174.71668,-0.014,0.013,0.000,52.60869,0.000*70,,,
$GPGGA,091609.90,3542.265536705,N,13943.255701893,E,5,09,1.83,23.416,M,36.994,M,2.9,7107*4B
$PMSBATV,091609.90,2,2,0.56846,0.26570,-174.70651,-0.013,0.013,-0.000,52.60869,0.000*50,,,
$GPGGA,091610.00,3542.265537046,N,13943.255701147,E,5,09,1.83,23.415,M,36.994,M,3.0,7107*40
$PMSBATV,091610.00,2,2,0.53532,0.24120,-174.70338,-0.006,0.005,0.000,52.60869,0.000*7D,,,
$GPGGA,091610.10,3542.265535294,N,13943.255702707,E,5,09,1.83,23.415,M,36.994,M,3.1,7107*4E
$PMSBATV,091610.10,2,2,0.51529,0.21305,-174.69611,0.003,-0.002,0.000,52.60869,0.000*70,,,
$GPGGA,091610.20,3542.265533021,N,13943.255704670,E,5,09,1.83,23.415,M,36.994,M,3.2,7107*43
$PMSBATV,091610.20,2,2,0.53536,0.19455,-174.69052,-0.002,0.002,0.000,52.60869,0.000*76,,,
$GPGGA,091610.30,3542.265534104,N,13943.255703338,E,5,09,1.83,23.414,M,36.994,M,3.3,7107*4D
$PMSBATV,091610.30,2,2,0.49473,0.16331,-174.69183,0.007,-0.007,0.000,52.60869,0.000*7B,,,
$GPGGA,091610.40,3542.265531525,N,13943.255705702,E,5,09,1.83,23.414,M,36.994,M,3.4,7107*44
$PMSBATV,091610.40,2,2,0.50744,0.15904,-174.68986,0.005,-0.004,0.001,52.60869,0.000*70,,,
$GPGGA,091610.50,3542.265531644,N,13943.255705357,E,5,09,1.83,23.413,M,36.994,M,3.5,7107*43
$PMSBATV,091610.50,2,2,0.50203,0.13793,-174.68274,0.011,-0.011,-0.000,52.60869,0.000*5A,,,
$GPGGA,091610.60,3542.265529485,N,13943.255707162,E,5,09,1.83,23.413,M,36.994,M,3.6,7107*43
$PMSBATV,091610.60,2,2,0.52374,0.14046,-174.67485,0.007,-0.006,-0.001,52.60869,0.000*55,,,
$GPGGA,091610.70,3542.265530162,N,13943.255706205,E,5,09,1.83,23.413,M,36.994,M,3.7,7107*44
$PMSBATV,091610.70,2,2,0.54095,0.18514,-174.67853,-0.002,0.003,-0.000,52.60869,0.000*56,,,
$GPGGA,091610.80,3542.265531976,N,13943.255704323,E,5,09,1.83,23.414,M,36.994,M,3.8,7107*48
$PMSBATV,091610.80,2,2,0.54752,0.16685,-174.66593,0.002,-0.002,0.000,52.60869,0.000*7C,,,
$GPGGA,091610.90,3542.265530574,N,13943.255705259,E,5,09,1.83,23.414,M,36.994,M,3.9,7107*4A
$PMSBATV,091610.90,2,2,0.52039,0.14252,-174.66628,0.013,-0.013,-0.001,52.60869,0.000*52,,,
$GPGGA,091611.00,3542.265527346,N,13943.255708303,E,5,09,1.83,23.414,M,36.994,M,4.0,7107*4E
$PMSBATV,091611.00,2,2,0.58391,0.21489,-174.66940,-0.011,0.010,0.000,52.60869,0.000*7B,,,
$GPGGA,091611.10,3542.265533041,N,13943.255702685,E,5,09,1.83,23.415,M,36.994,M,4.1,7107*4F
$PMSBATV,091611.10,2,2,0.60020,0.22910,-174.66662,-0.014,0.014,0.000,52.60869,0.000*78,,,
$GPGGA,091611.20,3542.265534286,N,13943.255701220,E,5,09,1.83,23.415,M,36.994,M,4.2,7107*49
$PMSBATV,091611.20,2,2,0.61510,0.21907,-174.66216,-0.014,0.014,0.000,52.60869,0.000*7E,,,
$GPGGA,091611.30,3542.265534677,N,13943.255700578,E,5,09,1.83,23.415,M,36.994,M,4.3,7107*48
$PMSBATV,091611.30,2,2,0.59488,0.20586,-174.65992,-0.012,0.011,-0.001,52.60869,0.000*5B,,,
$GPGGA,091611.40,3542.265534494,N,13943.255700574,E,5,09,1.83,23.415,M,36.994,M,4.4,7107*4B
$PMSBATV,091611.40,2,2,0.60764,0.21712,-174.65884,-0.018,0.018,-0.001,52.60869,0.000*5C,,,
$GPGGA,091611.50,3542.265536775,N,13943.255698124,E,5,09,1.83,23.415,M,36.994,M,4.5,7107*44
$PMSBATV,091611.50,2,2,0.64469,0.24201,-174.65414,-0.028,0.027,0.001,52.60869,0.000*72,,,
$GPGGA,091611.60,3542.265540070,N,13943.255694650,E,5,09,1.83,23.415,M,36.994,M,4.6,7107*4F
$PMSBATV,091611.60,2,2,0.54962,0.18869,-174.66645,-0.001,0.001,-0.000,52.60869,0.000*59,,,
$GPGGA,091611.70,3542.265533905,N,13943.255700812,E,5,09,1.83,23.415,M,36.994,M,4.7,7107*44
$PMSBATV,091611.70,2,2,0.54221,0.18626,-174.67578,-0.004,0.004,-0.000,52.60869,0.000*5D,,,
$GPGGA,091611.80,3542.265534786,N,13943.255699942,E,5,09,1.83,23.414,M,36.994,M,4.8,7107*42
$PMSBATV,091611.80,2,2,0.54505,0.18387,-174.67872,-0.004,0.005,0.001,52.60869,0.000*77,,,
$GPGGA,091611.90,3542.265534841,N,13943.255699773,E,5,09,1.83,23.414,M,36.994,M,4.9,7107*4A
$PMSBATV,091611.90,2,2,0.60539,0.19093,-174.66799,-0.018,0.017,0.000,52.60869,0.000*7D,,,
$GPGGA,091612.00,3542.265538591,N,13943.255695659,E,5,09,1.83,23.414,M,36.994,M,5.0,7107*41
$PMSBATV,091612.00,2,2,0.60519,0.19729,-174.67488,-0.021,0.021,-0.000,52.60869,0.000*53,,,
$GPGGA,091612.10,3542.265540418,N,13943.255693886,E,5,09,1.83,23.414,M,36.994,M,5.1,7107*44
$PMSBATV,091612.10,2,2,0.55073,0.16741,-174.67858,-0.008,0.008,-0.000,52.60869,0.000*5D,,,
$GPGGA,091612.20,3542.265537670,N,13943.255696464,E,5,09,1.83,23.414,M,36.994,M,5.2,7107*4D
$PMSBATV,091612.20,2,2,0.62012,0.19387,-174.67002,-0.024,0.023,0.000,52.60869,0.000*71,,,
$GPGGA,091612.30,3542.265542334,N,13943.255691527,E,5,09,1.83,23.414,M,36.994,M,5.3,7107*4B
$PMSBATV,091612.30,2,2,0.54224,0.15472,-174.67463,-0.005,0.005,-0.000,52.60869,0.000*5A,,,
$GPGGA,091612.40,3542.265538295,N,13943.255695516,E,5,09,1.83,23.414,M,36.994,M,5.4,7107*4A
$PMSBATV,091612.40,2,2,0.47581,0.12868,-174.68193,0.010,-0.009,-0.000,52.60869,0.000*5A,,,
$GPGGA,091612.50,3542.265534185,N,13943.255699540,E,5,09,1.83,23.414,M,36.994,M,5.5,7107*4B
$PMSBATV,091612.50,2,2,0.45571,0.08481,-174.67298,0.021,-0.020,0.000,52.60869,0.000*75,,,
$GPGGA,091612.60,3542.265530708,N,13943.255702529,E,5,09,1.83,23.413,M,36.994,M,5.6,7107*47
$PMSBATV,091612.60,2,2,0.47382,0.09912,-174.67654,0.015,-0.015,0.000,52.60869,0.000*7D,,,
$GPGGA,091612.70,3542.265531048,N,13943.255702179,E,5,09,1.83,23.413,M,36.994,M,5.7,7107*44
$PMSBATV,091612.70,2,2,0.47595,0.10372,-174.67648,0.015,-0.014,0.000,52.60869,0.000*74,,,
$GPGGA,091612.80,3542.265530366,N,13943.255702677,E,5,09,1.83,23.413,M,36.994,M,5.8,7107*43
$PMSBATV,091612.80,2,2,0.50737,0.10637,-174.67383,0.009,-0.008,0.000,52.60869,0.000*71,,,
$GPGGA,091612.90,3542.265531172,N,13943.255701624,E,5,09,1.83,23.413,M,36.994,M,5.9,7107*40
$PMSBATV,091612.90,2,2,0.49138,0.10441,-174.67014,0.016,-0.015,0.001,52.60869,0.000*7C,,,
$GPGGA,091613.00,3542.265528487,N,13943.255704038,E,5,09,1.83,23.413,M,36.994,M,6.0,7107*4B
$PMSBATV,091613.00,2,2,0.50736,0.11951,-174.67116,0.016,-0.015,0.000,52.60869,0.000*7B,,,
$GPGGA,091613.10,3542.265527639,N,13943.255704742,E,5,09,1.83,23.414,M,36.994,M,6.1,7107*4E
$PMSBATV,091613.10,2,2,0.58586,0.16302,-174.66090,-0.004,0.004,-0.000,52.60869,0.000*50,,,
$GPGGA,091613.20,3542.265532159,N,13943.255699910,E,5,09,1.83,23.415,M,36.994,M,6.2,7107*46
$PMSBATV,091613.20,2,2,0.58073,0.20626,-174.67423,-0.009,0.009,0.000,52.60869,0.000*7A,,,
$GPGGA,091613.30,3542.265533600,N,13943.255698680,E,5,09,1.83,23.415,M,36.994,M,6.3,7107*4B
$PMSBATV,091613.30,2,2,0.62237,0.22824,-174.67115,-0.020,0.020,-0.000,52.60869,0.000*53,,,
$GPGGA,091613.40,3542.265536928,N,13943.255695157,E,5,09,1.83,23.416,M,36.994,M,6.4,7107*48
$PMSBATV,091613.40,2,2,0.68103,0.31192,-174.68057,-0.042,0.040,-0.000,52.60869,0.000*56,,,
$GPGGA,091613.50,3542.265543575,N,13943.255688777,E,5,09,1.83,23.417,M,36.994,M,6.5,7107*47
$PMSBATV,091613.50,2,2,0.68633,0.30075,-174.67672,-0.045,0.044,0.000,52.60869,0.000*7A,,,
$GPGGA,091613.60,3542.265546491,N,13943.255685685,E,5,09,1.83,23.417,M,36.994,M,6.6,7107*48
$PMSBATV,091613.60,2,2,0.62722,0.30458,-174.69117,-0.034,0.033,0.000,52.60869,0.000*75,,,
$GPGGA,091613.70,3542.265545358,N,13943.255686944,E,5,09,1.83,23.417,M,36.994,M,6.7,7107*48
$PMSBATV,091613.70,2,2,0.67813,0.30934,-174.68890,-0.048,0.046,-0.000,52.60869,0.000*58,,,
$GPGGA,091613.80,3542.265550804,N,13943.255681371,E,5,09,1.83,23.417,M,36.994,M,6.8,7107*45
$PMSBATV,091613.80,2,2,0.57435,0.27290,-174.70360,-0.024,0.023,0.000,52.60869,0.000*76,,,
$GPGGA,091613.90,3542.265546465,N,13943.255685984,E,5,09,1.83,23.416,M,36.994,M,6.9,7107*4C
$PMSBATV,091613.90,2,2,0.52797,0.28196,-174.72102,-0.018,0.018,0.000,52.60869,0.000*70,,,
$GPGGA,091614.00,3542.265545784,N,13943.255686831,E,5,09,1.83,23.417,M,36.994,M,7.0,7107*48
$PMSBATV,091614.00,2,2,0.47683,0.29302,-174.73675,-0.006,0.006,0.000,52.60869,0.000*76,,,
$GPGGA,091614.10,3542.265543093,N,13943.255689761,E,5,09,1.83,23.417,M,36.994,M,7.1,7107*4A
$PMSBATV,091614.10,2,2,0.46262,0.34283,-174.76949,-0.008,0.008,-0.000,52.60869,0.000*51,,,
$GPGGA,091614.20,3542.265543743,N,13943.255689716,E,5,09,1.83,23.418,M,36.994,M,7.2,7107*4F
$PMSBATV,091614.20,2,2,0.41842,0.38434,-174.78942,-0.006,0.005,0.001,52.60869,0.000*71,,,
$GPGGA,091614.30,3542.265543269,N,13943.255690635,E,5,09,1.83,23.419,M,36.994,M,7.3,7107*4B
$PMSBATV,091614.30,2,2,0.39036,0.42264,-174.80813,-0.002,0.001,0.000,52.60869,0.000*79,,,
$GPGGA,091614.40,3542.265541948,N,13943.255692300,E,5,09,1.83,23.420,M,36.994,M,7.4,7107*4A
$PMSBATV,091614.40,2,2,0.42460,0.45688,-174.81469,-0.008,0.007,0.000,52.60869,0.000*78,,,
$GPGGA,091614.50,3542.265543270,N,13943.255691188,E,5,09,1.83,23.421,M,36.994,M,7.5,7107*48
$PMSBATV,091614.50,2,2,0.36804,0.42322,-174.82381,0.005,-0.005,-0.001,52.60869,0.000*57,,,
$GPGGA,091614.60,3542.265539879,N,13943.255694635,E,5,09,1.83,23.420,M,36.994,M,7.6,7107*43
$PMSBATV,091614.60,2,2,0.35242,0.41935,-174.82130,0.006,-0.007,0.000,52.60869,0.000*75,,,
$GPGGA,091614.70,3542.265538705,N,13943.255695744,E,5,09,1.83,23.420,M,36.994,M,7.7,7107*40
$PMSBATV,091614.70,2,2,0.35722,0.41752,-174.83058,0.011,-0.010,0.000,52.60869,0.000*76,,,
$GPGGA,091614.80,3542.265536859,N,13943.255697622,E,5,09,1.83,23.421,M,36.994,M,7.8,7107*4A
$PMSBATV,091614.80,2,2,0.34335,0.38904,-174.82912,0.016,-0.016,-0.000,52.60869,0.000*53,,,
$GPGGA,091614.90,3542.265534330,N,13943.255700086,E,5,09,1.83,23.420,M,36.994,M,7.9,7107*4A
$PMSBATV,091614.90,2,2,0.35906,0.36486,-174.82229,0.015,-0.014,0.000,52.60869,0.000*7F,,,
$GPGGA,091615.00,3542.265533706,N,13943.255700379,E,5,09,1.83,23.420,M,36.994,M,8.0,7107*41
$PMSBATV,091615.00,2,2,0.35585,0.36523,-174.82792,0.018,-0.017,0.000,52.60869,0.000*75,,,
$GPGGA,091615.10,3542.265531641,N,13943.255702479,E,5,09,1.83,23.420,M,36.994,M,3.1,7107*4F
$PMSBATV,091615.10,2,2,0.41503,0.42269,-174.83400,-0.001,0.001,-0.000,52.60869,0.000*58,,,
$GPGGA,091615.20,3542.265535517,N,13943.255698776,E,5,09,1.83,23.421,M,36.994,M,3.2,7107*44
$PMSBATV,091615.20,2,2,0.44411,0.42703,-174.83301,-0.013,0.012,-0.000,52.60869,0.000*52,,,
$GPGGA,091615.30,3542.265538480,N,13943.255695781,E,5,09,1.83,23.421,M,36.994,M,3.3,7107*43
$PMSBATV,091615.30,2,2,0.45464,0.41429,-174.83267,-0.013,0.013,0.001,52.60869,0.000*74,,,
$GPGGA,091615.40,3542.265538966,N,13943.255695128,E,5,09,1.83,23.421,M,36.994,M,3.4,7107*43
$PMSBATV,091615.40,2,2,0.47808,0.39851,-174.82259,-0.016,0.015,-0.000,52.60869,0.000*58,,,
$GPGGA,091615.50,3542.265540080,N,13943.255693820,E,5,09,1.83,23.420,M,36.994,M,3.5,7107*4B
$PMSBATV,091615.50,2,2,0.47983,0.36959,-174.81097,-0.019,0.017,-0.000,52.60869,0.000*53,,,
$GPGGA,091615.60,3542.265541348,N,13943.255692271,E,5,09,1.83,23.420,M,36.994,M,3.6,7107*42
$PMSBATV,091615.60,2,2,0.43710,0.34813,-174.81373,-0.007,0.007,0.001,52.60869,0.000*76,,,
$GPGGA,091615.70,3542.265538815,N,13943.255694733,E,5,09,1.83,23.419,M,36.994,M,3.7,7107*40
$PMSBATV,091615.70,2,2,0.40452,0.35066,-174.82533,0.003,-0.003,0.000,52.60869,0.000*7A,,,
$GPGGA,091615.80,3542.265536146,N,13943.255697596,E,5,07,2.00,23.420,M,36.994,M,3.8,7107*43
$PMSBATV,091615.80,2,2,0.39719,0.37884,-174.83730,0.001,-0.001,-0.000,52.60869,0.000*5C,,,
$GPGGA,091615.90,3542.265536091,N,13943.255697882,E,5,07,2.00,23.420,M,36.994,M,3.9,7107*40
$PMSBATV,091615.90,2,2,0.41115,0.44496,-174.85099,-0.008,0.008,0.000,52.60869,0.000*7C,,,
$GPGGA,091616.00,3542.265537913,N,13943.255696366,E,5,07,2.00,23.422,M,36.994,M,4.0,7107*44
$PMSBATV,091616.00,2,2,0.40470,0.44611,-174.85973,-0.007,0.007,0.000,52.60869,0.000*71,,,
$GPGGA,091616.10,3542.265537763,N,13943.255696664,E,5,07,2.00,23.422,M,36.994,M,4.1,7107*4A
$PMSBATV,091616.10,2,2,0.40303,0.46995,-174.86964,-0.009,0.009,-0.000,52.60869,0.000*5A,,,
$GPGGA,091616.20,3542.265538212,N,13943.255696474,E,5,07,2.00,23.422,M,36.994,M,4.2,7107*45
$PMSBATV,091616.20,2,2,0.40560,0.48560,-174.87320,-0.013,0.012,-0.000,52.60869,0.000*58,,,
$GPGGA,091616.30,3542.265539241,N,13943.255695569,E,5,07,2.00,23.423,M,36.994,M,4.3,7107*4D
$PMSBATV,091616.30,2,2,0.44502,0.48678,-174.87207,-0.023,0.023,0.000,52.60869,0.000*7B,,,
$GPGGA,091616.40,3542.265542423,N,13943.255692376,E,5,07,2.00,23.422,M,36.994,M,4.4,7107*4D
$PMSBATV,091616.40,2,2,0.34651,0.43465,-174.88013,0.004,-0.003,-0.000,52.60869,0.000*59,,,
$GPGGA,091616.50,3542.265535765,N,13943.255699120,E,5,07,2.00,23.422,M,36.994,M,4.5,7107*46
$PMSBATV,091616.50,2,2,0.35313,0.44207,-174.88657,-0.001,0.001,-0.001,52.60869,0.000*5F,,,
$GPGGA,091616.60,3542.265536538,N,13943.255698436,E,5,07,2.00,23.422,M,36.994,M,4.6,7107*4C
$PMSBATV,091616.60,2,2,0.33382,0.43275,-174.89200,0.006,-0.005,0.000,52.60869,0.000*78,,,
$GPGGA,091616.70,3542.265534287,N,13943.255700754,E,5,07,2.00,23.422,M,36.994,M,4.7,7107*4A
$PMSBATV,091616.70,2,2,0.35474,0.43520,-174.89086,0.004,-0.004,0.001,52.60869,0.000*78,,,
$GPGGA,091616.80,3542.265534015,N,13943.255701032,E,5,07,2.00,23.422,M,36.994,M,4.8,7107*45
$PMSBATV,091616.80,2,2,0.37406,0.43497,-174.88886,-0.000,0.000,-0.000,52.60869,0.000*58,,,
$GPGGA,091616.90,3542.265534652,N,13943.255700296,E,5,07,2.00,23.422,M,36.994,M,4.9,7107*4D
$PMSBATV,091616.90,2,2,0.35415,0.42800,-174.89995,0.001,-0.001,-0.001,52.60869,0.000*59,,,
$GPGGA,091617.00,3542.265534021,N,13943.255701118,E,5,09,1.83,23.422,M,36.994,M,5.0,7107*4D
$PMSBATV,091617.00,2,2,0.35778,0.43967,-174.90197,0.002,-0.002,0.001,52.60869,0.000*77,,,
$GPGGA,091617.10,3542.265533454,N,13943.255701767,E,5,09,1.83,23.422,M,36.994,M,5.1,7107*42
$PMSBATV,091617.10,2,2,0.33233,0.41411,-174.90308,0.011,-0.010,0.000,52.60869,0.000*70,,,
$GPGGA,091617.20,3542.265530538,N,13943.255704638,E,5,09,1.83,23.422,M,36.994,M,5.2,7107*44
$PMSBATV,091617.20,2,2,0.36420,0.45286,-174.90457,-0.002,0.002,0.000,52.60869,0.000*72,,,
$GPGGA,091617.30,3542.265532992,N,13943.255702270,E,5,09,1.83,23.422,M,36.994,M,5.3,7107*44
$PMSBATV,091617.30,2,2,0.45627,0.48158,-174.89283,-0.023,0.023,0.000,52.60869,0.000*78,,,
$GPGGA,091617.40,3542.265538479,N,13943.255696540,E,5,09,1.83,23.423,M,36.994,M,5.4,7107*4F
$PMSBATV,091617.40,2,2,0.49547,0.52044,-174.89146,-0.034,0.033,-0.000,52.60869,0.000*51,,,
$GPGGA,091617.50,3542.265541770,N,13943.255693315,E,5,09,1.83,23.424,M,36.994,M,5.5,7107*4F
$PMSBATV,091617.50,2,2,0.51729,0.56108,-174.89320,-0.044,0.042,0.000,52.60869,0.000*70,,,
$GPGGA,091617.60,3542.265545491,N,13943.255689728,E,5,09,1.83,23.424,M,36.994,M,5.6,7107*46
$PMSBATV,091617.60,2,2,0.49831,0.51672,-174.88040,-0.037,0.036,0.000,52.60869,0.000*72,,,
$GPGGA,091617.70,3542.265545221,N,13943.255689659,E,5,09,1.83,23.423,M,36.994,M,5.7,7107*4B
$PMSBATV,091617.70,2,2,0.46536,0.48130,-174.87045,-0.025,0.024,0.000,52.60869,0.000*75,,,
$GPGGA,091617.80,3542.265543045,N,13943.255691538,E,5,09,1.83,23.423,M,36.994,M,5.8,7107*40
$PMSBATV,091617.80,2,2,0.45469,0.48592,-174.86069,-0.021,0.020,-0.000,52.60869,0.000*5C,,,
$GPGGA,091617.90,3542.265542546,N,13943.255691874,E,5,09,1.83,23.423,M,36.994,M,5.9,7107*42
$PMSBATV,091617.90,2,2,0.46800,0.47217,-174.84750,-0.023,0.021,-0.000,52.60869,0.000*54,,,
$GPGGA,091618.00,3542.265543546,N,13943.255690542,E,5,09,1.83,23.423,M,36.994,M,6.0,7107*46
$PMSBATV,091618.00,2,2,0.46271,0.46765,-174.84080,-0.020,0.019,0.000,52.60869,0.000*70,,,
$GPGGA,091618.10,3542.265543427,N,13943.255690501,E,5,09,1.83,23.423,M,36.994,M,6.1,7107*47
$PMSBATV,091618.10,2,2,0.52268,0.49517,-174.83458,-0.034,0.033,0.000,52.60869,0.000*7F,,,
$GPGGA,091618.20,3542.265547876,N,13943.255685915,E,5,07,2.00,23.424,M,36.994,M,6.2,7107*47
$PMSBATV,091618.20,2,2,0.49586,0.46297,-174.82876,-0.027,0.026,-0.000,52.60869,0.000*5B,,,
$GPGGA,091618.30,3542.265547222,N,13943.255686356,E,5,07,2.00,23.423,M,36.994,M,6.3,7107*45
$PMSBATV,091618.30,2,2,0.43731,0.42828,-174.82615,-0.012,0.011,-0.001,52.60869,0.000*5C,,,
$GPGGA,091618.40,3542.265543815,N,13943.255689619,E,5,07,2.00,23.423,M,36.994,M,6.4,7107*4E
$PMSBATV,091618.40,2,2,0.40350,0.39355,-174.82374,0.000,-0.000,0.000,52.60869,0.000*7B,,,
$GPGGA,091618.50,3542.265540657,N,13943.255692599,E,5,07,2.00,23.422,M,36.994,M,6.5,7107*45
$PMSBATV,091618.50,2,2,0.33115,0.36240,-174.83217,0.021,-0.020,-0.000,52.60869,0.000*5E,,,
$GPGGA,091618.60,3542.265534660,N,13943.255698609,E,5,07,2.00,23.422,M,36.994,M,6.6,7107*42
$PMSBATV,091618.60,2,2,0.36820,0.40124,-174.82698,0.011,-0.011,0.000,52.60869,0.000*79,,,
$GPGGA,091618.70,3542.265535550,N,13943.255697561,E,5,07,2.00,23.423,M,36.994,M,6.7,7107*40
$PMSBATV,091618.70,2,2,0.34828,0.39782,-174.82976,0.019,-0.018,0.000,52.60869,0.000*78,,,
$GPGGA,091618.80,3542.265532323,N,13943.255700760,E,5,07,2.00,23.423,M,36.994,M,6.8,7107*49
$PMSBATV,091618.80,2,2,0.40195,0.41444,-174.82203,0.006,-0.006,-0.000,52.60869,0.000*58,,,
$GPGGA,091618.90,3542.265534570,N,13943.255698301,E,5,07,2.00,23.423,M,36.994,M,6.9,7107*4C
$PMSBATV,091618.90,2,2,0.41716,0.41807,-174.81896,0.004,-0.004,0.000,52.60869,0.000*76,,,
$GPGGA,091619.00,3542.265534324,N,13943.255698400,E,5,07,2.00,23.423,M,36.994,M,7.0,7107*4D
$PMSBATV,091619.00,2,2,0.42152,0.41657,-174.82081,0.003,-0.003,-0.001,52.60869,0.000*51,,,
$GPGGA,091619.10,3542.265533804,N,13943.255698862,E,5,07,2.00,23.423,M,36.994,M,2.1,7107*4E
$PMSBATV,091619.10,2,2,0.43361,0.39942,-174.81416,0.000,-0.000,0.000,52.60869,0.000*72,,,
$GPGGA,091619.20,3542.265534018,N,13943.255698457,E,5,07,2.00,23.423,M,36.994,M,2.2,7107*46
$PMSBATV,091619.20,2,2,0.50040,0.43518,-174.81172,-0.017,0.017,-0.000,52.60869,0.000*57,,,
$GPGGA,091619.30,3542.265538431,N,13943.255693948,E,5,07,2.00,23.423,M,36.994,M,2.3,7107*4D
$PMSBATV,091619.30,2,2,0.47691,0.43439,-174.81488,-0.014,0.013,-0.001,52.60869,0.000*5E,,,
$GPGGA,091619.40,3542.265537812,N,13943.255694578,E,5,07,2.00,23.423,M,36.994,M,2.4,7107*47
$PMSBATV,091619.40,2,2,0.51411,0.44165,-174.80313,-0.022,0.021,-0.000,52.60869,0.000*5E,,,
$GPGGA,091619.50,3542.265540362,N,13943.255691731,E,5,07,2.00,23.423,M,36.994,M,2.5,7107*41
$PMSBATV,091619.50,2,2,0.50449,0.42403,-174.80239,-0.018,0.018,0.000,52.60869,0.000*77,,,
$GPGGA,091619.60,3542.265540049,N,13943.255691964,E,5,09,1.82,23.423,M,36.994,M,2.6,7107*42
$PMSBATV,091619.60,2,2,0.54173,0.42648,-174.79984,-0.030,0.029,0.000,52.60869,0.000*72,,,
$GPGGA,091619.70,3542.265543745,N,13943.255688154,E,5,09,1.82,23.423,M,36.994,M,2.7,7107*49
$PMSBATV,091619.70,2,2,0.48197,0.38482,-174.80149,-0.014,0.014,-0.000,52.60869,0.000*57,,,
$GPGGA,091619.80,3542.265540465,N,13943.255691324,E,5,09,1.82,23.422,M,36.994,M,2.8,7107*47
$PMSBATV,091619.80,2,2,0.48204,0.35647,-174.79763,-0.010,0.010,0.000,52.60869,0.000*72,,,
$GPGGA,091619.90,3542.265539939,N,13943.255691576,E,5,09,1.82,23.422,M,36.994,M,2.9,7107*4C
$PMSBATV,091619.90,2,2,0.47851,0.34998,-174.79379,-0.009,0.008,-0.000,52.60869,0.000*59,,,
$GPGGA,091620.00,3542.265539545,N,13943.255691845,E,5,09,1.82,23.422,M,36.994,M,3.0,7107*4D
$PMSBATV,091620.00,2,2,0.41055,0.33794,-174.80245,0.007,-0.006,-0.000,52.60869,0.000*5D,,,
$GPGGA,091620.10,3542.265535291,N,13943.255696160,E,5,09,1.82,23.422,M,36.994,M,3.1,7107*46
$PMSBATV,091620.10,2,2,0.40980,0.36906,-174.81195,0.006,-0.005,0.000,52.60869,0.000*7C,,,
$GPGGA,091620.20,3542.265534742,N,13943.255696806,E,5,09,1.82,23.422,M,36.994,M,3.2,7107*45
$PMSBATV,091620.20,2,2,0.45923,0.42179,-174.81420,-0.007,0.006,0.000,52.60869,0.000*79,,,
$GPGGA,091620.30,3542.265536960,N,13943.255694639,E,5,09,1.82,23.423,M,36.994,M,3.3,7107*48
$PMSBATV,091620.30,2,2,0.45689,0.42935,-174.81601,-0.006,0.006,-0.000,52.60869,0.000*5A,,,
$GPGGA,091620.40,3542.265536581,N,13943.255694986,E,5,09,1.82,23.424,M,36.994,M,3.4,7107*47
$PMSBATV,091620.40,2,2,0.47604,0.46221,-174.81436,-0.013,0.012,-0.001,52.60869,0.000*56,,,
$GPGGA,091620.50,3542.265537943,N,13943.255693576,E,5,09,1.82,23.424,M,36.994,M,3.5,7107*40
$PMSBATV,091620.50,2,2,0.41417,0.43949,-174.81821,0.004,-0.004,-0.001,52.60869,0.000*5A,,,
$GPGGA,091620.60,3542.265533087,N,13943.255698418,E,5,09,1.82,23.424,M,36.994,M,3.6,7107*47
$PMSBATV,091620.60,2,2,0.49314,0.50034,-174.81476,-0.016,0.016,0.000,52.60869,0.000*76,,,
$GPGGA,091620.70,3542.265537907,N,13943.255693614,E,5,09,1.82,23.425,M,36.994,M,3.7,7107*46
$PMSBATV,091620.70,2,2,0.39766,0.45498,-174.82176,0.012,-0.010,-0.000,52.60869,0.000*5E,,,
$GPGGA,091620.80,3542.265530496,N,13943.255700957,E,5,09,1.82,23.425,M,36.994,M,3.8,7107*47
$PMSBATV,091620.80,2,2,0.42061,0.48350,-174.81867,0.004,-0.005,-0.000,52.60869,0.000*5A,,,
$GPGGA,091620.90,3542.265531048,N,13943.255700328,E,5,09,1.82,23.425,M,36.994,M,3.9,7107*43
$PMSBATV,091620.90,2,2,0.47920,0.51959,-174.80795,-0.007,0.007,0.000,52.60869,0.000*76,,,
$GPGGA,091621.00,3542.265533039,N,13943.255698101,E,5,09,1.82,23.426,M,36.994,M,4.0,7107*4B
$PMSBATV,091621.00,2,2,0.53344,0.57420,-174.80807,-0.023,0.021,-0.000,52.60869,0.000*5D,,,
$GPGGA,091621.10,3542.265536796,N,13943.255694400,E,5,09,1.82,23.427,M,36.994,M,4.1,7107*45
$PMSBATV,091621.10,2,2,0.51667,0.60252,-174.81501,-0.023,0.022,0.000,52.60869,0.000*79,,,
$GPGGA,091621.20,3542.265537166,N,13943.255694145,E,5,07,2.00,23.428,M,36.994,M,4.2,7107*41
$PMSBATV,091621.20,2,2,0.57754,0.68255,-174.82481,-0.044,0.042,0.000,52.60869,0.000*7F,,,
$GPGGA,091621.30,3542.265543161,N,13943.255688436,E,5,07,2.00,23.429,M,36.994,M,4.3,7107*48
$PMSBATV,091621.30,2,2,0.53110,0.67888,-174.83142,-0.034,0.033,0.000,52.60869,0.000*73,,,
$GPGGA,091621.40,3542.265541786,N,13943.255690003,E,5,07,2.00,23.429,M,36.994,M,4.4,7107*4E
$PMSBATV,091621.40,2,2,0.50465,0.64829,-174.82269,-0.027,0.026,-0.000,52.60869,0.000*58,,,
$GPGGA,091621.50,3542.265540735,N,13943.255690817,E,5,07,2.00,23.429,M,36.994,M,4.5,7107*4A
$PMSBATV,091621.50,2,2,0.48651,0.62143,-174.82395,-0.021,0.020,-0.000,52.60869,0.000*54,,,
$GPGGA,091621.60,3542.265539646,N,13943.255691811,E,5,07,2.00,23.429,M,36.994,M,4.6,7107*46
$PMSBATV,091621.60,2,2,0.49712,0.59324,-174.82256,-0.023,0.022,0.000,52.60869,0.000*78,,,
$GPGGA,091621.70,3542.265540617,N,13943.255690734,E,5,09,1.82,23.428,M,36.994,M,4.7,7107*43
$PMSBATV,091621.70,2,2,0.40598,0.51558,-174.82690,0.001,-0.001,-0.000,52.60869,0.000*57,,,
$GPGGA,091621.80,3542.265534640,N,13943.255696614,E,5,07,2.00,23.427,M,36.994,M,4.8,7107*4F
$PMSBATV,091621.80,2,2,0.41295,0.46415,-174.82143,0.001,-0.001,0.000,52.60869,0.000*79,,,
$GPGGA,091621.90,3542.265534301,N,13943.255696701,E,5,09,1.82,23.426,M,36.994,M,4.9,7107*4C
$PMSBATV,091621.90,2,2,0.39940,0.42024,-174.82769,0.008,-0.007,0.000,52.60869,0.000*77,,,
$GPGGA,091622.00,3542.265531951,N,13943.255698969,E,5,09,1.82,23.425,M,36.994,M,5.0,7107*49
$PMSBATV,091622.00,2,2,0.44373,0.41003,-174.82611,-0.003,0.004,-0.000,52.60869,0.000*50,,,
$GPGGA,091622.10,3542.265534397,N,13943.255696406,E,5,09,1.82,23.425,M,36.994,M,5.1,7107*46
$PMSBATV,091622.10,2,2,0.43160,0.37218,-174.82478,-0.002,0.002,0.000,52.60869,0.000*78,,,
$GPGGA,091622.20,3542.265533882,N,13943.255696689,E,5,09,1.82,23.424,M,36.994,M,5.2,7107*4A
$PMSBATV,091622.20,2,2,0.42497,0.33574,-174.82310,0.002,-0.002,-0.000,52.60869,0.000*5A,,,
$GPGGA,091622.30,3542.265532640,N,13943.255697763,E,5,09,1.82,23.423,M,36.994,M,5.3,7107*48
$PMSBATV,091622.30,2,2,0.45711,0.31654,-174.82404,-0.006,0.006,-0.000,52.60869,0.000*50,,,
$GPGGA,091622.40,3542.265534674,N,13943.255695603,E,5,09,1.82,23.423,M,36.994,M,5.4,7107*4C
$PMSBATV,091622.40,2,2,0.52654,0.32745,-174.81362,-0.027,0.026,-0.000,52.60869,0.000*56,,,
$GPGGA,091622.50,3542.265540371,N,13943.255689676,E,5,09,1.82,23.422,M,36.994,M,5.5,7107*41
$PMSBATV,091622.50,2,2,0.47468,0.28421,-174.81979,-0.012,0.012,0.000,52.60869,0.000*78,,,
$GPGGA,091622.60,3542.265537747,N,13943.255692272,E,5,09,1.82,23.422,M,36.994,M,5.6,7107*4A
$PMSBATV,091622.60,2,2,0.55595,0.32521,-174.82279,-0.036,0.035,0.000,52.60869,0.000*7A,,,
$GPGGA,091622.70,3542.265544908,N,13943.255685209,E,5,09,1.82,23.422,M,36.994,M,5.7,7107*41
$PMSBATV,091622.70,2,2,0.54523,0.30765,-174.82848,-0.040,0.038,-0.001,52.60869,0.000*5F,,,
$GPGGA,091622.80,3542.265547704,N,13943.255682495,E,5,09,1.82,23.422,M,36.994,M,5.8,7107*44
$PMSBATV,091622.80,2,2,0.48168,0.28243,-174.83568,-0.028,0.026,0.000,52.60869,0.000*7D,,,
$GPGGA,091622.90,3542.265546344,N,13943.255683959,E,5,09,1.82,23.421,M,36.994,M,5.9,7107*4A
$PMSBATV,091622.90,2,2,0.43478,0.24876,-174.84986,-0.013,0.014,0.001,52.60869,0.000*70,,,
$GPGGA,091623.00,3542.265543938,N,13943.255686488,E,5,09,1.82,23.421,M,36.994,M,6.0,7107*48
$PMSBATV,091623.00,2,2,0.35988,0.21995,-174.86494,0.004,-0.004,-0.000,52.60869,0.000*55,,,
$GPGGA,091623.10,3542.265539790,N,13943.255690857,E,5,09,1.82,23.420,M,36.994,M,6.1,7107*41
$PMSBATV,091623.10,2,2,0.36163,0.22926,-174.87122,0.003,-0.002,0.000,52.60869,0.000*74,,,
$GPGGA,091623.20,3542.265540044,N,13943.255690695,E,5,09,1.82,23.420,M,36.994,M,6.2,7107*41
$PMSBATV,091623.20,2,2,0.36952,0.28402,-174.88570,-0.003,0.003,0.000,52.60869,0.000*71,,,
$GPGGA,091623.30,3542.265541119,N,13943.255689948,E,5,09,1.82,23.421,M,36.994,M,6.3,7107*4F
$PMSBATV,091623.30,2,2,0.34680,0.27476,-174.88309,0.005,-0.005,-0.001,52.60869,0.000*5A,,,
$GPGGA,091623.40,3542.265539089,N,13943.255691888,E,5,09,1.82,23.421,M,36.994,M,6.4,7107*4C
$PMSBATV,091623.40,2,2,0.31174,0.25081,-174.88212,0.014,-0.014,-0.001,52.60869,0.000*51,,,
$GPGGA,091623.50,3542.265536134,N,13943.255694742,E,5,09,1.82,23.421,M,36.994,M,6.5,7107*48
$PMSBATV,091623.50,2,2,0.36239,0.29617,-174.88934,-0.001,0.001,0.001,52.60869,0.000*7A,,,
$GPGGA,091623.60,3542.265539447,N,13943.255691591,E,5,09,1.82,23.422,M,36.994,M,6.6,7107*4C
$PMSBATV,091623.60,2,2,0.34600,0.31852,-174.90256,0.003,-0.003,0.000,52.60869,0.000*74,,,
$GPGGA,091623.70,3542.265538345,N,13943.255693013,E,5,09,1.82,23.422,M,36.994,M,6.7,7107*45
$PMSBATV,091623.70,2,2,0.38332,0.33864,-174.90102,-0.007,0.007,-0.000,52.60869,0.000*55,,,
$GPGGA,091623.80,3542.265540846,N,13943.255690477,E,5,09,1.82,23.423,M,36.994,M,6.8,7107*46
$PMSBATV,091623.80,2,2,0.45177,0.35386,-174.88861,-0.025,0.024,0.000,52.60869,0.000*7B,,,
$GPGGA,091623.90,3542.265546135,N,13943.255684950,E,5,09,1.82,23.422,M,36.994,M,6.9,7107*41
$PMSBATV,091623.90,2,2,0.36815,0.31943,-174.89925,-0.002,0.002,0.001,52.60869,0.000*74,,,
$GPGGA,091624.00,3542.265540838,N,13943.255690374,E,5,09,1.82,23.422,M,36.994,M,7.0,7107*4C
$PMSBATV,091624.00,2,2,0.38414,0.33212,-174.89394,-0.005,0.005,-0.000,52.60869,0.000*58,,,
$GPGGA,091624.10,3542.265541472,N,13943.255689640,E,5,09,1.82,23.422,M,36.994,M,2.1,7107*40
$PMSBATV,091624.10,2,2,0.41382,0.37019,-174.90445,-0.017,0.016,-0.000,52.60869,0.000*50,,,
$GPGGA,091624.20,3542.265544852,N,13943.255686483,E,5,09,1.82,23.423,M,36.994,M,2.2,7107*48
$PMSBATV,091624.20,2,2,0.43653,0.40873,-174.90638,-0.025,0.023,0.000,52.60869,0.000*7E,,,
$GPGGA,091624.30,3542.265547555,N,13943.255683920,E,5,09,1.82,23.424,M,36.994,M,2.3,7107*47
$PMSBATV,091624.30,2,2,0.32015,0.38323,-174.91851,0.004,-0.004,-0.000,52.60869,0.000*57,,,
$GPGGA,091624.40,3542.265540664,N,13943.255691131,E,5,09,1.82,23.424,M,36.994,M,2.4,7107*4A
$PMSBATV,091624.40,2,2,0.30412,0.36604,-174.92085,0.010,-0.010,-0.000,52.60869,0.000*5D,,,
$GPGGA,091624.50,3542.265538502,N,13943.255693296,E,5,09,1.82,23.423,M,36.994,M,2.5,7107*4D
$PMSBATV,091624.50,2,2,0.32015,0.39871,-174.92619,0.005,-0.005,-0.000,52.60869,0.000*5D,,,
$GPGGA,091624.60,3542.265539095,N,13943.255692855,E,5,09,1.82,23.424,M,36.994,M,2.6,7107*44
$PMSBATV,091624.60,2,2,0.31511,0.40969,-174.93685,0.005,-0.005,0.000,52.60869,0.000*73,,,
$GPGGA,091624.70,3542.265538509,N,13943.255693655,E,5,09,1.82,23.424,M,36.994,M,2.7,7107*4A
$PMSBATV,091624.70,2,2,0.33463,0.42411,-174.93721,-0.000,-0.000,0.000,52.60869,0.000*56,,,
$GPGGA,091624.80,3542.265539368,N,13943.255692825,E,5,09,1.82,23.425,M,36.994,M,2.8,7107*43
$PMSBATV,091624.80,2,2,0.36875,0.43003,-174.93738,-0.009,0.009,-0.000,52.60869,0.000*59,,,
$GPGGA,091624.90,3542.265541807,N,13943.255690348,E,5,09,1.82,23.425,M,36.994,M,2.9,7107*4C
$PMSBATV,091624.90,2,2,0.40920,0.48312,-174.94268,-0.024,0.022,0.000,52.60869,0.000*7C,,,
$GPGGA,091625.00,3542.265545763,N,13943.255686634,E,5,09,1.82,23.425,M,36.994,M,3.0,7107*4C
$PMSBATV,091625.00,2,2,0.47849,0.53693,-174.93920,-0.043,0.041,-0.000,52.60869,0.000*52,,,
$GPGGA,091625.10,3542.265551941,N,13943.255680482,E,5,09,1.82,23.426,M,36.994,M,3.1,7107*4D
$PMSBATV,091625.10,2,2,0.48776,0.55515,-174.94270,-0.049,0.047,0.000,52.60869,0.000*7C,,,
$GPGGA,091625.20,3542.265555448,N,13943.255677177,E,5,09,1.82,23.427,M,36.994,M,3.2,7107*4B
$PMSBATV,091625.20,2,2,0.43892,0.52115,-174.94700,-0.037,0.036,0.000,52.60869,0.000*7F,,,
$GPGGA,091625.30,3542.265554309,N,13943.255678385,E,5,09,1.82,23.426,M,36.994,M,3.3,7107*49
$PMSBATV,091625.30,2,2,0.37599,0.50781,-174.95967,-0.024,0.023,-0.000,52.60869,0.000*57,,,
$GPGGA,091625.40,3542.265552226,N,13943.255680773,E,5,09,1.82,23.426,M,36.994,M,3.4,7107*49
$PMSBATV,091625.40,2,2,0.35201,0.48738,-174.96537,-0.017,0.016,-0.000,52.60869,0.000*53,,,
$GPGGA,091625.50,3542.265551172,N,13943.255681937,E,5,09,1.82,23.426,M,36.994,M,3.5,7107*47
$PMSBATV,091625.50,2,2,0.33570,0.51269,-174.97262,-0.016,0.015,-0.000,52.60869,0.000*58,,,
$GPGGA,091625.60,3542.265551325,N,13943.255682020,E,5,09,1.82,23.426,M,36.994,M,3.6,7107*4B
$PMSBATV,091625.60,2,2,0.24583,0.48389,-174.99137,0.009,-0.008,0.001,52.60869,0.000*75,,,
$GPGGA,091625.70,3542.265545089,N,13943.255688654,E,5,09,1.82,23.426,M,36.994,M,3.7,7107*44
$PMSBATV,091625.70,2,2,0.31276,0.54703,-174.99295,-0.011,0.010,0.001,52.60869,0.000*7D,,,
$GPGGA,091625.80,3542.265549413,N,13943.255684491,E,5,09,1.82,23.427,M,36.994,M,3.8,7107*49
$PMSBATV,091625.80,2,2,0.29798,0.56119,-174.99863,-0.007,0.007,-0.000,52.60869,0.000*5F,,,
$GPGGA,091625.90,3542.265548690,N,13943.255685411,E,5,09,1.82,23.428,M,36.994,M,3.9,7107*47
$PMSBATV,091625.90,2,2,0.27413,0.56078,-175.00551,-0.002,0.001,0.000,52.60869,0.000*75,,,
$GPGGA,091626.00,3542.265547074,N,13943.255687217,E,5,09,1.82,23.428,M,36.994,M,4.0,7107*42
$PMSBATV,091626.00,2,2,0.28508,0.58656,-175.00786,-0.004,0.003,0.000,52.60869,0.000*73,,,
$GPGGA,091626.10,3542.265547193,N,13943.255687285,E,5,09,1.82,23.429,M,36.994,M,4.1,7107*40
$PMSBATV,091626.10,2,2,0.36932,0.63977,-174.99774,-0.025,0.024,0.000,52.60869,0.000*76,,,
$GPGGA,091626.20,3542.265552741,N,13943.255681623,E,5,09,1.82,23.429,M,36.994,M,4.2,7107*43
$PMSBATV,091626.20,2,2,0.25562,0.56829,-174.99808,0.006,-0.006,-0.000,52.60869,0.000*5A,,,
$GPGGA,091626.30,3542.265544685,N,13943.255689652,E,5,09,1.82,23.429,M,36.994,M,4.3,7107*43
$PMSBATV,091626.30,2,2,0.29168,0.57494,-174.98941,0.001,-0.002,0.000,52.60869,0.000*71,,,
$GPGGA,091626.40,3542.265545256,N,13943.255689007,E,5,09,1.82,23.429,M,36.994,M,4.4,7107*4E
$PMSBATV,091626.40,2,2,0.33259,0.59612,-174.98353,-0.007,0.007,0.000,52.60869,0.000*74,,,
$GPGGA,091626.50,3542.265547005,N,13943.255687210,E,5,09,1.82,23.429,M,36.994,M,4.5,7107*42
$PMSBATV,091626.50,2,2,0.27085,0.57042,-174.98718,0.009,-0.009,0.000,52.60869,0.000*75,,,
$GPGGA,091626.60,3542.265542150,N,13943.255692185,E,5,09,1.82,23.429,M,36.994,M,4.6,7107*4D
$PMSBATV,091626.60,2,2,0.37036,0.63282,-174.97962,-0.017,0.016,-0.000,52.60869,0.000*56,,,
$GPGGA,091626.70,3542.265548206,N,13943.255686055,E,5,09,1.82,23.430,M,36.994,M,4.7,7107*46
$PMSBATV,091626.70,2,2,0.40955,0.68811,-174.98012,-0.030,0.028,-0.001,52.60869,0.000*58,,,
$GPGGA,091626.80,3542.265551803,N,13943.255682603,E,5,09,1.82,23.431,M,36.994,M,4.8,7107*41
$PMSBATV,091626.80,2,2,0.37232,0.70244,-174.98970,-0.026,0.024,0.000,52.60869,0.000*74,,,
$GPGGA,091626.90,3542.265551405,N,13943.255683373,E,5,09,1.82,23.431,M,36.994,M,4.9,7107*48
$PMSBATV,091626.90,2,2,0.35487,0.69972,-174.99473,-0.022,0.021,0.000,52.60869,0.000*77,,,
$GPGGA,091627.00,3542.265551028,N,13943.255683911,E,5,09,1.82,23.432,M,36.994,M,5.0,7107*4E
$PMSBATV,091627.00,2,2,0.37648,0.74162,-174.99811,-0.030,0.028,-0.000,52.60869,0.000*56,,,
$GPGGA,091627.10,3542.265553448,N,13943.255681730,E,5,09,1.82,23.432,M,36.994,M,5.1,7107*41
$PMSBATV,091627.10,2,2,0.41119,0.74158,-174.99400,-0.038,0.037,-0.000,52.60869,0.000*56,,,
$GPGGA,091627.20,3542.265556641,N,13943.255678529,E,5,09,1.82,23.432,M,36.994,M,5.2,7107*43
$PMSBATV,091627.20,2,2,0.33345,0.70142,-175.00232,-0.017,0.017,0.000,52.60869,0.000*70,,,
$GPGGA,091627.30,3542.265552067,N,13943.255683275,E,5,09,1.82,23.432,M,36.994,M,5.3,7107*4F
$PMSBATV,091627.30,2,2,0.23177,0.61742,-175.00282,0.015,-0.015,0.000,52.60869,0.000*7E,,,
$GPGGA,091627.40,3542.265543171,N,13943.255692195,E,5,09,1.82,23.431,M,36.994,M,5.4,7107*47
$PMSBATV,091627.40,2,2,0.16397,0.59915,-175.00802,0.035,-0.034,0.000,52.60869,0.000*77,,,
$GPGGA,091627.50,3542.265536066,N,13943.255699457,E,5,09,1.82,23.431,M,36.994,M,5.5,7107*42
$PMSBATV,091627.50,2,2,0.22045,0.62923,-175.00704,0.023,-0.022,-0.000,52.60869,0.000*54,,,
$GPGGA,091627.60,3542.265536847,N,13943.255698756,E,5,09,1.82,23.431,M,36.994,M,5.6,7107*4A
$PMSBATV,091627.60,2,2,0.21311,0.62594,-175.00272,0.030,-0.029,0.000,52.60869,0.000*76,,,
$GPGGA,091627.70,3542.265532769,N,13943.255702816,E,5,09,1.82,23.432,M,36.994,M,5.7,7107*47
$PMSBATV,091627.70,2,2,0.22965,0.65386,-175.00562,0.026,-0.025,-0.000,52.60869,0.000*5F,,,
$GPGGA,091627.80,3542.265531413,N,13943.255704303,E,5,09,1.82,23.432,M,36.994,M,5.8,7107*43
$PMSBATV,091627.80,2,2,0.31442,0.70396,-174.99479,0.006,-0.006,0.000,52.60869,0.000*7B,,,
$GPGGA,091627.90,3542.265534483,N,13943.255701097,E,5,09,1.82,23.433,M,36.994,M,5.9,7107*45
$PMSBATV,091627.90,2,2,0.32580,0.68247,-174.98589,0.007,-0.007,0.000,52.60869,0.000*7D,,,
$GPGGA,091628.00,3542.265532923,N,13943.255702492,E,5,09,1.82,23.433,M,36.994,M,6.0,7107*4A
$PMSBATV,091628.00,2,2,0.44013,0.70520,-174.96607,-0.021,0.020,0.000,52.60869,0.000*70,,,
$GPGGA,091628.10,3542.265539477,N,13943.255695568,E,5,09,1.82,23.433,M,36.994,M,6.1,7107*46
$PMSBATV,091628.10,2,2,0.54454,0.74095,-174.95585,-0.049,0.047,0.000,52.60869,0.000*7D,,,
$GPGGA,091628.20,3542.265547646,N,13943.255687225,E,5,09,1.82,23.433,M,36.994,M,6.2,7107*42
$PMSBATV,091628.20,2,2,0.57996,0.73878,-174.94901,-0.061,0.058,0.000,52.60869,0.000*77,,,
$GPGGA,091628.30,3542.265552514,N,13943.255682245,E,5,09,1.82,23.433,M,36.994,M,6.3,7107*41
$PMSBATV,091628.30,2,2,0.53038,0.69146,-174.94418,-0.049,0.047,-0.000,52.60869,0.000*5C,,,
$GPGGA,091628.40,3542.265551626,N,13943.255683104,E,5,09,1.82,23.432,M,36.994,M,6.4,7107*46
$PMSBATV,091628.40,2,2,0.53756,0.68099,-174.93516,-0.051,0.049,0.000,52.60869,0.000*74,,,
$GPGGA,091628.50,3542.265553965,N,13943.255680619,E,5,09,1.82,23.432,M,36.994,M,6.5,7107*44
$PMSBATV,091628.50,2,2,0.57104,0.68902,-174.93079,-0.060,0.058,0.000,52.60869,0.000*75,,,
$GPGGA,091628.60,3542.265558374,N,13943.255676141,E,5,09,1.82,23.432,M,36.994,M,6.6,7107*46
$PMSBATV,091628.60,2,2,0.53003,0.62790,-174.92781,-0.050,0.047,-0.000,52.60869,0.000*5A,,,
$GPGGA,091628.70,3542.265557849,N,13943.255676596,E,5,09,1.82,23.431,M,36.994,M,6.7,7107*41
$PMSBATV,091628.70,2,2,0.47911,0.58205,-174.92380,-0.036,0.034,-0.000,52.60869,0.000*55,,,
$GPGGA,091628.80,3542.265555921,N,13943.255678407,E,5,09,1.82,23.430,M,36.994,M,6.8,7107*4A
$PMSBATV,091628.80,2,2,0.37474,0.51020,-174.92043,-0.006,0.006,-0.000,52.60869,0.000*51,,,
$GPGGA,091628.90,3542.265548941,N,13943.255685330,E,5,09,1.82,23.429,M,36.994,M,6.9,7107*49
$PMSBATV,091628.90,2,2,0.32169,0.44909,-174.90826,0.014,-0.014,-0.000,52.60869,0.000*53,,,
$GPGGA,091629.00,3542.265543002,N,13943.255690884,E,5,09,1.82,23.428,M,36.994,M,7.0,7107*4D
$PMSBATV,091629.00,2,2,0.28581,0.41720,-174.90240,0.029,-0.028,0.000,52.60869,0.000*74,,,
$GPGGA,091629.10,3542.265537565,N,13943.255696146,E,5,09,1.82,23.428,M,36.994,M,2.1,7107*4E
$PMSBATV,091629.10,2,2,0.37283,0.43427,-174.88800,0.012,-0.011,0.000,52.60869,0.000*7D,,,
$GPGGA,091629.20,3542.265540360,N,13943.255692935,E,5,09,1.82,23.428,M,36.994,M,2.2,7107*45
$PMSBATV,091629.20,2,2,0.36009,0.42044,-174.88669,0.016,-0.015,-0.000,52.60869,0.000*53,,,
$GPGGA,091629.30,3542.265538207,N,13943.255694993,E,5,09,1.82,23.428,M,36.994,M,2.3,7107*40
$PMSBATV,091629.30,2,2,0.34812,0.41585,-174.88725,0.018,-0.018,0.000,52.60869,0.000*7E,,,
$GPGGA,091629.40,3542.265536067,N,13943.255697158,E,5,09,1.82,23.428,M,36.994,M,2.4,7107*46
$PMSBATV,091629.40,2,2,0.41764,0.41876,-174.87837,0.002,-0.002,0.000,52.60869,0.000*77,,,
$GPGGA,091629.50,3542.265539326,N,13943.255693642,E,5,09,1.82,23.428,M,36.994,M,2.5,7107*47
$PMSBATV,091629.50,2,2,0.41774,0.39843,-174.87462,0.003,-0.003,-0.000,52.60869,0.000*5F,,,
$GPGGA,091629.60,3542.265538694,N,13943.255694096,E,5,09,1.82,23.427,M,36.994,M,2.6,7107*4D
$PMSBATV,091629.60,2,2,0.40572,0.35753,-174.86257,0.008,-0.008,-0.000,52.60869,0.000*5A,,,
$GPGGA,091629.70,3542.265536710,N,13943.255695725,E,5,09,1.82,23.427,M,36.994,M,2.7,7107*40
$PMSBATV,091629.70,2,2,0.44188,0.34794,-174.85060,0.003,-0.003,0.000,52.60869,0.000*7C,,,
$GPGGA,091629.80,3542.265537482,N,13943.255694571,E,5,09,1.82,23.427,M,36.994,M,2.8,7107*4B
$PMSBATV,091629.80,2,2,0.49422,0.36188,-174.84443,-0.011,0.011,-0.000,52.60869,0.000*5B,,,
$GPGGA,091629.90,3542.265541074,N,13943.255690774,E,5,09,1.82,23.427,M,36.994,M,2.9,7107*44
$PMSBATV,091629.90,2,2,0.44330,0.32732,-174.84806,-0.000,0.000,-0.000,52.60869,0.000*5D,,,
$GPGGA,091630.00,3542.265538306,N,13943.255693477,E,5,09,1.82,23.426,M,36.994,M,3.0,7107*47
$PMSBATV,091630.00,2,2,0.47957,0.36491,-174.84234,-0.010,0.010,0.000,52.60869,0.000*7C,,,
$GPGGA,091630.10,3542.265540760,N,13943.255690914,E,5,09,1.82,23.427,M,36.994,M,3.1,7107*46
$PMSBATV,091630.10,2,2,0.48426,0.39779,-174.84494,-0.016,0.015,0.001,52.60869,0.000*7D,,,
$GPGGA,091630.20,3542.265542312,N,13943.255689449,E,5,09,1.82,23.427,M,36.994,M,3.2,7107*48
$PMSBATV,091630.20,2,2,0.41889,0.38159,-174.85137,0.002,-0.002,0.000,52.60869,0.000*74,,,
$GPGGA,091630.30,3542.265537771,N,13943.255694065,E,5,09,1.82,23.427,M,36.994,M,3.3,7107*4D
$PMSBATV,091630.30,2,2,0.40912,0.42582,-174.85977,0.003,-0.003,0.000,52.60869,0.000*74,,,
$GPGGA,091630.40,3542.265536876,N,13943.255695093,E,5,09,1.82,23.429,M,36.994,M,3.4,7107*42
$PMSBATV,091630.40,2,2,0.40031,0.44660,-174.85683,0.006,-0.006,-0.000,52.60869,0.000*5B,,,
$GPGGA,091630.50,3542.265535247,N,13943.255696641,E,5,09,1.82,23.429,M,36.994,M,3.5,7107*43
$PMSBATV,091630.50,2,2,0.45123,0.47128,-174.85484,-0.005,0.005,0.000,52.60869,0.000*7D,,,
$GPGGA,091630.60,3542.265537580,N,13943.255694282,E,5,09,1.82,23.430,M,36.994,M,3.6,7107*4C
$PMSBATV,091630.60,2,2,0.45581,0.45354,-174.84948,-0.008,0.008,-0.000,52.60869,0.000*58,,,
$GPGGA,091630.70,3542.265538297,N,13943.255693305,E,5,09,1.82,23.429,M,36.994,M,3.7,7107*43
$PMSBATV,091630.70,2,2,0.44512,0.40947,-174.85124,0.000,0.000,0.001,52.60869,0.000*5D,,,
$GPGGA,091630.80,3542.265536068,N,13943.255695392,E,5,09,1.82,23.429,M,36.994,M,3.8,7107*47
$PMSBATV,091630.80,2,2,0.47528,0.40852,-174.84534,-0.008,0.007,-0.001,52.60869,0.000*56,,,
$GPGGA,091630.90,3542.265537812,N,13943.255693443,E,5,09,1.82,23.428,M,36.994,M,3.9,7107*4F
$PMSBATV,091630.90,2,2,0.40794,0.33151,-174.83862,0.010,-0.010,-0.000,52.60869,0.000*5C,,,
$GPGGA,091631.00,3542.265532966,N,13943.255698017,E,5,09,1.82,23.427,M,36.994,M,4.0,7107*4F
$PMSBATV,091631.00,2,2,0.41819,0.31632,-174.84281,0.010,-0.009,-0.000,52.60869,0.000*57,,,
$GPGGA,091631.10,3542.265532134,N,13943.255698731,E,5,06,4.72,23.427,M,36.994,M,4.1,7107*46
