$GPGGA,013846.00,3427.666765747,N,13630.983059444,E,5,13,0.92,104.673,M,39.209,M,4.0,2006*78
$PMSBATV,013846.00,2,2,1.04682,0.99465,63.17157,-0.000,-0.000,-0.000,68.33559,0.000*61
$GPGGA,013846.10,3427.666765739,N,13630.983059530,E,5,13,0.92,104.673,M,39.209,M,4.1,2006*73
$PMSBATV,013846.10,2,2,1.04892,0.98525,63.17346,-0.000,0.000,0.000,68.33559,0.000*69
$GPGGA,013846.20,3427.666765743,N,13630.983059612,E,5,13,0.92,104.674,M,39.209,M,4.2,2006*7A
$PMSBATV,013846.20,2,2,1.06057,0.97841,63.17499,-0.000,-0.000,-0.000,68.33559,0.000*6C
$GPGGA,013846.30,3427.666765734,N,13630.983059698,E,5,13,0.92,104.674,M,39.209,M,4.3,2006*78
$PMSBATV,013846.30,2,2,1.05163,0.97319,63.17628,-0.000,0.000,-0.000,68.33559,0.000*4B
$GPGGA,013846.40,3427.666765718,N,13630.983059783,E,5,13,0.92,104.674,M,39.209,M,4.4,2006*7D
$PMSBATV,013846.40,2,2,1.05056,0.96995,63.17587,-0.000,0.000,-0.000,68.33559,0.000*42
$GPGGA,013846.50,3427.666765720,N,13630.983059866,E,5,13,0.92,104.674,M,39.209,M,4.5,2006*72
$PMSBATV,013846.50,2,2,1.05818,0.96597,63.17503,-0.000,-0.000,-0.000,68.33559,0.000*6E
$GPGGA,013846.60,3427.666765717,N,13630.983059946,E,5,13,0.92,104.674,M,39.209,M,4.6,2006*75
$PMSBATV,013846.60,2,2,1.05612,0.95935,63.17496,-0.000,-0.000,0.000,68.33559,0.000*4E
$GPGGA,013846.70,3427.666765713,N,13630.983060036,E,5,13,0.92,104.674,M,39.209,M,4.7,2006*75
$PMSBATV,013846.70,2,2,1.05563,0.95618,63.17541,-0.000,0.000,-0.000,68.33559,0.000*41
$GPGGA,013846.80,3427.666765709,N,13630.983060112,E,5,13,0.92,104.674,M,39.209,M,4.8,2006*79
$PMSBATV,013846.80,2,2,1.05967,0.95109,63.17453,-0.000,0.000,-0.000,68.33559,0.000*43
$GPGGA,013846.90,3427.666765706,N,13630.983060195,E,5,13,0.92,104.674,M,39.209,M,4.9,2006*79
$PMSBATV,013846.90,2,2,1.05892,0.94876,63.17518,-0.000,0.000,0.000,68.33559,0.000*6A
$GPGGA,013847.00,3427.666765702,N,13630.983060280,E,5,13,0.92,104.674,M,39.209,M,5.0,2006*7A
$PMSBATV,013847.00,2,2,1.06433,0.94802,63.17538,-0.000,0.000,-0.000,68.33559,0.000*4A
$GPGGA,013847.10,3427.666765703,N,13630.983060360,E,5,13,0.92,104.674,M,39.209,M,5.1,2006*74
$PMSBATV,013847.10,2,2,1.06601,0.94786,63.17576,-0.000,-0.000,-0.000,68.33559,0.000*6C
$GPGGA,013847.20,3427.666765702,N,13630.983060453,E,5,13,0.92,104.674,M,39.209,M,5.2,2006*72
$PMSBATV,013847.20,2,2,1.05978,0.94606,63.17535,-0.000,-0.000,0.000,68.33559,0.000*4E
$GPGGA,013847.30,3427.666765703,N,13630.983060530,E,5,13,0.92,104.674,M,39.209,M,5.3,2006*77
$PMSBATV,013847.30,2,2,1.06686,0.94331,63.17568,-0.000,-0.000,0.000,68.33559,0.000*4B
$GPGGA,013847.40,3427.666765704,N,13630.983060616,E,5,13,0.92,104.674,M,39.209,M,5.4,2006*77
$PMSBATV,013847.40,2,2,1.06588,0.94271,63.17826,-0.000,0.000,-0.000,68.33559,0.000*43
$GPGGA,013847.50,3427.666765703,N,13630.983060707,E,5,13,0.92,104.674,M,39.209,M,5.5,2006*71
$PMSBATV,013847.50,2,2,1.05951,0.93770,63.17801,-0.000,0.000,0.000,68.33559,0.000*62
$GPGGA,013847.60,3427.666765714,N,13630.983060797,E,5,13,0.92,104.674,M,39.209,M,5.6,2006*7E
$PMSBATV,013847.60,2,2,1.06291,0.93704,63.17799,-0.000,-0.000,-0.000,68.33559,0.000*68
$GPGGA,013847.70,3427.666765718,N,13630.983060887,E,5,13,0.92,104.675,M,39.209,M,5.7,2006*7D
$PMSBATV,013847.70,2,2,1.06652,0.92782,63.17612,-0.001,-0.000,0.000,68.33559,0.000*43
$GPGGA,013847.80,3427.666765722,N,13630.983060978,E,5,13,0.92,104.675,M,39.209,M,5.8,2006*75
$PMSBATV,013847.80,2,2,1.06650,0.92620,63.17893,-0.000,-0.000,-0.000,68.33559,0.000*6C
$GPGGA,013847.90,3427.666765721,N,13630.983061076,E,5,13,0.92,104.675,M,39.209,M,5.9,2006*70
$PMSBATV,013847.90,2,2,1.05793,0.92446,63.18090,-0.000,0.000,-0.000,68.33559,0.000*4B
$GPGGA,013848.00,3427.666765714,N,13630.983061165,E,5,13,0.92,104.675,M,39.209,M,6.0,2006*79
$PMSBATV,013848.00,2,2,1.05455,0.92482,63.18130,-0.000,0.000,-0.000,68.33559,0.000*47
$GPGGA,013848.10,3427.666765718,N,13630.983061249,E,5,13,0.92,104.675,M,39.209,M,1.1,2006*7F
$PMSBATV,013848.10,2,2,1.05274,0.92011,63.17889,-0.000,-0.000,-0.000,68.33559,0.000*64
$GPGGA,013848.20,3427.666765727,N,13630.983061327,E,5,13,0.92,104.675,M,39.209,M,1.2,2006*7A
$PMSBATV,013848.20,2,2,1.05047,0.92004,63.17619,-0.000,0.000,-0.000,68.33559,0.000*4B
$GPGGA,013848.30,3427.666765736,N,13630.983061404,E,5,13,0.92,104.675,M,39.209,M,1.3,2006*7C
$PMSBATV,013848.30,2,2,1.05661,0.91832,63.17451,-0.000,0.000,-0.000,68.33559,0.000*48
$GPGGA,013848.40,3427.666765747,N,13630.983061484,E,5,13,0.92,104.675,M,39.209,M,1.4,2006*72
$PMSBATV,013848.40,2,2,1.05950,0.91097,63.17524,0.000,-0.000,-0.000,68.33559,0.000*46
$GPGGA,013848.50,3427.666765756,N,13630.983061557,E,5,13,0.92,104.675,M,39.209,M,1.5,2006*7D
$PMSBATV,013848.50,2,2,1.05378,0.90904,63.17571,-0.000,0.000,-0.000,68.33559,0.000*45
$GPGGA,013848.60,3427.666765764,N,13630.983061625,E,5,13,0.92,104.675,M,39.209,M,1.6,2006*7A
$PMSBATV,013848.60,2,2,1.05141,0.90608,63.17756,-0.000,0.000,0.000,68.33559,0.000*67
$GPGGA,013848.70,3427.666765775,N,13630.983061696,E,5,13,0.92,104.675,M,39.209,M,1.7,2006*72
$PMSBATV,013848.70,2,2,1.05764,0.90640,63.17753,-0.000,-0.000,-0.000,68.33559,0.000*6E
$GPGGA,013848.80,3427.666765790,N,13630.983061771,E,5,13,0.92,104.675,M,39.209,M,1.8,2006*71
$PMSBATV,013848.80,2,2,1.05667,0.90733,63.17830,-0.000,-0.000,-0.000,68.33559,0.000*6C
$GPGGA,013848.90,3427.666765802,N,13630.983061834,E,5,13,0.92,104.675,M,39.209,M,1.9,2006*7B
$PMSBATV,013848.90,2,2,1.05910,0.89974,63.18034,-0.000,-0.000,-0.000,68.33559,0.000*64
$GPGGA,013849.00,3427.666765817,N,13630.983061904,E,5,13,0.92,104.675,M,39.209,M,2.0,2006*7F
$PMSBATV,013849.00,2,2,1.05745,0.90379,63.17876,0.000,0.000,-0.000,68.33559,0.000*6C
$GPGGA,013849.10,3427.666765831,N,13630.983061968,E,5,13,0.92,104.675,M,39.209,M,2.1,2006*71
$PMSBATV,013849.10,2,2,1.06023,0.90658,63.17692,-0.000,-0.000,-0.000,68.33559,0.000*6B
$GPGGA,013849.20,3427.666765837,N,13630.983062040,E,5,13,0.92,104.676,M,39.209,M,2.2,2006*74
$PMSBATV,013849.20,2,2,1.06893,0.90836,63.17389,0.000,0.000,-0.000,68.33559,0.000*62
$GPGGA,013849.30,3427.666765844,N,13630.983062105,E,5,13,0.92,104.676,M,39.209,M,2.3,2006*70
$PMSBATV,013849.30,2,2,1.06518,0.90854,63.17642,-0.000,0.000,-0.000,68.33559,0.000*46
$GPGGA,013849.40,3427.666765845,N,13630.983062176,E,5,13,0.92,104.676,M,39.209,M,2.4,2006*75
$PMSBATV,013849.40,2,2,1.04959,0.90656,63.17529,-0.000,0.000,0.000,68.33559,0.000*65
$GPGGA,013849.50,3427.666765857,N,13630.983062244,E,5,13,0.92,104.676,M,39.209,M,2.5,2006*74
$PMSBATV,013849.50,2,2,1.05717,0.90601,63.17551,-0.000,-0.000,-0.000,68.33559,0.000*6C
$GPGGA,013849.60,3427.666765878,N,13630.983062314,E,5,13,0.92,104.676,M,39.209,M,2.6,2006*7D
$PMSBATV,013849.60,2,2,1.06124,0.90890,63.17667,0.000,-0.000,-0.000,68.33559,0.000*47
$GPGGA,013849.70,3427.666765891,N,13630.983062387,E,5,13,0.92,104.676,M,39.209,M,2.7,2006*70
$PMSBATV,013849.70,2,2,1.04853,0.90388,63.17721,-0.000,0.000,0.000,68.33559,0.000*61
$GPGGA,013849.80,3427.666765909,N,13630.983062450,E,5,13,0.92,104.676,M,39.209,M,2.8,2006*7D
$PMSBATV,013849.80,2,2,1.06386,0.89874,63.17572,-0.000,-0.000,-0.000,68.33559,0.000*6B
$GPGGA,013849.90,3427.666765932,N,13630.983062523,E,5,13,0.92,104.676,M,39.209,M,2.9,2006*70
$PMSBATV,013849.90,2,2,1.06714,0.90092,63.17607,0.000,0.000,-0.000,68.33559,0.000*6C
$GPGGA,013850.00,3427.666765946,N,13630.983062591,E,5,13,0.92,104.676,M,39.209,M,3.0,2006*73
$PMSBATV,013850.00,2,2,1.05487,0.89754,63.17577,-0.000,0.000,-0.000,68.33559,0.000*4B
$GPGGA,013850.10,3427.666765956,N,13630.983062661,E,5,13,0.92,104.676,M,39.209,M,3.1,2006*7E
$PMSBATV,013850.10,2,2,1.06113,0.90395,63.17548,-0.000,-0.000,-0.000,68.33559,0.000*61
$GPGGA,013850.20,3427.666765977,N,13630.983062737,E,5,13,0.92,104.676,M,39.209,M,3.2,2006*7F
$PMSBATV,013850.20,2,2,1.06244,0.90772,63.17930,0.000,-0.000,-0.000,68.33559,0.000*40
$GPGGA,013850.30,3427.666765980,N,13630.983062807,E,5,13,0.92,104.677,M,39.209,M,3.3,2006*7A
$PMSBATV,013850.30,2,2,1.05841,0.90193,63.17750,-0.000,0.000,-0.000,68.33559,0.000*4C
$GPGGA,013850.40,3427.666765984,N,13630.983062879,E,5,13,0.92,104.677,M,39.209,M,3.4,2006*77
$PMSBATV,013850.40,2,2,1.06316,0.90267,63.17783,-0.000,0.000,-0.000,68.33559,0.000*47
$GPGGA,013850.50,3427.666765997,N,13630.983062958,E,5,13,0.92,104.677,M,39.209,M,3.5,2006*77
$PMSBATV,013850.50,2,2,1.05874,0.90283,63.17889,0.000,0.000,-0.000,68.33559,0.000*68
$GPGGA,013850.60,3427.666766010,N,13630.983063037,E,5,13,0.92,104.677,M,39.209,M,3.6,2006*73
$PMSBATV,013850.60,2,2,1.05779,0.90431,63.17654,-0.000,-0.000,-0.000,68.33559,0.000*68
$GPGGA,013850.70,3427.666766017,N,13630.983063113,E,5,13,0.92,104.677,M,39.209,M,3.7,2006*73
$PMSBATV,013850.70,2,2,1.06248,0.90228,63.17368,-0.000,0.000,0.000,68.33559,0.000*69
$GPGGA,013850.80,3427.666766031,N,13630.983063187,E,5,13,0.92,104.677,M,39.209,M,3.8,2006*7A
$PMSBATV,013850.80,2,2,1.06670,0.90021,63.17470,0.000,-0.000,-0.000,68.33559,0.000*41
$GPGGA,013850.90,3427.666766040,N,13630.983063271,E,5,13,0.92,104.677,M,39.209,M,3.9,2006*76
$PMSBATV,013850.90,2,2,1.06134,0.89979,63.17331,0.000,-0.000,0.000,68.33559,0.000*64
$GPGGA,013851.00,3427.666766048,N,13630.983063349,E,5,13,0.92,104.677,M,39.209,M,4.0,2006*72
$PMSBATV,013851.00,2,2,1.06832,0.89810,63.17296,-0.000,0.000,0.000,68.33559,0.000*61
$GPGGA,013851.10,3427.666766021,N,13630.983063324,E,5,13,0.92,104.677,M,39.209,M,4.1,2006*76
$PMSBATV,013851.10,2,2,1.06766,0.89415,63.17348,-0.000,0.000,-0.000,68.33559,0.000*48
$GPGGA,013851.20,3427.666766031,N,13630.983063403,E,5,13,0.92,104.677,M,39.209,M,4.2,2006*75
$PMSBATV,013851.20,2,2,1.06337,0.89769,63.17209,-0.000,0.000,-0.000,68.33559,0.000*47
$GPGGA,013851.30,3427.666766003,N,13630.983063384,E,5,13,0.92,104.678,M,39.209,M,4.3,2006*73
$PMSBATV,013851.30,2,2,1.05959,0.89794,63.17179,-0.000,0.000,-0.000,68.33559,0.000*41
$GPGGA,013851.40,3427.666766016,N,13630.983063468,E,5,13,0.92,104.678,M,39.209,M,4.4,2006*72
$PMSBATV,013851.40,2,2,1.06241,0.89899,63.17274,-0.000,0.000,-0.000,68.33559,0.000*4B
$GPGGA,013851.50,3427.666765989,N,13630.983063451,E,5,13,0.92,104.678,M,39.209,M,4.5,2006*74
$PMSBATV,013851.50,2,2,1.06216,0.89831,63.17486,-0.000,0.000,-0.000,68.33559,0.000*41
$GPGGA,013851.60,3427.666765965,N,13630.983063437,E,5,13,0.92,104.678,M,39.209,M,4.6,2006*76
$PMSBATV,013851.60,2,2,1.06372,0.90197,63.17609,0.000,0.000,-0.000,68.33559,0.000*64
$GPGGA,013851.70,3427.666765938,N,13630.983063426,E,5,13,0.92,104.678,M,39.209,M,4.7,2006*7E
$PMSBATV,013851.70,2,2,1.06337,0.90150,63.17471,-0.000,0.000,-0.000,68.33559,0.000*4F
$GPGGA,013851.80,3427.666765910,N,13630.983063411,E,5,13,0.92,104.678,M,39.209,M,4.8,2006*70
$PMSBATV,013851.80,2,2,1.06016,0.89670,63.17585,-0.000,-0.000,-0.000,68.33559,0.000*6A
$GPGGA,013851.90,3427.666765886,N,13630.983063403,E,5,13,0.92,104.678,M,39.209,M,4.9,2006*7D
$PMSBATV,013851.90,2,2,1.06232,0.89850,63.17683,0.000,0.000,0.000,68.33559,0.000*4B
$GPGGA,013852.00,3427.666765863,N,13630.983063395,E,5,13,0.92,104.678,M,39.209,M,5.0,2006*7C
$PMSBATV,013852.00,2,2,1.05531,0.89712,63.17414,-0.000,0.000,-0.000,68.33559,0.000*43
$GPGGA,013852.10,3427.666765872,N,13630.983063477,E,5,13,0.92,104.678,M,39.209,M,5.1,2006*77
$PMSBATV,013852.10,2,2,1.05524,0.89582,63.17320,-0.000,-0.000,-0.000,68.33559,0.000*60
$GPGGA,013852.20,3427.666765852,N,13630.983063467,E,5,13,0.92,104.678,M,39.209,M,5.2,2006*74
$PMSBATV,013852.20,2,2,1.06041,0.89793,63.17144,-0.000,-0.000,-0.000,68.33559,0.000*64
$GPGGA,013852.30,3427.666765833,N,13630.983063453,E,5,13,0.92,104.678,M,39.209,M,5.3,2006*74
$PMSBATV,013852.30,2,2,1.06310,0.89810,63.16901,0.000,-0.000,-0.000,68.33559,0.000*43
$GPGGA,013852.40,3427.666765821,N,13630.983063442,E,5,13,0.92,104.678,M,39.209,M,5.4,2006*77
$PMSBATV,013852.40,2,2,1.06353,0.90236,63.17162,-0.000,-0.000,-0.000,68.33559,0.000*64
$GPGGA,013852.50,3427.666765802,N,13630.983063437,E,5,13,0.92,104.678,M,39.209,M,5.5,2006*74
$PMSBATV,013852.50,2,2,1.06644,0.90230,63.17328,-0.000,0.000,-0.000,68.33559,0.000*41
$GPGGA,013852.60,3427.666765788,N,13630.983063425,E,5,13,0.92,104.678,M,39.209,M,5.6,2006*7A
$PMSBATV,013852.60,2,2,1.07552,0.90438,63.17241,-0.000,-0.000,-0.000,68.33559,0.000*6A
$GPGGA,013852.70,3427.666765775,N,13630.983063412,E,5,13,0.92,104.678,M,39.209,M,5.7,2006*7C
$PMSBATV,013852.70,2,2,1.07829,0.90760,63.16953,0.000,-0.000,0.000,68.33559,0.000*6D
$GPGGA,013852.80,3427.666765755,N,13630.983063402,E,5,13,0.92,104.679,M,39.209,M,5.8,2006*7E
$PMSBATV,013852.80,2,2,1.06886,0.90736,63.17093,-0.000,0.000,0.000,68.33559,0.000*61
$GPGGA,013852.90,3427.666765732,N,13630.983063386,E,5,13,0.92,104.679,M,39.209,M,5.9,2006*74
$PMSBATV,013852.90,2,2,1.06544,0.90077,63.17120,-0.000,0.000,-0.000,68.33559,0.000*45
$GPGGA,013853.00,3427.666765718,N,13630.983063372,E,5,13,0.92,104.679,M,39.209,M,6.0,2006*75
$PMSBATV,013853.00,2,2,1.07203,0.90287,63.17048,-0.000,-0.000,0.000,68.33559,0.000*4A
$GPGGA,013853.10,3427.666765710,N,13630.983063365,E,5,13,0.92,104.679,M,39.209,M,1.1,2006*7C
$PMSBATV,013853.10,2,2,1.07298,0.90596,63.17174,0.000,0.000,-0.000,68.33559,0.000*6D
$GPGGA,013853.20,3427.666765713,N,13630.983063436,E,5,13,0.92,104.679,M,39.209,M,1.2,2006*7E
$PMSBATV,013853.20,2,2,1.07457,0.90460,63.17176,-0.000,0.000,0.000,68.33559,0.000*61
$GPGGA,013853.30,3427.666765698,N,13630.983063419,E,5,13,0.92,104.679,M,39.209,M,1.3,2006*71
$PMSBATV,013853.30,2,2,1.08389,0.90566,63.17069,-0.000,-0.000,-0.000,68.33559,0.000*63
$GPGGA,013853.40,3427.666765694,N,13630.983063429,E,5,13,0.92,104.679,M,39.209,M,1.4,2006*7E
$PMSBATV,013853.40,2,2,1.07687,0.90880,63.17194,-0.000,-0.000,0.000,68.33559,0.000*4B
$GPGGA,013853.50,3427.666765676,N,13630.983063415,E,5,13,0.92,104.679,M,39.209,M,1.5,2006*7D
$PMSBATV,013853.50,2,2,1.07457,0.90761,63.17185,-0.000,0.000,0.000,68.33559,0.000*68
$GPGGA,013853.60,3427.666765660,N,13630.983063409,E,5,13,0.92,104.679,M,39.209,M,1.6,2006*77
$PMSBATV,013853.60,2,2,1.07954,0.90789,63.17048,0.000,-0.000,-0.000,68.33559,0.000*4E
$GPGGA,013853.70,3427.666765660,N,13630.983063426,E,5,13,0.92,104.679,M,39.209,M,1.7,2006*7A
$PMSBATV,013853.70,2,2,1.07424,0.91230,63.17284,0.000,0.000,-0.000,68.33559,0.000*6C
$GPGGA,013853.80,3427.666765655,N,13630.983063438,E,5,13,0.92,104.679,M,39.209,M,1.8,2006*73
$PMSBATV,013853.80,2,2,1.06749,0.90800,63.17188,0.000,0.000,-0.000,68.33559,0.000*6D
$GPGGA,013853.90,3427.666765651,N,13630.983063443,E,5,13,0.92,104.679,M,39.209,M,1.9,2006*7B
$PMSBATV,013853.90,2,2,1.06920,0.90381,63.16934,-0.000,0.000,-0.000,68.33559,0.000*4C
$GPGGA,013854.00,3427.666765648,N,13630.983063435,E,5,13,0.92,104.679,M,39.209,M,2.0,2006*76
$PMSBATV,013854.00,2,2,1.07121,0.90100,63.17120,0.000,0.000,-0.000,68.33559,0.000*60
$GPGGA,013854.10,3427.666765644,N,13630.983063447,E,5,13,0.92,104.679,M,39.209,M,2.1,2006*7F
$PMSBATV,013854.10,2,2,1.07581,0.90176,63.17307,0.000,-0.000,-0.000,68.33559,0.000*44
$GPGGA,013854.20,3427.666765632,N,13630.983063437,E,5,13,0.92,104.680,M,39.209,M,2.2,2006*7F
$PMSBATV,013854.20,2,2,1.08853,0.90146,63.17518,-0.000,-0.000,-0.000,68.33559,0.000*6C
$GPGGA,013854.30,3427.666765615,N,13630.983063432,E,5,13,0.92,104.680,M,39.209,M,2.3,2006*7F
$PMSBATV,013854.30,2,2,1.08393,0.90563,63.17428,-0.000,0.000,-0.000,68.33559,0.000*46
$GPGGA,013854.40,3427.666765597,N,13630.983063417,E,5,13,0.92,104.680,M,39.209,M,2.4,2006*71
$PMSBATV,013854.40,2,2,1.08044,0.90182,63.17287,-0.000,0.000,-0.000,68.33559,0.000*40
$GPGGA,013854.50,3427.666765579,N,13630.983063409,E,5,13,0.92,104.680,M,39.209,M,2.5,2006*7E
$PMSBATV,013854.50,2,2,1.08237,0.90376,63.17137,-0.000,0.000,0.000,68.33559,0.000*6B
$GPGGA,013854.60,3427.666765565,N,13630.983063406,E,5,13,0.92,104.680,M,39.209,M,2.6,2006*7C
$PMSBATV,013854.60,2,2,1.08497,0.90638,63.17059,-0.000,-0.000,-0.000,68.33559,0.000*62
$GPGGA,013854.70,3427.666765549,N,13630.983063394,E,5,13,0.92,104.680,M,39.209,M,2.7,2006*7E
$PMSBATV,013854.70,2,2,1.08238,0.90554,63.16941,-0.000,0.000,-0.000,68.33559,0.000*45
$GPGGA,013854.80,3427.666765529,N,13630.983063387,E,5,13,0.92,104.680,M,39.209,M,2.8,2006*7A
$PMSBATV,013854.80,2,2,1.07895,0.90464,63.16916,-0.000,0.000,-0.000,68.33559,0.000*48
$GPGGA,013854.90,3427.666765517,N,13630.983063378,E,5,13,0.92,104.680,M,39.209,M,2.9,2006*77
$PMSBATV,013854.90,2,2,1.07828,0.90876,63.16728,-0.000,-0.000,-0.000,68.33559,0.000*6E
$GPGGA,013855.00,3427.666765507,N,13630.983063365,E,5,13,0.92,104.680,M,39.209,M,3.0,2006*7A
$PMSBATV,013855.00,2,2,1.07480,0.91127,63.16947,-0.000,-0.000,0.000,68.33559,0.000*4E
$GPGGA,013855.10,3427.666765490,N,13630.983063345,E,5,13,0.92,104.680,M,39.209,M,3.1,2006*77
$PMSBATV,013855.10,2,2,1.07924,0.90792,63.16997,-0.000,0.000,0.000,68.33559,0.000*65
$GPGGA,013855.20,3427.666765475,N,13630.983063336,E,5,13,0.92,104.680,M,39.209,M,3.2,2006*78
$PMSBATV,013855.20,2,2,1.07747,0.91301,63.16969,0.000,0.000,-0.000,68.33559,0.000*63
$GPGGA,013855.30,3427.666765465,N,13630.983063340,E,5,13,0.92,104.680,M,39.209,M,3.3,2006*78
$PMSBATV,013855.30,2,2,1.07711,0.91186,63.17045,-0.000,0.000,-0.000,68.33559,0.000*47
$GPGGA,013855.40,3427.666765454,N,13630.983063339,E,5,13,0.92,104.680,M,39.209,M,3.4,2006*74
$PMSBATV,013855.40,2,2,1.07737,0.91076,63.17248,-0.000,0.000,-0.000,68.33559,0.000*45
$GPGGA,013855.50,3427.666765446,N,13630.983063349,E,5,13,0.92,104.680,M,39.209,M,3.5,2006*70
$PMSBATV,013855.50,2,2,1.07461,0.90910,63.17384,-0.000,-0.000,-0.000,68.33559,0.000*60
$GPGGA,013855.60,3427.666765438,N,13630.983063350,E,5,13,0.92,104.680,M,39.209,M,3.6,2006*71
$PMSBATV,013855.60,2,2,1.07230,0.90411,63.17469,-0.000,-0.000,-0.000,68.33559,0.000*69
$GPGGA,013855.70,3427.666765428,N,13630.983063352,E,5,13,0.92,104.680,M,39.209,M,3.7,2006*72
$PMSBATV,013855.70,2,2,1.07354,0.89981,63.17264,-0.000,-0.000,-0.000,68.33559,0.000*6C
$GPGGA,013855.80,3427.666765414,N,13630.983063359,E,5,13,0.92,104.680,M,39.209,M,3.8,2006*76
$PMSBATV,013855.80,2,2,1.07772,0.89793,63.17586,-0.000,0.000,-0.000,68.33559,0.000*48
$GPGGA,013855.90,3427.666765404,N,13630.983063371,E,5,13,0.92,104.680,M,39.209,M,3.9,2006*7D
$PMSBATV,013855.90,2,2,1.07920,0.90140,63.17723,-0.000,0.000,-0.000,68.33559,0.000*4D
$GPGGA,013856.00,3427.666765385,N,13630.983063380,E,5,13,0.92,104.680,M,39.209,M,4.0,2006*79
$PMSBATV,013856.00,2,2,1.07374,0.90222,63.17542,-0.000,0.000,0.000,68.33559,0.000*63
$GPGGA,013856.10,3427.666765376,N,13630.983063381,E,5,13,0.92,104.680,M,39.209,M,4.1,2006*74
$PMSBATV,013856.10,2,2,1.08549,0.90135,63.17551,0.000,0.000,0.000,68.33559,0.000*4F
$GPGGA,013856.20,3427.666765360,N,13630.983063397,E,5,13,0.92,104.681,M,39.209,M,4.2,2006*75
$PMSBATV,013856.20,2,2,1.09670,0.90036,63.17394,-0.000,0.000,-0.000,68.33559,0.000*49
$GPGGA,013856.30,3427.666765347,N,13630.983063393,E,5,13,0.92,104.681,M,39.209,M,4.3,2006*74
$PMSBATV,013856.30,2,2,1.09093,0.89399,63.17724,-0.000,-0.000,-0.000,68.33559,0.000*6F
$GPGGA,013856.40,3427.666765323,N,13630.983063398,E,5,13,0.92,104.681,M,39.209,M,4.4,2006*7D
$PMSBATV,013856.40,2,2,1.07639,0.89942,63.17440,-0.000,0.000,-0.000,68.33559,0.000*40
$GPGGA,013856.50,3427.666765313,N,13630.983063416,E,5,13,0.92,104.681,M,39.209,M,4.5,2006*7F
$PMSBATV,013856.50,2,2,1.08347,0.90705,63.17507,0.000,-0.000,-0.000,68.33559,0.000*45
$GPGGA,013856.60,3427.666765307,N,13630.983063416,E,5,13,0.92,104.681,M,39.209,M,4.6,2006*7A
$PMSBATV,013856.60,2,2,1.09263,0.90531,63.17403,-0.001,-0.000,-0.000,68.33559,0.000*6C
$GPGGA,013856.70,3427.666765282,N,13630.983063417,E,5,13,0.92,104.681,M,39.209,M,4.7,2006*77
$PMSBATV,013856.70,2,2,1.07534,0.90356,63.17525,-0.000,0.000,-0.000,68.33559,0.000*48
$GPGGA,013856.80,3427.666765267,N,13630.983063453,E,5,13,0.92,104.681,M,39.209,M,4.8,2006*7C
$PMSBATV,013856.80,2,2,1.08804,0.90857,63.17129,0.001,0.000,0.000,68.33559,0.000*45
$GPGGA,013856.90,3427.666765260,N,13630.983063441,E,5,13,0.92,104.681,M,39.209,M,4.9,2006*78
$PMSBATV,013856.90,2,2,1.10232,0.90760,63.17057,-0.001,-0.000,-0.000,68.33559,0.000*6C
$GPGGA,013857.00,3427.666765246,N,13630.983063435,E,5,13,0.92,104.681,M,39.209,M,5.0,2006*7F
$PMSBATV,013857.00,2,2,1.08731,0.90866,63.17073,-0.000,0.000,0.000,68.33559,0.000*65
$GPGGA,013857.10,3427.666765243,N,13630.983063439,E,5,13,0.92,104.681,M,39.209,M,5.1,2006*76
$PMSBATV,013857.10,2,2,1.08766,0.91342,63.17227,0.000,-0.000,0.000,68.33559,0.000*69
$GPGGA,013857.20,3427.666765233,N,13630.983063438,E,5,13,0.92,104.681,M,39.209,M,5.2,2006*70
$PMSBATV,013857.20,2,2,1.09997,0.90483,63.17116,-0.001,-0.000,-0.000,68.33559,0.000*60
$GPGGA,013857.30,3427.666765212,N,13630.983063429,E,5,13,0.92,104.681,M,39.209,M,5.3,2006*73
$PMSBATV,013857.30,2,2,1.08492,0.90307,63.17116,-0.001,0.000,-0.000,68.33559,0.000*4E
$GPGGA,013857.40,3427.666765198,N,13630.983063449,E,5,13,0.92,104.681,M,39.209,M,5.4,2006*74
$PMSBATV,013857.40,2,2,1.08371,0.90809,63.17244,0.000,0.000,0.000,68.33559,0.000*43
$GPGGA,013857.50,3427.666765203,N,13630.983063430,E,5,13,0.92,104.681,M,39.209,M,5.5,2006*7B
$PMSBATV,013857.50,2,2,1.09308,0.90012,63.17294,-0.000,-0.000,-0.000,68.33559,0.000*6F
$GPGGA,013857.60,3427.666765203,N,13630.983063408,E,5,13,0.92,104.681,M,39.209,M,5.6,2006*70
$PMSBATV,013857.60,2,2,1.08504,0.89936,63.17439,-0.000,-0.000,-0.000,68.33559,0.000*61
$GPGGA,013857.70,3427.666765212,N,13630.983063414,E,5,13,0.92,104.681,M,39.209,M,5.7,2006*7D
$PMSBATV,013857.70,2,2,1.07829,0.90598,63.17488,0.001,0.000,0.000,68.33559,0.000*4B
$GPGGA,013857.80,3427.666765196,N,13630.983063425,E,5,13,0.92,104.681,M,39.209,M,5.8,2006*70
$PMSBATV,013857.80,2,2,1.09353,0.90246,63.17509,-0.000,-0.000,-0.000,68.33559,0.000*6C
$GPGGA,013857.90,3427.666765188,N,13630.983063409,E,5,13,0.92,104.681,M,39.209,M,5.9,2006*71
$PMSBATV,013857.90,2,2,1.09885,0.89731,63.17547,-0.001,-0.000,-0.000,68.33559,0.000*6B
$GPGGA,013858.00,3427.666765188,N,13630.983063404,E,5,13,0.92,104.681,M,39.209,M,6.0,2006*70
$PMSBATV,013858.00,2,2,1.07793,0.89850,63.17678,0.000,0.000,0.000,68.33559,0.000*40
$GPGGA,013858.10,3427.666765188,N,13630.983063395,E,5,13,0.92,104.681,M,39.209,M,1.1,2006*78
$PMSBATV,013858.10,2,2,1.09580,0.89708,63.17634,0.000,0.000,0.000,68.33559,0.000*45
$GPGGA,013858.20,3427.666765177,N,13630.983063394,E,5,13,0.92,104.681,M,39.209,M,1.2,2006*79
$PMSBATV,013858.20,2,2,1.10034,0.89392,63.17636,-0.000,0.000,-0.000,68.33559,0.000*41
$GPGGA,013858.30,3427.666765161,N,13630.983063399,E,5,13,0.92,104.681,M,39.209,M,1.3,2006*73
$PMSBATV,013858.30,2,2,1.09444,0.89213,63.17536,0.000,0.000,-0.000,68.33559,0.000*6D
$GPGGA,013858.40,3427.666765159,N,13630.983063397,E,5,13,0.92,104.681,M,39.209,M,1.4,2006*76
$PMSBATV,013858.40,2,2,1.09281,0.89360,63.17624,-0.000,0.000,-0.000,68.33559,0.000*4D
$GPGGA,013858.50,3427.666765157,N,13630.983063384,E,5,13,0.92,104.682,M,39.209,M,1.5,2006*79
$PMSBATV,013858.50,2,2,1.08640,0.89402,63.17465,-0.000,-0.000,-0.000,68.33559,0.000*6D
$GPGGA,013858.60,3427.666765155,N,13630.983063368,E,5,13,0.92,104.682,M,39.209,M,1.6,2006*79
$PMSBATV,013858.60,2,2,1.07807,0.89360,63.17582,-0.000,-0.000,-0.000,68.33559,0.000*67
$GPGGA,013858.70,3427.666765158,N,13630.983063367,E,5,13,0.92,104.682,M,39.209,M,1.7,2006*7B
$PMSBATV,013858.70,2,2,1.06829,0.89469,63.17318,0.000,0.000,-0.000,68.33559,0.000*60
$GPGGA,013858.80,3427.666765149,N,13630.983063354,E,5,13,0.92,104.682,M,39.209,M,1.8,2006*7B
$PMSBATV,013858.80,2,2,1.06258,0.89567,63.17280,-0.000,0.000,-0.000,68.33559,0.000*41
$GPGGA,013858.90,3427.666765152,N,13630.983063350,E,5,13,0.92,104.682,M,39.209,M,1.9,2006*75
$PMSBATV,013858.90,2,2,1.05902,0.89456,63.17232,0.000,0.000,-0.000,68.33559,0.000*60
$GPGGA,013859.00,3427.666765148,N,13630.983063335,E,5,13,0.92,104.682,M,39.209,M,2.0,2006*7F
$PMSBATV,013859.00,2,2,1.06253,0.89092,63.17069,-0.000,0.000,-0.000,68.33559,0.000*49
$GPGGA,013859.10,3427.666765148,N,13630.983063331,E,5,13,0.92,104.682,M,39.209,M,2.1,2006*7B
$PMSBATV,013859.10,2,2,1.06483,0.89222,63.17188,-0.000,0.000,-0.000,68.33559,0.000*44
$GPGGA,013859.20,3427.666765153,N,13630.983063314,E,5,13,0.92,104.682,M,39.209,M,2.2,2006*76
$PMSBATV,013859.20,2,2,1.07424,0.89353,63.16999,-0.000,-0.000,-0.000,68.33559,0.000*68
$GPGGA,013859.30,3427.666765152,N,13630.983063310,E,5,13,0.92,104.682,M,39.209,M,2.3,2006*73
$PMSBATV,013859.30,2,2,1.06589,0.89729,63.17093,0.000,0.000,0.000,68.33559,0.000*48
$GPGGA,013859.40,3427.666765157,N,13630.983063306,E,5,13,0.92,104.682,M,39.209,M,2.4,2006*71
$PMSBATV,013859.40,2,2,1.06756,0.90095,63.17087,0.000,-0.000,0.000,68.33559,0.000*6F
$GPGGA,013859.50,3427.666765152,N,13630.983063295,E,5,13,0.92,104.682,M,39.209,M,2.5,2006*7F
$PMSBATV,013859.50,2,2,1.07161,0.89348,63.17291,-0.000,0.000,-0.000,68.33559,0.000*4E
$GPGGA,013859.60,3427.666765154,N,13630.983063282,E,5,13,0.92,104.682,M,39.209,M,2.6,2006*7F
$PMSBATV,013859.60,2,2,1.07570,0.89331,63.17222,-0.000,-0.000,-0.000,68.33559,0.000*62
$GPGGA,013859.70,3427.666765158,N,13630.983063283,E,5,13,0.92,104.682,M,39.209,M,2.7,2006*72
$PMSBATV,013859.70,2,2,1.07019,0.89520,63.17333,0.000,0.000,0.000,68.33559,0.000*43
$GPGGA,013859.80,3427.666765159,N,13630.983063274,E,5,13,0.92,104.682,M,39.209,M,2.8,2006*7B
$PMSBATV,013859.80,2,2,1.07825,0.88821,63.17012,-0.000,-0.000,-0.000,68.33559,0.000*6B
$GPGGA,013859.90,3427.666765165,N,13630.983063261,E,5,13,0.92,104.682,M,39.209,M,2.9,2006*70
$PMSBATV,013859.90,2,2,1.07951,0.88475,63.17085,-0.000,0.000,-0.000,68.33559,0.000*46
$GPGGA,013900.00,3427.666765165,N,13630.983063244,E,5,13,0.92,104.682,M,39.209,M,3.0,2006*7B
$PMSBATV,013900.00,2,2,1.07490,0.88978,63.16914,-0.000,-0.000,-0.000,68.33559,0.000*6F
$GPGGA,013900.10,3427.666765171,N,13630.983063248,E,5,13,0.92,104.682,M,39.209,M,3.1,2006*72
$PMSBATV,013900.10,2,2,1.07863,0.89395,63.17323,-0.000,-0.000,-0.000,68.33559,0.000*69
$GPGGA,013900.20,3427.666765166,N,13630.983063233,E,5,13,0.92,104.682,M,39.209,M,3.2,2006*78
$PMSBATV,013900.20,2,2,1.07234,0.88809,63.17220,-0.001,0.000,-0.000,68.33559,0.000*43
$GPGGA,013900.30,3427.666765162,N,13630.983063234,E,5,13,0.92,104.682,M,39.209,M,3.3,2006*7B
$PMSBATV,013900.30,2,2,1.06391,0.89266,63.17353,0.000,0.000,0.000,68.33559,0.000*4B
$GPGGA,013900.40,3427.666765167,N,13630.983063231,E,5,13,0.92,104.682,M,39.209,M,3.4,2006*7B
$PMSBATV,013900.40,2,2,1.07117,0.89460,63.17039,-0.000,-0.000,-0.000,68.33559,0.000*63
$GPGGA,013900.50,3427.666765168,N,13630.983063219,E,5,13,0.92,104.682,M,39.209,M,3.5,2006*7E
$PMSBATV,013900.50,2,2,1.06935,0.88876,63.17323,-0.000,0.000,-0.000,68.33559,0.000*44
$GPGGA,013900.60,3427.666765164,N,13630.983063214,E,5,13,0.92,104.682,M,39.209,M,3.6,2006*7F
$PMSBATV,013900.60,2,2,1.06778,0.88736,63.17046,-0.000,0.000,0.000,68.33559,0.000*66
$GPGGA,013900.70,3427.666765165,N,13630.983063217,E,5,13,0.92,104.682,M,39.209,M,3.7,2006*7D
$PMSBATV,013900.70,2,2,1.07230,0.89184,63.17246,-0.000,0.000,0.000,68.33559,0.000*63
$GPGGA,013900.80,3427.666765170,N,13630.983063204,E,5,13,0.92,104.682,M,39.209,M,3.8,2006*7B
$PMSBATV,013900.80,2,2,1.07811,0.89087,63.16929,-0.000,-0.000,0.000,68.33559,0.000*49
$GPGGA,013900.90,3427.666765171,N,13630.983063197,E,5,13,0.92,104.683,M,39.209,M,3.9,2006*72
$PMSBATV,013900.90,2,2,1.07341,0.88939,63.17011,-0.000,0.000,0.000,68.33559,0.000*65
$GPGGA,013901.00,3427.666765173,N,13630.983063195,E,5,13,0.92,104.683,M,39.209,M,4.0,2006*74
$PMSBATV,013901.00,2,2,1.07357,0.88730,63.16724,0.000,-0.000,-0.000,68.33559,0.000*40
$GPGGA,013901.10,3427.666765179,N,13630.983063189,E,5,13,0.92,104.683,M,39.209,M,4.1,2006*73
$PMSBATV,013901.10,2,2,1.07919,0.89184,63.16785,0.000,-0.000,-0.000,68.33559,0.000*42
$GPGGA,013901.20,3427.666765185,N,13630.983063188,E,5,13,0.92,104.683,M,39.209,M,4.2,2006*71
$PMSBATV,013901.20,2,2,1.07641,0.89358,63.16660,0.000,-0.000,-0.000,68.33559,0.000*4A
$GPGGA,013901.30,3427.666765183,N,13630.983063188,E,5,13,0.92,104.683,M,39.209,M,4.3,2006*77
$PMSBATV,013901.30,2,2,1.08026,0.89777,63.16869,0.000,0.000,-0.000,68.33559,0.000*60
$GPGGA,013901.40,3427.666765181,N,13630.983063177,E,5,13,0.92,104.683,M,39.209,M,4.4,2006*75
$PMSBATV,013901.40,2,2,1.07643,0.89160,63.16862,-0.000,-0.000,0.000,68.33559,0.000*4B
$GPGGA,013901.50,3427.666765187,N,13630.983063177,E,5,13,0.92,104.683,M,39.209,M,4.5,2006*73
$PMSBATV,013901.50,2,2,1.07424,0.88873,63.16929,0.000,0.000,0.000,68.33559,0.000*4D
$GPGGA,013901.60,3427.666765189,N,13630.983063179,E,5,13,0.92,104.683,M,39.209,M,4.6,2006*73
$PMSBATV,013901.60,2,2,1.06748,0.89250,63.16786,-0.000,-0.000,-0.000,68.33559,0.000*6A
$GPGGA,013901.70,3427.666765193,N,13630.983063169,E,5,13,0.92,104.683,M,39.209,M,4.7,2006*79
$PMSBATV,013901.70,2,2,1.07569,0.88656,63.16753,-0.000,-0.000,-0.000,68.33559,0.000*60
$GPGGA,013901.80,3427.666765203,N,13630.983063174,E,5,13,0.92,104.683,M,39.209,M,4.8,2006*7F
$PMSBATV,013901.80,2,2,1.06702,0.88991,63.16706,-0.000,0.000,-0.000,68.33559,0.000*48
$GPGGA,013901.90,3427.666765202,N,13630.983063163,E,5,13,0.92,104.683,M,39.209,M,4.9,2006*78
$PMSBATV,013901.90,2,2,1.05898,0.88419,63.16769,-0.000,0.000,0.000,68.33559,0.000*6F
$GPGGA,013902.00,3427.666765204,N,13630.983063171,E,5,13,0.92,104.683,M,39.209,M,5.0,2006*7F
$PMSBATV,013902.00,2,2,1.07377,0.88639,63.16511,0.000,-0.000,-0.000,68.33559,0.000*4D
$GPGGA,013902.10,3427.666765212,N,13630.983063167,E,5,13,0.92,104.683,M,39.209,M,5.1,2006*7F
$PMSBATV,013902.10,2,2,1.08808,0.88456,63.16415,-0.000,-0.000,-0.000,68.33559,0.000*63
$GPGGA,013902.20,3427.666765215,N,13630.983063172,E,5,13,0.92,104.683,M,39.209,M,5.2,2006*7C
$PMSBATV,013902.20,2,2,1.07659,0.88635,63.16534,0.000,0.000,0.000,68.33559,0.000*4D
$GPGGA,013902.30,3427.666765214,N,13630.983063171,E,5,13,0.92,104.683,M,39.209,M,5.3,2006*7E
$PMSBATV,013902.30,2,2,1.08245,0.88097,63.16290,0.000,-0.000,-0.000,68.33559,0.000*4D
$GPGGA,013902.40,3427.666765217,N,13630.983063171,E,5,13,0.92,104.683,M,39.209,M,5.4,2006*7D
$PMSBATV,013902.40,2,2,1.08930,0.87922,63.16119,-0.000,-0.000,-0.000,68.33559,0.000*64
$GPGGA,013902.50,3427.666765206,N,13630.983063171,E,5,13,0.92,104.683,M,39.209,M,5.5,2006*7D
$PMSBATV,013902.50,2,2,1.08008,0.87719,63.15990,0.000,0.000,0.000,68.33559,0.000*46
$GPGGA,013902.60,3427.666765204,N,13630.983063190,E,5,13,0.92,104.683,M,39.209,M,5.6,2006*70
$PMSBATV,013902.60,2,2,1.07369,0.88255,63.16344,0.000,-0.000,0.000,68.33559,0.000*61
$GPGGA,013902.70,3427.666765196,N,13630.983063184,E,5,13,0.92,104.683,M,39.209,M,5.7,2006*7D
$PMSBATV,013902.70,2,2,1.07604,0.87818,63.16289,-0.001,0.000,-0.000,68.33559,0.000*4E
$GPGGA,013902.80,3427.666765191,N,13630.983063185,E,5,13,0.92,104.683,M,39.209,M,5.8,2006*7B
$PMSBATV,013902.80,2,2,1.08276,0.88201,63.16530,-0.000,0.000,0.000,68.33559,0.000*6B
$GPGGA,013902.90,3427.666765194,N,13630.983063202,E,5,13,0.92,104.683,M,39.209,M,5.9,2006*72
$PMSBATV,013902.90,2,2,1.08055,0.88319,63.16441,0.000,0.000,0.000,68.33559,0.000*4B
$GPGGA,013903.00,3427.666765183,N,13630.983063202,E,5,13,0.92,104.683,M,39.209,M,6.0,2006*76
$PMSBATV,013903.00,2,2,1.07603,0.87521,63.16724,-0.000,0.000,-0.000,68.33559,0.000*4B
$GPGGA,013903.10,3427.666765177,N,13630.983063203,E,5,13,0.92,104.684,M,39.209,M,1.1,2006*7C
$PMSBATV,013903.10,2,2,1.08335,0.87652,63.16664,-0.000,0.000,-0.000,68.33559,0.000*47
$GPGGA,013903.20,3427.666765176,N,13630.983063212,E,5,13,0.92,104.684,M,39.209,M,1.2,2006*7D
$PMSBATV,013903.20,2,2,1.08035,0.88026,63.16710,0.000,-0.000,-0.000,68.33559,0.000*4F
$GPGGA,013903.30,3427.666765172,N,13630.983063230,E,5,13,0.92,104.684,M,39.209,M,1.3,2006*79
$PMSBATV,013903.30,2,2,1.07647,0.88186,63.16724,0.000,0.000,-0.000,68.33559,0.000*63
$GPGGA,013903.40,3427.666765161,N,13630.983063234,E,5,13,0.92,104.684,M,39.209,M,1.4,2006*7F
$PMSBATV,013903.40,2,2,1.07633,0.87623,63.16711,-0.000,0.000,0.000,68.33559,0.000*66
$GPGGA,013903.50,3427.666765158,N,13630.983063229,E,5,13,0.92,104.684,M,39.209,M,1.5,2006*79
$PMSBATV,013903.50,2,2,1.07840,0.87255,63.16261,-0.000,-0.000,-0.000,68.33559,0.000*6A
$GPGGA,013903.60,3427.666765151,N,13630.983063229,E,5,13,0.92,104.684,M,39.209,M,1.6,2006*70
$PMSBATV,013903.60,2,2,1.07307,0.87449,63.16534,0.000,0.000,0.000,68.33559,0.000*40
$GPGGA,013903.70,3427.666765136,N,13630.983063224,E,5,13,0.92,104.684,M,39.209,M,1.7,2006*7C
$PMSBATV,013903.70,2,2,1.07182,0.87449,63.16314,-0.000,0.000,-0.000,68.33559,0.000*4A
$GPGGA,013903.80,3427.666765127,N,13630.983063224,E,5,13,0.92,104.684,M,39.209,M,1.8,2006*7C
$PMSBATV,013903.80,2,2,1.07464,0.86980,63.16455,-0.000,-0.000,-0.000,68.33559,0.000*6E
$GPGGA,013903.90,3427.666765117,N,13630.983063228,E,5,13,0.92,104.684,M,39.209,M,1.9,2006*73
$PMSBATV,013903.90,2,2,1.06904,0.86687,63.16538,-0.000,0.000,-0.000,68.33559,0.000*4A
$GPGGA,013904.00,3427.666765097,N,13630.983063248,E,5,13,0.92,104.684,M,39.209,M,2.0,2006*78
$PMSBATV,013904.00,2,2,1.06770,0.86799,63.16466,0.000,0.000,-0.000,68.33559,0.000*60
$GPGGA,013904.10,3427.666765099,N,13630.983063260,E,5,13,0.92,104.684,M,39.209,M,2.1,2006*7C
$PMSBATV,013904.10,2,2,1.06481,0.86815,63.16439,0.000,-0.000,-0.000,68.33559,0.000*40
$GPGGA,013904.20,3427.666765092,N,13630.983063252,E,5,13,0.92,104.684,M,39.209,M,2.2,2006*76
$PMSBATV,013904.20,2,2,1.07027,0.86981,63.16384,-0.000,-0.000,-0.000,68.33559,0.000*6A
$GPGGA,013904.30,3427.666765076,N,13630.983063281,E,5,13,0.92,104.684,M,39.209,M,2.3,2006*72
$PMSBATV,013904.30,2,2,1.06067,0.87722,63.16471,0.000,0.000,0.000,68.33559,0.000*48
$GPGGA,013904.40,3427.666765062,N,13630.983063283,E,5,13,0.92,104.684,M,39.209,M,2.4,2006*75
$PMSBATV,013904.40,2,2,1.06215,0.87410,63.16417,-0.000,0.000,0.000,68.33559,0.000*67
$GPGGA,013904.50,3427.666765048,N,13630.983063309,E,5,13,0.92,104.684,M,39.209,M,2.5,2006*7E
$PMSBATV,013904.50,2,2,1.06376,0.87598,63.16421,0.000,-0.000,-0.000,68.33559,0.000*4B
$GPGGA,013904.60,3427.666765033,N,13630.983063324,E,5,13,0.92,104.684,M,39.209,M,2.6,2006*7D
$PMSBATV,013904.60,2,2,1.05731,0.86857,63.16386,-0.000,0.000,-0.000,68.33559,0.000*49
$GPGGA,013904.70,3427.666765021,N,13630.983063333,E,5,13,0.92,104.684,M,39.209,M,2.7,2006*78
$PMSBATV,013904.70,2,2,1.06097,0.86422,63.16535,-0.000,-0.000,0.000,68.33559,0.000*40
$GPGGA,013904.80,3427.666765005,N,13630.983063349,E,5,13,0.92,104.684,M,39.209,M,2.8,2006*73
$PMSBATV,013904.80,2,2,1.05846,0.86689,63.16167,0.000,0.000,-0.000,68.33559,0.000*65
$GPGGA,013904.90,3427.666764994,N,13630.983063369,E,5,13,0.92,104.684,M,39.209,M,2.9,2006*71
$PMSBATV,013904.90,2,2,1.05733,0.86591,63.16069,0.000,0.000,-0.000,68.33559,0.000*6C
$GPGGA,013905.00,3427.666764980,N,13630.983063366,E,5,13,0.92,104.684,M,39.209,M,3.0,2006*7B
$PMSBATV,013905.00,2,2,1.05921,0.85926,63.15797,-0.000,-0.000,0.000,68.33559,0.000*42
$GPGGA,013905.10,3427.666764966,N,13630.983063379,E,5,13,0.92,104.684,M,39.209,M,3.1,2006*7D
$PMSBATV,013905.10,2,2,1.06090,0.85976,63.15661,0.000,-0.000,-0.000,68.33559,0.000*4E
$GPGGA,013905.20,3427.666764960,N,13630.983063395,E,5,13,0.92,104.684,M,39.209,M,3.2,2006*79
$PMSBATV,013905.20,2,2,1.05621,0.86096,63.15887,0.000,-0.000,0.000,68.33559,0.000*6D
$GPGGA,013905.30,3427.666764951,N,13630.983063404,E,5,13,0.92,104.684,M,39.209,M,3.3,2006*74
$PMSBATV,013905.30,2,2,1.05866,0.86058,63.15909,-0.000,-0.000,0.000,68.33559,0.000*49
$GPGGA,013905.40,3427.666764943,N,13630.983063409,E,5,13,0.92,104.684,M,39.209,M,3.4,2006*7A
$PMSBATV,013905.40,2,2,1.05903,0.86105,63.15916,-0.000,0.000,0.000,68.33559,0.000*66
$GPGGA,013905.50,3427.666764941,N,13630.983063432,E,5,13,0.92,104.684,M,39.209,M,3.5,2006*70
$PMSBATV,013905.50,2,2,1.06061,0.86833,63.16057,0.000,-0.000,0.000,68.33559,0.000*6A
$GPGGA,013905.60,3427.666764931,N,13630.983063434,E,5,13,0.92,104.684,M,39.209,M,3.6,2006*71
$PMSBATV,013905.60,2,2,1.06043,0.86563,63.16408,-0.000,-0.000,-0.000,68.33559,0.000*6F
$GPGGA,013905.70,3427.666764925,N,13630.983063437,E,5,13,0.92,104.684,M,39.209,M,3.7,2006*77
$PMSBATV,013905.70,2,2,1.06352,0.86582,63.16324,-0.000,-0.000,-0.000,68.33559,0.000*6B
$GPGGA,013905.80,3427.666764917,N,13630.983063444,E,5,13,0.92,104.684,M,39.209,M,3.8,2006*72
$PMSBATV,013905.80,2,2,1.06243,0.86421,63.16402,0.000,-0.000,-0.000,68.33559,0.000*43
$GPGGA,013905.90,3427.666764911,N,13630.983063458,E,5,13,0.92,104.684,M,39.209,M,3.9,2006*79
$PMSBATV,013905.90,2,2,1.06209,0.86497,63.16388,-0.000,0.000,-0.000,68.33559,0.000*44
$GPGGA,013906.00,3427.666764907,N,13630.983063454,E,5,13,0.92,104.684,M,39.209,M,4.0,2006*76
$PMSBATV,013906.00,2,2,1.06570,0.86525,63.16192,-0.000,-0.000,0.000,68.33559,0.000*46
$GPGGA,013906.10,3427.666764902,N,13630.983063464,E,5,13,0.92,104.684,M,39.209,M,4.1,2006*70
$PMSBATV,013906.10,2,2,1.06465,0.86555,63.16222,0.000,0.000,-0.000,68.33559,0.000*60
$GPGGA,013906.20,3427.666764893,N,13630.983063469,E,5,13,0.92,104.685,M,39.209,M,4.2,2006*75
$PMSBATV,013906.20,2,2,1.06806,0.86548,63.16005,-0.000,0.000,-0.000,68.33559,0.000*4C
$GPGGA,013906.30,3427.666764891,N,13630.983063464,E,5,13,0.92,104.685,M,39.209,M,4.3,2006*7A
$PMSBATV,013906.30,2,2,1.06664,0.85975,63.15862,-0.000,-0.000,-0.000,68.33559,0.000*61
$GPGGA,013906.40,3427.666764886,N,13630.983063472,E,5,13,0.92,104.685,M,39.209,M,4.4,2006*7B
$PMSBATV,013906.40,2,2,1.05684,0.85879,63.15735,0.000,0.000,-0.000,68.33559,0.000*6B
$GPGGA,013906.50,3427.666764879,N,13630.983063485,E,5,13,0.92,104.685,M,39.209,M,4.5,2006*73
$PMSBATV,013906.50,2,2,1.06050,0.86492,63.15939,-0.000,0.000,-0.000,68.33559,0.000*43
$GPGGA,013906.60,3427.666764874,N,13630.983063488,E,5,13,0.92,104.685,M,39.209,M,4.6,2006*73
$PMSBATV,013906.60,2,2,1.06122,0.86036,63.16026,0.000,0.000,0.000,68.33559,0.000*4A
$GPGGA,013906.70,3427.666764868,N,13630.983063497,E,5,13,0.92,104.685,M,39.209,M,4.7,2006*70
$PMSBATV,013906.70,2,2,1.05437,0.86542,63.16118,0.000,0.000,0.000,68.33559,0.000*43
$GPGGA,013906.80,3427.666764862,N,13630.983063506,E,5,13,0.92,104.685,M,39.209,M,4.8,2006*73
$PMSBATV,013906.80,2,2,1.05473,0.86810,63.15987,0.000,0.000,-0.000,68.33559,0.000*66
$GPGGA,013906.90,3427.666764862,N,13630.983063503,E,5,13,0.92,104.685,M,39.209,M,4.9,2006*76
$PMSBATV,013906.90,2,2,1.06318,0.86824,63.15978,-0.000,-0.000,-0.000,68.33559,0.000*69
$GPGGA,013907.00,3427.666764860,N,13630.983063501,E,5,13,0.92,104.685,M,39.209,M,5.0,2006*76
$PMSBATV,013907.00,2,2,1.05616,0.87303,63.16195,-0.000,-0.000,-0.000,68.33559,0.000*6E
$GPGGA,013907.10,3427.666764853,N,13630.983063504,E,5,13,0.92,104.685,M,39.209,M,5.1,2006*73
$PMSBATV,013907.10,2,2,1.05477,0.87340,63.16221,0.000,-0.000,0.000,68.33559,0.000*61
$GPGGA,013907.20,3427.666764853,N,13630.983063503,E,5,13,0.92,104.685,M,39.209,M,5.2,2006*74
$PMSBATV,013907.20,2,2,1.06322,0.87219,63.16004,0.000,-0.000,-0.000,68.33559,0.000*43
$GPGGA,013907.30,3427.666764852,N,13630.983063491,E,5,13,0.92,104.685,M,39.209,M,5.3,2006*7F
$PMSBATV,013907.30,2,2,1.06238,0.87324,63.16050,-0.000,-0.000,-0.000,68.33559,0.000*6B
$GPGGA,013907.40,3427.666764848,N,13630.983063491,E,5,13,0.92,104.685,M,39.209,M,5.4,2006*74
$PMSBATV,013907.40,2,2,1.05585,0.87677,63.16132,0.000,0.000,0.000,68.33559,0.000*45
$GPGGA,013907.50,3427.666764844,N,13630.983063492,E,5,13,0.92,104.685,M,39.209,M,5.5,2006*7B
$PMSBATV,013907.50,2,2,1.05618,0.87752,63.16163,0.000,-0.000,-0.000,68.33559,0.000*41
$GPGGA,013907.60,3427.666764840,N,13630.983063485,E,5,13,0.92,104.685,M,39.209,M,5.6,2006*79
$PMSBATV,013907.60,2,2,1.05471,0.87078,63.15985,-0.000,-0.000,-0.000,68.33559,0.000*6E
$GPGGA,013907.70,3427.666764836,N,13630.983063486,E,5,13,0.92,104.685,M,39.209,M,5.7,2006*7B
$PMSBATV,013907.70,2,2,1.04778,0.87126,63.16059,0.000,0.000,0.000,68.33559,0.000*48
$GPGGA,013907.80,3427.666764837,N,13630.983063486,E,5,13,0.92,104.685,M,39.209,M,5.8,2006*7A
$PMSBATV,013907.80,2,2,1.05449,0.87037,63.15986,0.000,-0.000,-0.000,68.33559,0.000*4E
$GPGGA,013907.90,3427.666764835,N,13630.983063480,E,5,13,0.92,104.685,M,39.209,M,5.9,2006*7E
$PMSBATV,013907.90,2,2,1.05477,0.86592,63.15954,-0.000,0.000,-0.000,68.33559,0.000*46
$GPGGA,013908.00,3427.666764831,N,13630.983063474,E,5,13,0.92,104.685,M,39.209,M,6.0,2006*7D
$PMSBATV,013908.00,2,2,1.05527,0.86431,63.15841,-0.000,-0.000,-0.000,68.33559,0.000*64
$GPGGA,013908.10,3427.666764835,N,13630.983063474,E,5,13,0.92,104.685,M,39.209,M,1.1,2006*7E
$PMSBATV,013908.10,2,2,1.05564,0.86422,63.15805,0.000,-0.000,-0.000,68.33559,0.000*4D
$GPGGA,013908.20,3427.666764836,N,13630.983063466,E,5,13,0.92,104.685,M,39.209,M,1.2,2006*7E
$PMSBATV,013908.20,2,2,1.05988,0.86330,63.15792,-0.000,0.000,-0.000,68.33559,0.000*45
$GPGGA,013908.30,3427.666764840,N,13630.983063462,E,5,13,0.92,104.685,M,39.209,M,1.3,2006*7B
$PMSBATV,013908.30,2,2,1.06446,0.86410,63.15619,0.000,-0.000,-0.000,68.33559,0.000*4F
$GPGGA,013908.40,3427.666764843,N,13630.983063454,E,5,13,0.92,104.685,M,39.209,M,1.4,2006*7D
$PMSBATV,013908.40,2,2,1.06923,0.86100,63.15774,0.000,0.000,-0.000,68.33559,0.000*65
$GPGGA,013908.50,3427.666764841,N,13630.983063446,E,5,13,0.92,104.685,M,39.209,M,1.5,2006*7C
$PMSBATV,013908.50,2,2,1.06649,0.86057,63.15764,0.000,-0.000,-0.000,68.33559,0.000*48
$GPGGA,013908.60,3427.666764832,N,13630.983063441,E,5,13,0.92,104.685,M,39.209,M,1.6,2006*7F
$PMSBATV,013908.60,2,2,1.06165,0.85619,63.15911,-0.000,0.000,0.000,68.33559,0.000*6C
$GPGGA,013908.70,3427.666764827,N,13630.983063439,E,5,13,0.92,104.685,M,39.209,M,1.7,2006*74
$PMSBATV,013908.70,2,2,1.05874,0.86078,63.16330,0.000,0.000,0.000,68.33559,0.000*42
$GPGGA,013908.80,3427.666764826,N,13630.983063443,E,5,13,0.92,104.685,M,39.209,M,1.8,2006*78
$PMSBATV,013908.80,2,2,1.05627,0.86685,63.16300,0.000,0.000,0.000,68.33559,0.000*42
$GPGGA,013908.90,3427.666764828,N,13630.983063437,E,5,13,0.92,104.685,M,39.209,M,1.9,2006*75
$PMSBATV,013908.90,2,2,1.06277,0.87021,63.16267,-0.000,-0.000,-0.000,68.33559,0.000*65
$GPGGA,013909.00,3427.666764832,N,13630.983063435,E,5,13,0.92,104.685,M,39.209,M,2.0,2006*7E
$PMSBATV,013909.00,2,2,1.05917,0.87356,63.16503,0.000,-0.000,-0.000,68.33559,0.000*48
$GPGGA,013909.10,3427.666764834,N,13630.983063427,E,5,13,0.92,104.685,M,39.209,M,2.1,2006*7B
$PMSBATV,013909.10,2,2,1.05595,0.87362,63.16698,-0.000,-0.000,-0.000,68.33559,0.000*64
$GPGGA,013909.20,3427.666764841,N,13630.983063428,E,5,13,0.92,104.685,M,39.209,M,2.2,2006*76
$PMSBATV,013909.20,2,2,1.06740,0.87957,63.16709,0.000,-0.000,-0.000,68.33559,0.000*46
$GPGGA,013909.30,3427.666764840,N,13630.983063422,E,5,13,0.92,104.685,M,39.209,M,2.3,2006*7D
$PMSBATV,013909.30,2,2,1.06365,0.87628,63.16833,-0.000,0.000,-0.000,68.33559,0.000*45
$GPGGA,013909.40,3427.666764836,N,13630.983063424,E,5,13,0.92,104.685,M,39.209,M,2.4,2006*7A
$PMSBATV,013909.40,2,2,1.05723,0.87502,63.16806,0.000,0.000,0.000,68.33559,0.000*4A
$GPGGA,013909.50,3427.666764835,N,13630.983063423,E,5,13,0.92,104.685,M,39.209,M,2.5,2006*7E
$PMSBATV,013909.50,2,2,1.06106,0.87725,63.16851,0.000,0.000,-0.000,68.33559,0.000*61
$GPGGA,013909.60,3427.666764830,N,13630.983063424,E,5,13,0.92,104.685,M,39.209,M,2.6,2006*7C
$PMSBATV,013909.60,2,2,1.06217,0.87766,63.16678,-0.000,0.000,-0.000,68.33559,0.000*4E
$GPGGA,013909.70,3427.666764828,N,13630.983063414,E,5,13,0.92,104.685,M,39.209,M,2.7,2006*76
$PMSBATV,013909.70,2,2,1.06427,0.87888,63.16474,-0.000,0.000,-0.000,68.33559,0.000*4B
$GPGGA,013909.80,3427.666764850,N,13630.983063460,E,5,13,0.92,104.685,M,39.209,M,2.8,2006*7A
$PMSBATV,013909.80,2,2,1.06501,0.88519,63.16512,0.000,0.000,0.000,68.33559,0.000*4A
$GPGGA,013909.90,3427.666764875,N,13630.983063499,E,5,13,0.92,104.685,M,39.209,M,2.9,2006*7B
$PMSBATV,013909.90,2,2,1.06624,0.88273,63.16645,-0.000,-0.000,-0.000,68.33559,0.000*68
$GPGGA,013910.00,3427.666764896,N,13630.983063529,E,5,13,0.92,104.685,M,39.209,M,3.0,2006*75
$PMSBATV,013910.00,2,2,1.06652,0.87626,63.16477,-0.000,-0.000,-0.000,68.33559,0.000*60
$GPGGA,013910.10,3427.666764923,N,13630.983063572,E,5,13,0.92,104.685,M,39.209,M,3.1,2006*74
$PMSBATV,013910.10,2,2,1.06783,0.88029,63.16707,0.000,-0.000,0.000,68.33559,0.000*6E
$GPGGA,013910.20,3427.666764949,N,13630.983063621,E,5,13,0.92,104.685,M,39.209,M,3.2,2006*7D
$PMSBATV,013910.20,2,2,1.07252,0.88214,63.16738,-0.000,0.000,0.000,68.33559,0.000*65
$GPGGA,013910.30,3427.666764972,N,13630.983063653,E,5,13,0.92,104.685,M,39.209,M,3.3,2006*70
$PMSBATV,013910.30,2,2,1.06608,0.87612,63.16594,-0.000,0.000,-0.000,68.33559,0.000*4A
$GPGGA,013910.40,3427.666764995,N,13630.983063691,E,5,13,0.92,104.685,M,39.209,M,3.4,2006*77
$PMSBATV,013910.40,2,2,1.06634,0.87816,63.16515,-0.000,-0.000,0.000,68.33559,0.000*41
$GPGGA,013910.50,3427.666765022,N,13630.983063737,E,5,13,0.92,104.685,M,39.209,M,3.5,2006*7E
$PMSBATV,013910.50,2,2,1.07005,0.88427,63.16551,0.000,-0.000,-0.000,68.33559,0.000*44
$GPGGA,013910.60,3427.666765050,N,13630.983063779,E,5,13,0.92,104.685,M,39.209,M,3.6,2006*71
$PMSBATV,013910.60,2,2,1.06685,0.88349,63.16727,-0.000,0.000,-0.000,68.33559,0.000*44
$GPGGA,013910.70,3427.666765072,N,13630.983063813,E,5,13,0.92,104.685,M,39.209,M,3.7,2006*72
$PMSBATV,013910.70,2,2,1.07222,0.88262,63.16787,-0.000,0.000,0.000,68.33559,0.000*62
$GPGGA,013910.80,3427.666765097,N,13630.983063853,E,5,13,0.92,104.685,M,39.209,M,3.8,2006*7D
$PMSBATV,013910.80,2,2,1.08306,0.88789,63.16585,0.000,-0.000,-0.000,68.33559,0.000*48
$GPGGA,013910.90,3427.666765122,N,13630.983063889,E,5,13,0.92,104.685,M,39.209,M,3.9,2006*75
$PMSBATV,013910.90,2,2,1.07869,0.89242,63.16602,0.000,0.000,-0.000,68.33559,0.000*66
$GPGGA,013911.00,3427.666765134,N,13630.983063916,E,5,13,0.92,104.686,M,39.209,M,4.0,2006*70
$PMSBATV,013911.00,2,2,1.07507,0.88793,63.16349,-0.000,0.000,-0.000,68.33559,0.000*44
$GPGGA,013911.10,3427.666765138,N,13630.983063919,E,5,13,0.92,104.686,M,39.209,M,4.1,2006*73
$PMSBATV,013911.10,2,2,1.08306,0.88880,63.16452,0.000,0.000,-0.000,68.33559,0.000*60
$GPGGA,013911.20,3427.666765148,N,13630.983063928,E,5,13,0.92,104.686,M,39.209,M,4.2,2006*76
$PMSBATV,013911.20,2,2,1.08529,0.89250,63.15913,-0.000,-0.000,-0.000,68.33559,0.000*65
$GPGGA,013911.30,3427.666765166,N,13630.983063959,E,5,13,0.92,104.686,M,39.209,M,4.3,2006*7C
$PMSBATV,013911.30,2,2,1.08095,0.89063,63.16008,-0.000,0.000,-0.000,68.33559,0.000*49
$GPGGA,013911.40,3427.666765186,N,13630.983063992,E,5,13,0.92,104.686,M,39.209,M,4.4,2006*75
$PMSBATV,013911.40,2,2,1.08399,0.89173,63.15842,-0.000,-0.000,-0.000,68.33559,0.000*69
$GPGGA,013911.50,3427.666765192,N,13630.983064004,E,5,13,0.92,104.686,M,39.209,M,4.5,2006*71
$PMSBATV,013911.50,2,2,1.07658,0.89404,63.15986,0.000,0.000,0.000,68.33559,0.000*4E
$GPGGA,013911.60,3427.666765187,N,13630.983064006,E,5,13,0.92,104.686,M,39.209,M,4.6,2006*77
$PMSBATV,013911.60,2,2,1.06638,0.89277,63.15779,-0.000,0.000,-0.000,68.33559,0.000*46
$GPGGA,013911.70,3427.666765197,N,13630.983064011,E,5,13,0.92,104.686,M,39.209,M,4.7,2006*70
$PMSBATV,013911.70,2,2,1.06857,0.89561,63.15425,-0.000,-0.000,-0.000,68.33559,0.000*67
$GPGGA,013911.80,3427.666765204,N,13630.983064020,E,5,13,0.92,104.686,M,39.209,M,4.8,2006*7B
$PMSBATV,013911.80,2,2,1.06717,0.89917,63.15442,-0.000,0.000,-0.000,68.33559,0.000*42
$GPGGA,013911.90,3427.666765209,N,13630.983064032,E,5,13,0.92,104.686,M,39.209,M,4.9,2006*75
$PMSBATV,013911.90,2,2,1.06441,0.90156,63.15373,-0.000,0.000,-0.000,68.33559,0.000*43
$GPGGA,013912.00,3427.666765219,N,13630.983064038,E,5,13,0.92,104.686,M,39.209,M,5.0,2006*7C
$PMSBATV,013912.00,2,2,1.07469,0.90305,63.15752,0.000,-0.000,-0.000,68.33559,0.000*41
$GPGGA,013912.10,3427.666765229,N,13630.983064051,E,5,13,0.92,104.686,M,39.209,M,5.1,2006*70
$PMSBATV,013912.10,2,2,1.06973,0.90794,63.15926,-0.000,0.000,-0.000,68.33559,0.000*46
$GPGGA,013912.20,3427.666765240,N,13630.983064071,E,5,13,0.92,104.686,M,39.209,M,5.2,2006*7D
$PMSBATV,013912.20,2,2,1.07117,0.91420,63.15927,0.000,0.000,0.000,68.33559,0.000*42
$GPGGA,013912.30,3427.666765243,N,13630.983064079,E,5,13,0.92,104.686,M,39.209,M,5.3,2006*76
$PMSBATV,013912.30,2,2,1.07531,0.91754,63.15928,-0.000,0.000,0.000,68.33559,0.000*61
$GPGGA,013912.40,3427.666765255,N,13630.983064092,E,5,13,0.92,104.686,M,39.209,M,5.4,2006*74
$PMSBATV,013912.40,2,2,1.07485,0.91525,63.15996,0.000,0.000,0.000,68.33559,0.000*44
$GPGGA,013912.50,3427.666765264,N,13630.983064097,E,5,13,0.92,104.686,M,39.209,M,5.5,2006*73
$PMSBATV,013912.50,2,2,1.07203,0.91075,63.15875,-0.000,0.000,-0.000,68.33559,0.000*41
$GPGGA,013912.60,3427.666765269,N,13630.983064111,E,5,13,0.92,104.686,M,39.209,M,5.6,2006*71
$PMSBATV,013912.60,2,2,1.06914,0.91180,63.15848,-0.000,0.000,-0.000,68.33559,0.000*4B
$GPGGA,013912.70,3427.666765278,N,13630.983064122,E,5,13,0.92,104.686,M,39.209,M,5.7,2006*71
$PMSBATV,013912.70,2,2,1.06575,0.91373,63.15753,-0.000,0.000,-0.000,68.33559,0.000*4A
$GPGGA,013912.80,3427.666765291,N,13630.983064142,E,5,13,0.92,104.686,M,39.209,M,5.8,2006*70
$PMSBATV,013912.80,2,2,1.06134,0.91428,63.15974,0.000,0.000,0.000,68.33559,0.000*46
$GPGGA,013912.90,3427.666765304,N,13630.983064145,E,5,13,0.92,104.686,M,39.209,M,5.9,2006*7A
$PMSBATV,013912.90,2,2,1.06214,0.91055,63.16016,-0.000,-0.000,-0.000,68.33559,0.000*6B
$GPGGA,013913.00,3427.666765316,N,13630.983064155,E,5,13,0.92,104.687,M,39.209,M,6.0,2006*7B
$PMSBATV,013913.00,2,2,1.06014,0.91190,63.16160,-0.000,-0.000,-0.000,68.33559,0.000*69
$GPGGA,013913.10,3427.666765323,N,13630.983064169,E,5,13,0.92,104.687,M,39.209,M,6.1,2006*72
$PMSBATV,013913.10,2,2,1.05580,0.91732,63.16389,-0.000,0.000,0.000,68.33559,0.000*68
$GPGGA,013913.20,3427.666765352,N,13630.983064210,E,5,13,0.92,104.687,M,39.209,M,6.2,2006*79
$PMSBATV,013913.20,2,2,1.05689,0.91757,63.16845,-0.000,-0.000,-0.000,68.33559,0.000*69
$GPGGA,013913.30,3427.666765371,N,13630.983064242,E,5,13,0.92,104.687,M,39.209,M,6.3,2006*7F
$PMSBATV,013913.30,2,2,1.05432,0.91424,63.16901,-0.000,0.000,-0.000,68.33559,0.000*41
$GPGGA,013913.40,3427.666765399,N,13630.983064284,E,5,13,0.92,104.687,M,39.209,M,6.4,2006*73
$PMSBATV,013913.40,2,2,1.05315,0.92162,63.16996,0.000,-0.000,-0.000,68.33559,0.000*4E
$GPGGA,013913.50,3427.666765410,N,13630.983064298,E,5,13,0.92,104.687,M,39.209,M,6.5,2006*78
$PMSBATV,013913.50,2,2,1.05257,0.91018,63.17053,-0.000,0.000,-0.000,68.33559,0.000*46
$GPGGA,013913.60,3427.666765422,N,13630.983064305,E,5,13,0.92,104.687,M,39.209,M,6.6,2006*7C
$PMSBATV,013913.60,2,2,1.06513,0.90145,63.17458,-0.000,-0.000,0.000,68.33559,0.000*46
$GPGGA,013913.70,3427.666765450,N,13630.983064341,E,5,13,0.92,104.687,M,39.209,M,6.7,2006*79
$PMSBATV,013913.70,2,2,1.08770,0.90461,63.17190,-0.000,-0.000,-0.000,68.33559,0.000*61
$GPGGA,013913.80,3427.666765477,N,13630.983064380,E,5,13,0.92,104.687,M,39.209,M,6.8,2006*71
$PMSBATV,013913.80,2,2,1.07325,0.90521,63.17305,-0.000,0.000,-0.000,68.33559,0.000*43
$GPGGA,013913.90,3427.666765498,N,13630.983064420,E,5,13,0.92,104.687,M,39.209,M,6.9,2006*7D
$PMSBATV,013913.90,2,2,1.06539,0.90152,63.17169,-0.000,-0.000,-0.000,68.33559,0.000*6D
$GPGGA,013914.00,3427.666765522,N,13630.983064466,E,5,13,0.92,104.687,M,39.209,M,7.0,2006*79
$PMSBATV,013914.00,2,2,1.07899,0.90240,63.17139,-0.000,-0.000,-0.000,68.33559,0.000*60
$GPGGA,013914.10,3427.666765551,N,13630.983064506,E,5,13,0.92,104.687,M,39.209,M,2.1,2006*7F
$PMSBATV,013914.10,2,2,1.07323,0.90472,63.17112,-0.000,0.000,0.000,68.33559,0.000*65
$GPGGA,013914.20,3427.666765575,N,13630.983064548,E,5,13,0.92,104.687,M,39.209,M,2.2,2006*73
$PMSBATV,013914.20,2,2,1.06998,0.90346,63.17313,-0.000,0.000,0.000,68.33559,0.000*6E
$GPGGA,013914.30,3427.666765601,N,13630.983064588,E,5,13,0.92,104.687,M,39.209,M,2.3,2006*7F
$PMSBATV,013914.30,2,2,1.08055,0.90487,63.16932,-0.000,-0.000,-0.000,68.33559,0.000*6B
$GPGGA,013914.40,3427.666765628,N,13630.983064625,E,5,13,0.92,104.687,M,39.209,M,2.4,2006*70
$PMSBATV,013914.40,2,2,1.07502,0.90352,63.16861,-0.000,-0.000,-0.000,68.33559,0.000*6C
$GPGGA,013914.50,3427.666765651,N,13630.983064673,E,5,13,0.92,104.687,M,39.209,M,2.5,2006*7D
$PMSBATV,013914.50,2,2,1.07187,0.91002,63.16494,-0.000,0.000,-0.000,68.33559,0.000*48
$GPGGA,013914.60,3427.666765681,N,13630.983064713,E,5,13,0.92,104.687,M,39.209,M,2.6,2006*77
$PMSBATV,013914.60,2,2,1.08419,0.90942,63.16625,-0.000,-0.000,-0.000,68.33559,0.000*6F
$GPGGA,013914.70,3427.666765704,N,13630.983064743,E,5,13,0.92,104.687,M,39.209,M,2.7,2006*7E
$PMSBATV,013914.70,2,2,1.07949,0.90604,63.16501,-0.000,-0.000,-0.000,68.33559,0.000*61
$GPGGA,013914.80,3427.666765730,N,13630.983064788,E,5,13,0.92,104.687,M,39.209,M,2.8,2006*7E
$PMSBATV,013914.80,2,2,1.08214,0.90813,63.16653,0.000,0.000,0.000,68.33559,0.000*43
$GPGGA,013914.90,3427.666765755,N,13630.983064823,E,5,13,0.92,104.687,M,39.209,M,2.9,2006*73
$PMSBATV,013914.90,2,2,1.09295,0.90423,63.16682,-0.000,-0.000,-0.000,68.33559,0.000*64
$GPGGA,013915.00,3427.666765774,N,13630.983064860,E,5,13,0.92,104.687,M,39.209,M,3.0,2006*77
$PMSBATV,013915.00,2,2,1.08966,0.89911,63.16550,-0.000,0.000,0.000,68.33559,0.000*62
$GPGGA,013915.10,3427.666765795,N,13630.983064900,E,5,13,0.92,104.687,M,39.209,M,3.1,2006*7F
$PMSBATV,013915.10,2,2,1.08168,0.90183,63.16607,-0.000,-0.000,-0.000,68.33559,0.000*6F
$GPGGA,013915.20,3427.666765823,N,13630.983064941,E,5,13,0.92,104.687,M,39.209,M,3.2,2006*78
$PMSBATV,013915.20,2,2,1.09204,0.90165,63.16500,-0.000,-0.000,0.000,68.33559,0.000*45
$GPGGA,013915.30,3427.666765848,N,13630.983064977,E,5,13,0.92,104.687,M,39.209,M,3.3,2006*70
$PMSBATV,013915.30,2,2,1.09726,0.90163,63.16389,-0.000,-0.000,-0.000,68.33559,0.000*6D
$GPGGA,013915.40,3427.666765867,N,13630.983065013,E,5,13,0.92,104.687,M,39.209,M,3.4,2006*77
$PMSBATV,013915.40,2,2,1.10012,0.89509,63.16371,-0.000,-0.000,0.000,68.33559,0.000*48
$GPGGA,013915.50,3427.666765888,N,13630.983065063,E,5,13,0.92,104.687,M,39.209,M,3.5,2006*71
$PMSBATV,013915.50,2,2,1.08878,0.89413,63.16489,0.000,-0.000,0.000,68.33559,0.000*63
$GPGGA,013915.60,3427.666765909,N,13630.983065102,E,5,13,0.92,104.687,M,39.209,M,3.6,2006*7F
$PMSBATV,013915.60,2,2,1.08558,0.89526,63.16332,-0.000,-0.000,0.000,68.33559,0.000*42
$GPGGA,013915.70,3427.666765930,N,13630.983065151,E,5,13,0.92,104.687,M,39.209,M,3.7,2006*73
$PMSBATV,013915.70,2,2,1.08207,0.89584,63.16637,0.000,-0.000,-0.000,68.33559,0.000*46
$GPGGA,013915.80,3427.666765937,N,13630.983065164,E,5,13,0.92,104.688,M,39.209,M,3.8,2006*7D
$PMSBATV,013915.80,2,2,1.08197,0.89566,63.16504,-0.000,0.000,-0.000,68.33559,0.000*4C
$GPGGA,013915.90,3427.666765943,N,13630.983065171,E,5,13,0.92,104.688,M,39.209,M,3.9,2006*7A
$PMSBATV,013915.90,2,2,1.08025,0.89499,63.16685,-0.000,-0.000,-0.000,68.33559,0.000*63
$GPGGA,013916.00,3427.666765967,N,13630.983065210,E,5,13,0.92,104.688,M,39.209,M,4.0,2006*7C
$PMSBATV,013916.00,2,2,1.08785,0.89711,63.16581,-0.000,-0.000,-0.000,68.33559,0.000*60
$GPGGA,013916.10,3427.666765993,N,13630.983065254,E,5,13,0.92,104.688,M,39.209,M,4.1,2006*77
$PMSBATV,013916.10,2,2,1.08398,0.89989,63.16570,0.000,-0.000,-0.000,68.33559,0.000*45
$GPGGA,013916.20,3427.666766013,N,13630.983065293,E,5,13,0.92,104.688,M,39.209,M,4.2,2006*7E
$PMSBATV,013916.20,2,2,1.08650,0.89846,63.16299,-0.000,0.000,0.000,68.33559,0.000*68
$GPGGA,013916.30,3427.666766029,N,13630.983065333,E,5,13,0.92,104.688,M,39.209,M,4.3,2006*7C
$PMSBATV,013916.30,2,2,1.07950,0.89115,63.16631,-0.000,0.000,-0.000,68.33559,0.000*4D
$GPGGA,013916.40,3427.666766045,N,13630.983065362,E,5,13,0.92,104.688,M,39.209,M,4.4,2006*72
$PMSBATV,013916.40,2,2,1.08606,0.89148,63.16855,-0.000,0.000,0.000,68.33559,0.000*60
$GPGGA,013916.50,3427.666766069,N,13630.983065421,E,5,13,0.92,104.688,M,39.209,M,4.5,2006*7C
$PMSBATV,013916.50,2,2,1.09321,0.89648,63.16799,0.001,0.000,-0.000,68.33559,0.000*69
$GPGGA,013916.60,3427.666766086,N,13630.983065441,E,5,13,0.92,104.688,M,39.209,M,4.6,2006*7B
$PMSBATV,013916.60,2,2,1.09257,0.88583,63.16774,-0.001,-0.000,-0.000,68.33559,0.000*6C
$GPGGA,013916.70,3427.666766093,N,13630.983065454,E,5,13,0.92,104.688,M,39.209,M,4.7,2006*7B
$PMSBATV,013916.70,2,2,1.07907,0.87505,63.16593,-0.000,-0.000,0.000,68.33559,0.000*4B
$GPGGA,013916.80,3427.666766122,N,13630.983065520,E,5,13,0.92,104.688,M,39.209,M,4.8,2006*72
$PMSBATV,013916.80,2,2,1.09156,0.90464,63.16774,-0.001,0.000,-0.000,68.33559,0.000*4C
$GPGGA,013916.90,3427.666766164,N,13630.983065588,E,5,13,0.92,104.688,M,39.209,M,4.9,2006*72
$PMSBATV,013916.90,2,2,1.10185,0.90354,63.16462,0.002,-0.000,-0.000,68.33559,0.000*48
$GPGGA,013917.00,3427.666766179,N,13630.983065637,E,5,13,0.92,104.688,M,39.209,M,5.0,2006*79
$PMSBATV,013917.00,2,2,1.08318,0.91204,63.16371,-0.001,0.000,-0.000,68.33559,0.000*4C
$GPGGA,013917.10,3427.666766235,N,13630.983065785,E,5,13,0.92,104.688,M,39.209,M,5.1,2006*7A
$PMSBATV,013917.10,2,2,1.09490,0.97284,63.16537,0.003,0.000,-0.000,68.33559,0.000*6E
$GPGGA,013917.20,3427.666766276,N,13630.983065855,E,5,13,0.92,104.688,M,39.209,M,5.2,2006*7F
$PMSBATV,013917.20,2,2,1.11373,0.98477,63.16596,0.002,-0.000,-0.000,68.33559,0.000*4C
$GPGGA,013917.30,3427.666766320,N,13630.983065968,E,5,13,0.92,104.688,M,39.209,M,5.3,2006*72
$PMSBATV,013917.30,2,2,1.09411,1.02732,63.16808,0.002,0.000,-0.000,68.33559,0.000*60
$GPGGA,013917.40,3427.666766339,N,13630.983066009,E,5,13,0.92,104.688,M,39.209,M,5.4,2006*77
$PMSBATV,013917.40,2,2,1.09730,1.04003,63.17308,0.001,-0.000,-0.000,68.33559,0.000*40
$GPGGA,013917.50,3427.666766388,N,13630.983066103,E,5,13,0.92,104.688,M,39.209,M,5.5,2006*76
$PMSBATV,013917.50,2,2,1.09772,1.07841,63.18118,0.002,-0.000,-0.000,68.33559,0.000*45
$GPGGA,013917.60,3427.666766423,N,13630.983066210,E,5,13,0.92,104.688,M,39.209,M,5.6,2006*71
$PMSBATV,013917.60,2,2,1.08409,1.13452,63.19587,0.003,0.000,0.000,68.33559,0.000*41
$GPGGA,013917.70,3427.666766552,N,13630.983066721,E,5,13,0.92,104.688,M,39.209,M,5.7,2006*71
$PMSBATV,013917.70,2,2,1.09919,1.18722,63.21288,0.001,-0.003,0.001,68.33559,0.000*6C
$GPGGA,013917.80,3427.666766798,N,13630.983066524,E,5,13,0.92,104.688,M,39.209,M,5.8,2006*72
$PMSBATV,013917.80,2,2,1.06980,1.25937,63.23767,-0.010,-0.018,-0.003,68.33559,0.000*66
$GPGGA,013917.90,3427.666767766,N,13630.983064230,E,5,13,0.92,104.689,M,39.209,M,5.9,2006*73
$PMSBATV,013917.90,2,2,1.04086,1.35760,63.26955,-0.020,-0.028,-0.001,68.33559,0.000*6F
$GPGGA,013918.00,3427.666768348,N,13630.983059850,E,5,13,0.92,104.688,M,39.209,M,6.0,2006*7B
$PMSBATV,013918.00,2,2,1.01305,1.48422,63.29664,-0.060,-0.037,0.002,68.33559,0.000*4D
$GPGGA,013918.10,3427.666767389,N,13630.983050379,E,5,13,0.92,104.687,M,39.209,M,1.1,2006*78
$PMSBATV,013918.10,2,2,0.98361,1.61694,63.33436,-0.086,-0.038,-0.015,68.33559,0.000*69
$GPGGA,013918.20,3427.666765055,N,13630.983040334,E,5,13,0.92,104.692,M,39.209,M,1.2,2006*74
$PMSBATV,013918.20,2,2,0.98261,1.72830,63.37589,-0.096,-0.031,-0.010,68.33559,0.000*65
$GPGGA,013918.30,3427.666762259,N,13630.983032264,E,5,13,0.92,104.691,M,39.209,M,1.3,2006*7F
$PMSBATV,013918.30,2,2,0.92274,1.86588,63.41877,-0.118,-0.059,-0.021,68.33559,0.000*69
$GPGGA,013918.40,3427.666763763,N,13630.983017209,E,5,13,0.92,104.696,M,39.209,M,1.4,2006*79
$PMSBATV,013918.40,2,2,0.89418,2.00472,63.46178,-0.150,-0.079,-0.002,68.33559,0.000*6F
$GPGGA,013918.50,3427.666763238,N,13630.982999483,E,5,13,0.92,104.690,M,39.209,M,1.5,2006*7E
$PMSBATV,013918.50,2,2,0.89315,2.10400,63.52575,-0.186,-0.063,-0.010,68.33559,0.000*6F
$GPGGA,013918.60,3427.666756483,N,13630.982983590,E,5,13,0.92,104.691,M,39.209,M,1.6,2006*77
$PMSBATV,013918.60,2,2,0.95186,2.16080,63.59468,-0.212,-0.045,-0.009,68.33559,0.000*67
$GPGGA,013918.70,3427.666749892,N,13630.982967864,E,5,13,0.92,104.692,M,39.209,M,1.7,2006*7A
$PMSBATV,013918.70,2,2,0.89015,2.26439,63.71247,-0.232,-0.090,-0.014,68.33559,0.000*62
$GPGGA,013918.80,3427.666753560,N,13630.982943458,E,5,13,0.92,104.691,M,39.209,M,1.8,2006*77
$PMSBATV,013918.80,2,2,0.85523,2.42956,63.84658,-0.269,-0.109,-0.008,68.33559,0.000*65
$GPGGA,013918.90,3427.666752149,N,13630.982918600,E,5,13,0.92,104.685,M,39.209,M,1.9,2006*7D
$PMSBATV,013918.90,2,2,0.88252,2.56224,63.99638,-0.300,-0.081,-0.008,-93.61873,0.299*4F
$GPGGA,013919.00,3427.666742268,N,13630.982897496,E,5,13,0.92,104.686,M,39.209,M,2.0,2006*76
$PMSBATV,013919.00,2,2,0.88199,2.61835,64.13233,-0.314,-0.098,-0.046,-101.40773,0.318*7E
$GPGGA,013919.10,3427.666741499,N,13630.982873880,E,5,13,0.92,104.699,M,39.209,M,2.1,2006*72
