$GPGGA,060239.10,3427.667402606,N,13630.982809847,E,4,12,1.06,103.517,M,39.209,M,2.1,2006*76
$PMSBATV,060239.10,1,2,0.79175,1.18752,6.37716,0.001,-0.005,0.003,0.00000,0.000*6C
$GPGGA,060239.20,3427.667401646,N,13630.982808930,E,4,12,1.06,103.523,M,39.209,M,2.2,2006*76
$PMSBATV,060239.20,1,2,0.77916,1.18925,6.37079,0.001,-0.009,0.022,0.00000,0.000*63
$GPGGA,060239.30,3427.667401662,N,13630.982807791,E,4,12,1.06,103.517,M,39.209,M,2.3,2006*7D
$PMSBATV,060239.30,1,2,0.81375,1.19559,6.44233,-0.001,-0.001,0.027,0.00000,0.000*4A
$GPGGA,060239.40,3427.667401255,N,13630.982808896,E,4,12,1.06,103.514,M,39.209,M,2.4,2006*79
$PMSBATV,060239.40,1,2,0.84863,1.21031,6.58482,-0.006,0.006,0.029,0.00000,0.000*66
$GPGGA,060239.50,3427.667400052,N,13630.982810243,E,4,12,1.06,103.512,M,39.209,M,2.5,2006*70
$PMSBATV,060239.50,1,2,0.79657,1.21388,6.45567,-0.007,-0.005,0.029,0.00000,0.000*44
$GPGGA,060239.60,3427.667399518,N,13630.982808000,E,4,13,0.93,103.511,M,39.209,M,2.6,2006*7F
$PMSBATV,060239.60,1,2,0.79313,1.19921,6.38920,-0.002,-0.006,0.032,0.00000,0.000*49
$GPGGA,060239.70,3427.667400254,N,13630.982807750,E,4,14,0.82,103.508,M,39.209,M,2.7,2006*75
$PMSBATV,060239.70,1,2,0.81146,1.29815,6.86915,-0.037,-0.003,0.025,0.00000,0.000*4E
$GPGGA,060239.80,3427.667391695,N,13630.982806383,E,4,14,0.82,103.510,M,39.209,M,2.8,2006*71
$PMSBATV,060239.80,1,2,0.80441,1.31298,6.93428,-0.044,-0.003,0.028,0.00000,0.000*4A
$GPGGA,060239.90,3427.667387886,N,13630.982805373,E,4,14,0.82,103.508,M,39.209,M,2.9,2006*7F
$PMSBATV,060239.90,1,2,0.76577,1.31707,6.57988,-0.049,-0.011,0.006,0.00000,0.000*48
$GPGGA,060240.00,3427.667384702,N,13630.982802818,E,4,14,0.82,103.516,M,39.209,M,3.0,2006*7E
$PMSBATV,060240.00,1,2,0.82464,1.27255,7.18309,-0.035,0.002,0.005,0.00000,0.000*6C
$GPGGA,060240.10,3427.667384813,N,13630.982805179,E,4,14,0.82,103.517,M,39.209,M,3.1,2006*79
$PMSBATV,060240.10,1,2,0.80294,1.20796,6.65958,-0.012,-0.000,0.019,0.00000,0.000*49
$GPGGA,060240.20,3427.667387688,N,13630.982805359,E,4,14,0.82,103.512,M,39.209,M,3.2,2006*73
$PMSBATV,060240.20,1,2,0.84326,1.20683,7.30769,-0.012,0.011,0.004,0.00000,0.000*6F
$GPGGA,060240.30,3427.667386643,N,13630.982807555,E,4,14,0.82,103.518,M,39.209,M,3.3,2006*77
$PMSBATV,060240.30,1,2,0.81925,1.18884,6.93542,-0.005,0.005,0.013,0.00000,0.000*66
$GPGGA,060240.40,3427.667387735,N,13630.982807140,E,4,14,0.82,103.515,M,39.209,M,3.4,2006*7B
$PMSBATV,060240.40,1,2,0.81373,1.16520,6.92816,0.003,0.005,0.035,0.00000,0.000*47
$GPGGA,060240.50,3427.667388991,N,13630.982807651,E,4,14,0.82,103.507,M,39.209,M,3.5,2006*70
$PMSBATV,060240.50,1,2,0.82451,1.12681,7.02327,0.015,0.010,0.026,0.00000,0.000*4E
$GPGGA,060240.60,3427.667391405,N,13630.982809313,E,4,14,0.82,103.508,M,39.209,M,3.6,2006*7A
$PMSBATV,060240.60,1,2,0.75774,1.14909,7.13112,0.009,-0.007,0.020,0.00000,0.000*6C
$GPGGA,060240.70,3427.667391256,N,13630.982806135,E,4,14,0.82,103.510,M,39.209,M,3.7,2006*7A
$PMSBATV,060240.70,1,2,0.77177,1.17515,6.90023,0.000,-0.004,-0.001,0.00000,0.000*45
$GPGGA,060240.80,3427.667389641,N,13630.982806259,E,4,14,0.82,103.519,M,39.209,M,3.8,2006*71
$PMSBATV,060240.80,1,2,0.81590,1.18344,6.53652,-0.002,0.008,0.017,0.00000,0.000*68
$GPGGA,060240.90,3427.667389104,N,13630.982808416,E,4,14,0.82,103.513,M,39.209,M,3.9,2006*7E
$PMSBATV,060240.90,1,2,0.80127,1.17177,6.70324,0.005,0.002,0.019,0.00000,0.000*46
$GPGGA,060241.00,3427.667390433,N,13630.982807874,E,4,14,0.82,103.512,M,39.209,M,4.0,2006*77
$PMSBATV,060241.00,1,2,0.80294,1.16369,6.67277,0.009,0.002,0.029,0.00000,0.000*47
$GPGGA,060241.10,3427.667391407,N,13630.982808175,E,4,14,0.82,103.509,M,39.209,M,4.1,2006*7C
$PMSBATV,060241.10,1,2,0.78591,1.16498,6.74073,0.009,-0.001,0.037,0.00000,0.000*6F
$GPGGA,060241.20,3427.667391850,N,13630.982807603,E,4,14,0.82,103.504,M,39.209,M,4.2,2006*76
$PMSBATV,060241.20,1,2,0.77577,1.18494,6.87603,0.004,-0.006,0.002,0.00000,0.000*68
$GPGGA,060241.30,3427.667390944,N,13630.982806450,E,4,14,0.82,103.516,M,39.209,M,4.3,2006*75
$PMSBATV,060241.30,1,2,0.78644,1.19550,6.86160,-0.000,-0.004,0.001,0.00000,0.000*46
$GPGGA,060241.40,3427.667390486,N,13630.982806705,E,4,14,0.82,103.518,M,39.209,M,4.4,2006*7B
$PMSBATV,060241.40,1,2,0.79205,1.18509,6.79191,0.004,-0.003,0.017,0.00000,0.000*6B
$GPGGA,060241.50,3427.667391138,N,13630.982806763,E,4,14,0.82,103.513,M,39.209,M,4.5,2006*71
$PMSBATV,060241.50,1,2,0.79550,1.21381,6.98472,-0.007,-0.003,0.022,0.00000,0.000*4E
$GPGGA,060241.60,3427.667389293,N,13630.982806236,E,4,14,0.82,103.512,M,39.209,M,4.6,2006*7E
$PMSBATV,060241.60,1,2,0.78599,1.21265,6.96801,-0.007,-0.006,0.015,0.00000,0.000*45
$GPGGA,060241.70,3427.667389031,N,13630.982805388,E,4,14,0.82,103.513,M,39.209,M,4.7,2006*72
$PMSBATV,060241.70,1,2,0.83920,1.19780,6.96921,-0.001,0.008,0.013,0.00000,0.000*6B
$GPGGA,060241.80,3427.667389547,N,13630.982808118,E,4,14,0.82,103.514,M,39.209,M,4.8,2006*77
$PMSBATV,060241.80,1,2,0.84274,1.20205,7.00181,-0.004,0.008,0.015,0.00000,0.000*64
$GPGGA,060241.90,3427.667388991,N,13630.982808738,E,4,14,0.82,103.514,M,39.209,M,4.9,2006*75
$PMSBATV,060241.90,1,2,0.82830,1.17833,6.83659,0.005,0.003,0.020,0.00000,0.000*4B
$GPGGA,060242.00,3427.667390633,N,13630.982808426,E,4,14,0.82,103.512,M,39.209,M,5.0,2006*73
$PMSBATV,060242.00,1,2,0.79902,1.17438,6.73693,0.007,-0.004,0.021,0.00000,0.000*62
$GPGGA,060242.10,3427.667391412,N,13630.982807199,E,4,14,0.82,103.512,M,39.209,M,5.1,2006*7D
$PMSBATV,060242.10,1,2,0.82933,1.20664,6.78933,-0.003,0.004,0.015,0.00000,0.000*67
$GPGGA,060242.20,3427.667389456,N,13630.982808370,E,4,14,0.82,103.514,M,39.209,M,5.2,2006*78
$PMSBATV,060242.20,1,2,0.82117,1.18411,6.76766,0.004,0.002,0.022,0.00000,0.000*49
$GPGGA,060242.30,3427.667390864,N,13630.982808538,E,4,14,0.82,103.510,M,39.209,M,5.3,2006*73
$PMSBATV,060242.30,1,2,0.79417,1.16576,6.73019,0.011,-0.005,0.019,0.00000,0.000*6B
$GPGGA,060242.40,3427.667392421,N,13630.982807337,E,4,14,0.82,103.512,M,39.209,M,5.4,2006*78
$PMSBATV,060242.40,1,2,0.81109,1.20103,6.73867,-0.001,-0.002,0.023,0.00000,0.000*41
$GPGGA,060242.50,3427.667390402,N,13630.982807536,E,4,14,0.82,103.510,M,39.209,M,5.5,2006*7E
$PMSBATV,060242.50,1,2,0.84431,1.17616,6.69711,0.008,0.007,0.024,0.00000,0.000*42
$GPGGA,060242.60,3427.667391961,N,13630.982809574,E,4,14,0.82,103.509,M,39.209,M,5.6,2006*77
$PMSBATV,060242.60,1,2,0.82497,1.19563,6.73185,0.002,0.003,0.036,0.00000,0.000*49
$GPGGA,060242.70,3427.667391261,N,13630.982808862,E,4,14,0.82,103.504,M,39.209,M,5.7,2006*7A
$PMSBATV,060242.70,1,2,0.84279,1.20397,6.75488,0.001,0.006,0.018,0.00000,0.000*4B
$GPGGA,060242.80,3427.667390831,N,13630.982809932,E,4,14,0.82,103.509,M,39.209,M,5.8,2006*7C
$PMSBATV,060242.80,1,2,0.81976,1.18760,6.69556,0.005,0.001,0.027,0.00000,0.000*42
$GPGGA,060242.90,3427.667391825,N,13630.982809225,E,4,14,0.82,103.505,M,39.209,M,5.9,2006*79
$PMSBATV,060242.90,1,2,0.82918,1.20726,6.72068,-0.001,0.004,0.027,0.00000,0.000*6F
$GPGGA,060243.00,3427.667390719,N,13630.982809719,E,4,14,0.82,103.504,M,39.209,M,6.0,2006*71
$PMSBATV,060243.00,1,2,0.80751,1.20986,6.68044,-0.001,-0.002,0.029,0.00000,0.000*42
$GPGGA,060243.10,3427.667390810,N,13630.982808706,E,4,14,0.82,103.503,M,39.209,M,6.1,2006*7F
$PMSBATV,060243.10,1,2,0.80675,1.20351,6.65139,0.002,-0.002,0.029,0.00000,0.000*6C
$GPGGA,060243.20,3427.667391177,N,13630.982808387,E,4,14,0.82,103.502,M,39.209,M,6.2,2006*7A
$PMSBATV,060243.20,1,2,0.77629,1.20433,6.55689,0.003,-0.010,0.004,0.00000,0.000*6F
$GPGGA,060243.30,3427.667391293,N,13630.982806656,E,4,14,0.82,103.510,M,39.209,M,6.3,2006*77
$PMSBATV,060243.30,1,2,0.82924,1.23492,6.87431,-0.007,0.003,0.001,0.00000,0.000*63
$GPGGA,060243.40,3427.667389290,N,13630.982808569,E,4,14,0.82,103.513,M,39.209,M,6.4,2006*7F
$PMSBATV,060243.40,1,2,0.80952,1.21186,6.64126,0.001,-0.003,0.005,0.00000,0.000*69
$GPGGA,060243.50,3427.667390639,N,13630.982807751,E,4,14,0.82,103.514,M,39.209,M,6.5,2006*71
$PMSBATV,060243.50,1,2,0.82347,1.19343,6.57186,0.009,0.001,0.030,0.00000,0.000*4F
$GPGGA,060243.60,3427.667392454,N,13630.982808630,E,4,14,0.82,103.505,M,39.209,M,6.6,2006*73
$PMSBATV,060243.60,1,2,0.84002,1.21635,6.78857,0.002,0.006,0.029,0.00000,0.000*4B
$GPGGA,060243.70,3427.667391138,N,13630.982809439,E,4,14,0.82,103.504,M,39.209,M,6.7,2006*74
$PMSBATV,060243.70,1,2,0.83279,1.22100,6.79139,-0.002,0.004,0.013,0.00000,0.000*67
$GPGGA,060243.80,3427.667390467,N,13630.982809359,E,4,14,0.82,103.509,M,39.209,M,6.8,2006*76
$PMSBATV,060243.80,1,2,0.84261,1.20755,6.76179,0.002,0.008,-0.006,0.00000,0.000*61
$GPGGA,060243.90,3427.667390891,N,13630.982810432,E,4,14,0.82,103.518,M,39.209,M,6.9,2006*71
$PMSBATV,060243.90,1,2,0.83650,1.19635,6.71155,0.005,0.007,0.024,0.00000,0.000*40
$GPGGA,060244.00,3427.667391666,N,13630.982810766,E,4,14,0.82,103.509,M,39.209,M,7.0,2006*72
$PMSBATV,060244.00,1,2,0.81045,1.22391,6.68257,-0.004,0.002,0.018,0.00000,0.000*62
$GPGGA,060244.10,3427.667390084,N,13630.982809651,E,4,14,0.82,103.510,M,39.209,M,2.1,2006*79
$PMSBATV,060244.10,1,2,0.80975,1.19734,6.67835,0.004,0.003,0.026,0.00000,0.000*4B
$GPGGA,060244.20,3427.667391540,N,13630.982810443,E,4,14,0.82,103.507,M,39.209,M,2.2,2006*7A
$PMSBATV,060244.20,1,2,0.83561,1.20405,6.75351,0.003,0.010,0.024,0.00000,0.000*44
$GPGGA,060244.30,3427.667391229,N,13630.982812079,E,4,14,0.82,103.507,M,39.209,M,2.3,2006*7D
$PMSBATV,060244.30,1,2,0.75296,1.19559,6.55704,0.007,-0.012,0.019,0.00000,0.000*62
$GPGGA,060244.40,3427.667392454,N,13630.982808160,E,4,14,0.82,103.509,M,39.209,M,2.4,2006*7E
$PMSBATV,060244.40,1,2,0.78802,1.19704,6.61032,0.006,-0.003,0.013,0.00000,0.000*6B
$GPGGA,060244.50,3427.667392283,N,13630.982809407,E,4,14,0.82,103.511,M,39.209,M,2.5,2006*7E
$PMSBATV,060244.50,1,2,0.79737,1.19751,6.62326,0.007,0.000,0.015,0.00000,0.000*4E
$GPGGA,060244.60,3427.667392590,N,13630.982809863,E,4,13,0.91,103.511,M,39.209,M,2.6,2006*70
$PMSBATV,060244.60,1,2,0.81644,1.20507,6.69714,0.003,0.005,0.023,0.00000,0.000*4E
$GPGGA,060244.70,3427.667392104,N,13630.982810784,E,4,13,0.91,103.508,M,39.209,M,2.7,2006*7F
$PMSBATV,060244.70,1,2,0.79544,1.21065,6.70513,0.001,-0.001,0.026,0.00000,0.000*68
$GPGGA,060244.80,3427.667392045,N,13630.982809795,E,4,13,0.91,103.506,M,39.209,M,2.8,2006*7D
$PMSBATV,060244.80,1,2,0.78100,1.20706,6.66560,0.002,-0.003,0.023,0.00000,0.000*66
$GPGGA,060244.90,3427.667392378,N,13630.982809344,E,4,13,0.91,103.506,M,39.209,M,2.9,2006*78
$PMSBATV,060244.90,1,2,0.78094,1.22725,6.79239,-0.005,-0.005,0.007,0.00000,0.000*47
$GPGGA,060245.00,3427.667390947,N,13630.982808535,E,4,13,0.91,103.512,M,39.209,M,3.0,2006*78
$PMSBATV,060245.00,1,2,0.79376,1.21633,6.74661,-0.002,-0.002,0.025,0.00000,0.000*40
$GPGGA,060245.10,3427.667391278,N,13630.982808983,E,4,13,0.91,103.505,M,39.209,M,3.1,2006*79
$PMSBATV,060245.10,1,2,0.81326,1.20881,6.76422,-0.002,0.003,0.035,0.00000,0.000*6F
$GPGGA,060245.20,3427.667391384,N,13630.982810013,E,4,13,0.91,103.501,M,39.209,M,3.2,2006*76
$PMSBATV,060245.20,1,2,0.79914,1.19192,6.59112,0.003,0.000,0.036,0.00000,0.000*46
$GPGGA,060245.30,3427.667392391,N,13630.982809749,E,4,13,0.91,103.498,M,39.209,M,3.3,2006*70
$PMSBATV,060245.30,1,2,0.82895,1.18767,6.67181,0.004,0.008,0.037,0.00000,0.000*4F
$GPGGA,060245.40,3427.667392560,N,13630.982811463,E,4,13,0.91,103.495,M,39.209,M,3.4,2006*77
$PMSBATV,060245.40,1,2,0.78075,1.20862,6.64285,-0.003,-0.006,0.007,0.00000,0.000*44
$GPGGA,060245.50,3427.667391141,N,13630.982808601,E,4,13,0.91,103.506,M,39.209,M,3.5,2006*76
$PMSBATV,060245.50,1,2,0.80482,1.22788,6.77378,-0.008,-0.001,0.003,0.00000,0.000*4E
$GPGGA,060245.60,3427.667389776,N,13630.982809041,E,4,13,0.91,103.509,M,39.209,M,3.6,2006*71
$PMSBATV,060245.60,1,2,0.80970,1.19430,6.62840,0.003,-0.001,-0.003,0.00000,0.000*4A
$GPGGA,060245.70,3427.667391566,N,13630.982809462,E,4,13,0.91,103.512,M,39.209,M,3.7,2006*74
$PMSBATV,060245.70,1,2,0.81349,1.20797,6.71559,-0.002,0.001,0.015,0.00000,0.000*62
$GPGGA,060245.80,3427.667390787,N,13630.982809718,E,4,13,0.91,103.507,M,39.209,M,3.8,2006*72
$PMSBATV,060245.80,1,2,0.80028,1.20730,6.67753,-0.000,-0.001,0.023,0.00000,0.000*40
$GPGGA,060245.90,3427.667391149,N,13630.982809364,E,4,13,0.91,103.504,M,39.209,M,3.9,2006*7B
$PMSBATV,060245.90,1,2,0.79849,1.20950,6.66800,-0.001,-0.002,0.017,0.00000,0.000*4D
$GPGGA,060246.00,3427.667390947,N,13630.982808996,E,4,13,0.91,103.506,M,39.209,M,4.0,2006*7C
$PMSBATV,060246.00,1,2,0.80894,1.21503,6.71018,-0.003,0.001,0.003,0.00000,0.000*64
$GPGGA,060246.10,3427.667390462,N,13630.982809230,E,4,13,0.91,103.512,M,39.209,M,4.1,2006*75
$PMSBATV,060246.10,1,2,0.81284,1.20757,6.69386,0.001,0.003,0.008,0.00000,0.000*46
$GPGGA,060246.20,3427.667390890,N,13630.982809942,E,4,13,0.91,103.512,M,39.209,M,4.2,2006*7A
$PMSBATV,060246.20,1,2,0.77627,1.18984,6.51281,0.005,-0.007,0.015,0.00000,0.000*66
$GPGGA,060246.30,3427.667392095,N,13630.982807998,E,4,14,0.82,103.510,M,39.209,M,4.3,2006*7B
$PMSBATV,060246.30,1,2,0.81576,1.18013,6.52390,0.008,0.002,0.013,0.00000,0.000*4F
$GPGGA,060246.40,3427.667392737,N,13630.982809749,E,4,14,0.82,103.511,M,39.209,M,4.4,2006*79
$PMSBATV,060246.40,1,2,0.79147,1.20765,6.65648,-0.003,-0.004,-0.004,0.00000,0.000*66
$GPGGA,060246.50,3427.667390935,N,13630.982808410,E,4,14,0.82,103.519,M,39.209,M,4.5,2006*71
$PMSBATV,060246.50,1,2,0.79637,1.20669,6.63923,-0.002,-0.003,0.011,0.00000,0.000*41
$GPGGA,060246.60,3427.667390832,N,13630.982808156,E,4,14,0.82,103.516,M,39.209,M,4.6,2006*7F
$PMSBATV,060246.60,1,2,0.83826,1.20280,6.61188,-0.003,0.008,0.017,0.00000,0.000*60
$GPGGA,060246.70,3427.667390229,N,13630.982810146,E,4,14,0.82,103.515,M,39.209,M,4.7,2006*74
$PMSBATV,060246.70,1,2,0.81462,1.20196,6.59380,-0.002,0.003,0.024,0.00000,0.000*60
$GPGGA,060246.80,3427.667390312,N,13630.982809511,E,4,14,0.82,103.514,M,39.209,M,4.8,2006*72
$PMSBATV,060246.80,1,2,0.81187,1.20503,6.60104,-0.004,0.003,0.026,0.00000,0.000*69
$GPGGA,060246.90,3427.667389786,N,13630.982809578,E,4,14,0.82,103.512,M,39.209,M,4.9,2006*7A
$PMSBATV,060246.90,1,2,0.79063,1.18637,6.54934,0.005,-0.003,0.012,0.00000,0.000*61
$GPGGA,060247.00,3427.667391547,N,13630.982808978,E,4,14,0.82,103.516,M,39.209,M,5.0,2006*75
$PMSBATV,060247.00,1,2,0.81809,1.18829,6.58569,0.004,0.006,0.042,0.00000,0.000*4F
$GPGGA,060247.10,3427.667391736,N,13630.982810585,E,4,14,0.82,103.504,M,39.209,M,5.1,2006*75
$PMSBATV,060247.10,1,2,0.79373,1.20828,6.62686,-0.000,-0.001,0.018,0.00000,0.000*42
$GPGGA,060247.20,3427.667390928,N,13630.982809218,E,4,14,0.82,103.511,M,39.209,M,5.2,2006*7A
$PMSBATV,060247.20,1,2,0.81712,1.20284,6.61214,0.001,0.004,0.014,0.00000,0.000*4D
$GPGGA,060247.30,3427.667391199,N,13630.982810441,E,4,14,0.82,103.513,M,39.209,M,5.3,2006*79
$PMSBATV,060247.30,1,2,0.82339,1.20270,6.62129,0.003,0.006,0.014,0.00000,0.000*47
$GPGGA,060247.40,3427.667391558,N,13630.982811222,E,4,14,0.82,103.513,M,39.209,M,5.4,2006*72
$PMSBATV,060247.40,1,2,0.81516,1.24379,6.70950,-0.010,0.004,0.008,0.00000,0.000*61
$GPGGA,060247.50,3427.667388844,N,13630.982810869,E,4,14,0.82,103.516,M,39.209,M,5.5,2006*7B
$PMSBATV,060247.50,1,2,0.78830,1.21719,6.67246,-0.000,-0.001,0.010,0.00000,0.000*42
$GPGGA,060247.60,3427.667390367,N,13630.982810093,E,4,14,0.82,103.517,M,39.209,M,5.6,2006*74
$PMSBATV,060247.60,1,2,0.80607,1.21354,6.68194,0.000,0.004,0.021,0.00000,0.000*45
$GPGGA,060247.70,3427.667390537,N,13630.982811221,E,4,14,0.82,103.513,M,39.209,M,5.7,2006*79
$PMSBATV,060247.70,1,2,0.76183,1.21169,6.60328,-0.000,-0.008,0.013,0.00000,0.000*4A
$GPGGA,060247.80,3427.667390619,N,13630.982808914,E,4,14,0.82,103.516,M,39.209,M,5.8,2006*76
$PMSBATV,060247.80,1,2,0.80234,1.19019,6.61022,0.008,0.005,0.005,0.00000,0.000*44
$GPGGA,060247.90,3427.667391840,N,13630.982811567,E,4,14,0.82,103.520,M,39.209,M,5.9,2006*70
$PMSBATV,060247.90,1,2,0.80630,1.16930,6.52198,0.014,0.008,0.043,0.00000,0.000*4A
$GPGGA,060248.00,3427.667393492,N,13630.982812508,E,4,14,0.82,103.506,M,39.209,M,6.0,2006*73
$PMSBATV,060248.00,1,2,0.75542,1.20226,6.68140,0.004,-0.005,0.018,0.00000,0.000*6A
$GPGGA,060248.10,3427.667392282,N,13630.982809918,E,4,14,0.82,103.514,M,39.209,M,1.1,2006*76
$PMSBATV,060248.10,1,2,0.76770,1.22278,6.71253,-0.003,-0.000,-0.008,0.00000,0.000*68
$GPGGA,060248.20,3427.667390806,N,13630.982810497,E,4,14,0.82,103.524,M,39.209,M,1.2,2006*73
$PMSBATV,060248.20,1,2,0.79852,1.17667,6.44887,0.014,0.007,0.019,0.00000,0.000*4E
$GPGGA,060248.30,3427.667393894,N,13630.982812631,E,4,14,0.82,103.517,M,39.209,M,1.3,2006*77
$PMSBATV,060248.30,1,2,0.76446,1.20718,6.65513,0.002,-0.007,0.007,0.00000,0.000*62
$GPGGA,060248.40,3427.667392296,N,13630.982809840,E,4,14,0.82,103.522,M,39.209,M,1.4,2006*7A
$PMSBATV,060248.40,1,2,0.78278,1.21826,6.67224,-0.000,-0.002,0.000,0.00000,0.000*4F
$GPGGA,060248.50,3427.667391832,N,13630.982810521,E,4,14,0.82,103.525,M,39.209,M,1.5,2006*78
$PMSBATV,060248.50,1,2,0.73953,1.20531,6.63365,0.003,-0.011,-0.007,0.00000,0.000*4B
$GPGGA,060248.60,3427.667392581,N,13630.982808580,E,4,14,0.82,103.530,M,39.209,M,1.6,2006*78
$PMSBATV,060248.60,1,2,0.79340,1.18166,6.51678,0.012,0.000,0.021,0.00000,0.000*4B
$GPGGA,060248.70,3427.667394312,N,13630.982810653,E,4,14,0.82,103.523,M,39.209,M,1.7,2006*74
$PMSBATV,060248.70,1,2,0.81151,1.17475,6.48077,0.015,0.003,0.040,0.00000,0.000*45
$GPGGA,060248.80,3427.667395532,N,13630.982811452,E,4,14,0.82,103.515,M,39.209,M,1.8,2006*76
$PMSBATV,060248.80,1,2,0.76282,1.20625,6.66658,0.004,-0.008,0.016,0.00000,0.000*6E
$GPGGA,060248.90,3427.667394024,N,13630.982808974,E,4,14,0.82,103.522,M,39.209,M,1.9,2006*70
$PMSBATV,060248.90,1,2,0.79996,1.23777,6.78984,-0.006,0.001,0.009,0.00000,0.000*6F
$GPGGA,060249.00,3427.667391883,N,13630.982810068,E,4,14,0.82,103.526,M,39.209,M,2.0,2006*7B
$PMSBATV,060249.00,1,2,0.80087,1.21685,6.69702,-0.001,-0.001,0.031,0.00000,0.000*47
$GPGGA,060249.10,3427.667392898,N,13630.982809910,E,4,14,0.82,103.518,M,39.209,M,2.1,2006*71
$PMSBATV,060249.10,1,2,0.80892,1.21795,6.73563,-0.002,0.004,0.024,0.00000,0.000*6B
$GPGGA,060249.20,3427.667392635,N,13630.982810802,E,4,14,0.82,103.519,M,39.209,M,2.2,2006*73
$PMSBATV,060249.20,1,2,0.75910,1.20937,6.54892,0.001,-0.010,-0.005,0.00000,0.000*40
$GPGGA,060249.30,3427.667393269,N,13630.982808144,E,4,14,0.82,103.530,M,39.209,M,2.3,2006*76
$PMSBATV,060249.30,1,2,0.79505,1.20708,6.69928,0.003,-0.001,0.014,0.00000,0.000*66
$GPGGA,060249.40,3427.667393632,N,13630.982809731,E,4,14,0.82,103.525,M,39.209,M,2.4,2006*7D
$PMSBATV,060249.40,1,2,0.79480,1.19630,6.68217,0.007,0.000,0.032,0.00000,0.000*47
$GPGGA,060249.50,3427.667394756,N,13630.982809949,E,4,14,0.82,103.518,M,39.209,M,2.5,2006*76
$PMSBATV,060249.50,1,2,0.78685,1.20558,6.67975,0.006,-0.002,0.016,0.00000,0.000*6F
$GPGGA,060249.60,3427.667394613,N,13630.982809490,E,4,14,0.82,103.523,M,39.209,M,2.6,2006*77
$PMSBATV,060249.60,1,2,0.84822,1.20756,6.81945,0.005,0.015,0.038,0.00000,0.000*4F
$GPGGA,060249.70,3427.667394583,N,13630.982813119,E,4,14,0.82,103.515,M,39.209,M,2.7,2006*77
$PMSBATV,060249.70,1,2,0.80659,1.21688,6.77851,0.002,0.007,0.047,0.00000,0.000*4A
$GPGGA,060249.80,3427.667394273,N,13630.982811985,E,4,14,0.82,103.510,M,39.209,M,2.8,2006*75
$PMSBATV,060249.80,1,2,0.79767,1.22165,6.78999,0.002,0.005,0.028,0.00000,0.000*49
$GPGGA,060249.90,3427.667394371,N,13630.982811860,E,4,14,0.82,103.515,M,39.209,M,2.9,2006*79
$PMSBATV,060249.90,1,2,0.79432,1.22501,6.77036,0.002,0.004,0.026,0.00000,0.000*41
$GPGGA,060250.00,3427.667394108,N,13630.982811898,E,4,14,0.82,103.514,M,39.209,M,3.0,2006*7A
$PMSBATV,060250.00,1,2,0.77143,1.21783,6.78540,0.005,-0.002,0.024,0.00000,0.000*63
$GPGGA,060250.10,3427.667394937,N,13630.982810861,E,4,14,0.82,103.515,M,39.209,M,3.1,2006*78
$PMSBATV,060250.10,1,2,0.76933,1.24680,6.70716,-0.004,-0.005,0.018,0.00000,0.000*46
$GPGGA,060250.20,3427.667393359,N,13630.982809934,E,4,14,0.82,103.517,M,39.209,M,3.2,2006*76
$PMSBATV,060250.20,1,2,0.81258,1.22304,6.85520,0.005,0.007,0.010,0.00000,0.000*42
$GPGGA,060250.30,3427.667394800,N,13630.982812487,E,4,14,0.82,103.520,M,39.209,M,3.3,2006*7D
$PMSBATV,060250.30,1,2,0.78164,1.23563,6.76176,0.000,-0.001,-0.003,0.00000,0.000*45
$GPGGA,060250.40,3427.667393946,N,13630.982810969,E,4,14,0.82,103.527,M,39.209,M,3.4,2006*71
$PMSBATV,060250.40,1,2,0.77171,1.26179,6.79140,-0.009,-0.003,-0.021,0.00000,0.000*6F
$GPGGA,060250.50,3427.667392352,N,13630.982810194,E,4,14,0.82,103.535,M,39.209,M,3.5,2006*76
$PMSBATV,060250.50,1,2,0.74340,1.23840,6.63730,0.001,-0.012,0.014,0.00000,0.000*6F
$GPGGA,060250.60,3427.667393952,N,13630.982808304,E,4,14,0.82,103.525,M,39.209,M,3.6,2006*7E
$PMSBATV,060250.60,1,2,0.78141,1.25112,6.82242,-0.005,-0.003,-0.004,0.00000,0.000*61
$GPGGA,060250.70,3427.667392777,N,13630.982809386,E,4,14,0.82,103.533,M,39.209,M,3.7,2006*7A
$PMSBATV,060250.70,1,2,0.80873,1.23429,6.81267,0.001,0.003,0.022,0.00000,0.000*4D
$GPGGA,060250.80,3427.667393617,N,13630.982810689,E,4,14,0.82,103.525,M,39.209,M,3.8,2006*79
$PMSBATV,060250.80,1,2,0.81324,1.23150,6.83301,0.002,0.006,0.045,0.00000,0.000*45
$GPGGA,060250.90,3427.667393905,N,13630.982811634,E,4,14,0.82,103.515,M,39.209,M,3.9,2006*71
$PMSBATV,060250.90,1,2,0.80667,1.23966,6.83874,-0.002,0.005,0.018,0.00000,0.000*65
$GPGGA,060251.00,3427.667393468,N,13630.982811431,E,4,14,0.82,103.523,M,39.209,M,4.0,2006*73
$PMSBATV,060251.00,1,2,0.82103,1.22399,6.80636,0.003,0.007,0.030,0.00000,0.000*4E
$GPGGA,060251.10,3427.667394156,N,13630.982812338,E,4,14,0.82,103.518,M,39.209,M,4.1,2006*79
$PMSBATV,060251.10,1,2,0.79094,1.21229,6.77146,0.007,0.001,0.018,0.00000,0.000*4D
$GPGGA,060251.20,3427.667395127,N,13630.982811616,E,4,14,0.82,103.522,M,39.209,M,4.2,2006*7D
$PMSBATV,060251.20,1,2,0.79105,1.23039,6.78337,0.001,0.000,0.047,0.00000,0.000*40
$GPGGA,060251.30,3427.667394750,N,13630.982811150,E,4,14,0.82,103.511,M,39.209,M,4.3,2006*7F
$PMSBATV,060251.30,1,2,0.81768,1.21108,6.77430,0.008,0.006,0.017,0.00000,0.000*4F
$GPGGA,060251.40,3427.667395863,N,13630.982812671,E,4,14,0.82,103.519,M,39.209,M,4.4,2006*7E
$PMSBATV,060251.40,1,2,0.76887,1.21624,6.80538,0.005,-0.006,0.018,0.00000,0.000*69
$GPGGA,060251.50,3427.667395707,N,13630.982810459,E,4,14,0.82,103.519,M,39.209,M,4.5,2006*79
$PMSBATV,060251.50,1,2,0.76952,1.20928,6.81058,0.007,-0.006,0.030,0.00000,0.000*69
$GPGGA,060251.60,3427.667396684,N,13630.982810062,E,4,14,0.82,103.514,M,39.209,M,4.6,2006*71
$PMSBATV,060251.60,1,2,0.79443,1.20649,6.75286,0.009,-0.002,0.019,0.00000,0.000*6B
$GPGGA,060251.70,3427.667397287,N,13630.982810878,E,4,14,0.82,103.517,M,39.209,M,4.7,2006*77
$PMSBATV,060251.70,1,2,0.78866,1.21259,6.79267,0.010,-0.003,0.022,0.00000,0.000*66
$GPGGA,060251.80,3427.667397732,N,13630.982810525,E,4,14,0.82,103.516,M,39.209,M,4.8,2006*78
$PMSBATV,060251.80,1,2,0.77207,1.24613,7.03834,-0.002,-0.007,-0.005,0.00000,0.000*66
$GPGGA,060251.90,3427.667396108,N,13630.982809284,E,4,14,0.82,103.527,M,39.209,M,4.9,2006*70
$PMSBATV,060251.90,1,2,0.84638,1.26234,6.99828,-0.008,0.010,-0.003,0.00000,0.000*48
$GPGGA,060252.00,3427.667394435,N,13630.982812314,E,4,14,0.82,103.528,M,39.209,M,5.0,2006*76
$PMSBATV,060252.00,1,2,0.81914,1.22798,6.79165,0.001,0.003,0.012,0.00000,0.000*44
$GPGGA,060252.10,3427.667396215,N,13630.982811749,E,4,14,0.82,103.525,M,39.209,M,5.1,2006*72
$PMSBATV,060252.10,1,2,0.78550,1.23233,6.80990,-0.001,-0.005,-0.006,0.00000,0.000*60
$GPGGA,060252.20,3427.667395735,N,13630.982809908,E,4,14,0.82,103.533,M,39.209,M,5.2,2006*73
$PMSBATV,060252.20,1,2,0.80152,1.21446,6.75060,0.005,-0.004,0.016,0.00000,0.000*6C
$GPGGA,060252.30,3427.667397028,N,13630.982810188,E,4,14,0.82,103.527,M,39.209,M,5.3,2006*77
$PMSBATV,060252.30,1,2,0.79896,1.21211,6.74240,0.006,-0.003,0.033,0.00000,0.000*6C
$GPGGA,060252.40,3427.667397570,N,13630.982810096,E,4,14,0.82,103.520,M,39.209,M,5.4,2006*76
$PMSBATV,060252.40,1,2,0.81195,1.25639,6.92627,-0.010,0.001,0.029,0.00000,0.000*6F
$GPGGA,060252.50,3427.667394588,N,13630.982810241,E,4,14,0.82,103.521,M,39.209,M,5.5,2006*7B
$PMSBATV,060252.50,1,2,0.80331,1.24638,6.88369,-0.006,-0.002,0.019,0.00000,0.000*4D
$GPGGA,060252.60,3427.667394802,N,13630.982809676,E,4,14,0.82,103.524,M,39.209,M,5.6,2006*79
$PMSBATV,060252.60,1,2,0.82420,1.22700,6.82847,0.001,0.004,0.037,0.00000,0.000*47
$GPGGA,060252.70,3427.667395934,N,13630.982811058,E,4,14,0.82,103.516,M,39.209,M,5.7,2006*7E
$PMSBATV,060252.70,1,2,0.85400,1.21803,6.84051,0.002,0.013,0.022,0.00000,0.000*44
$GPGGA,060252.80,3427.667395979,N,13630.982813219,E,4,14,0.82,103.520,M,39.209,M,5.8,2006*77
$PMSBATV,060252.80,1,2,0.82294,1.21223,6.79339,0.003,0.005,0.019,0.00000,0.000*4E
$GPGGA,060252.90,3427.667396440,N,13630.982812355,E,4,14,0.82,103.521,M,39.209,M,5.9,2006*7A
$PMSBATV,060252.90,1,2,0.79525,1.21857,6.78298,0.000,-0.002,0.004,0.00000,0.000*61
$GPGGA,060253.00,3427.667396154,N,13630.982810966,E,4,14,0.82,103.527,M,39.209,M,6.0,2006*76
$PMSBATV,060253.00,1,2,0.80401,1.21397,6.80095,0.003,0.000,0.008,0.00000,0.000*47
$GPGGA,060253.10,3427.667396648,N,13630.982811257,E,4,14,0.82,103.527,M,39.209,M,1.1,2006*73
$PMSBATV,060253.10,1,2,0.79932,1.22408,6.80367,0.000,0.000,0.012,0.00000,0.000*49
$GPGGA,060253.20,3427.667396219,N,13630.982811088,E,4,14,0.82,103.527,M,39.209,M,1.2,2006*73
$PMSBATV,060253.20,1,2,0.82847,1.23181,6.76945,-0.003,0.008,0.017,0.00000,0.000*68
$GPGGA,060253.30,3427.667395403,N,13630.982812654,E,4,14,0.82,103.525,M,39.209,M,1.3,2006*7B
$PMSBATV,060253.30,1,2,0.80259,1.23568,6.78780,-0.007,0.002,0.008,0.00000,0.000*64
$GPGGA,060253.40,3427.667394649,N,13630.982811733,E,4,14,0.82,103.529,M,39.209,M,1.4,2006*79
$PMSBATV,060253.40,1,2,0.79337,1.22650,6.78089,-0.003,-0.000,0.024,0.00000,0.000*4E
$GPGGA,060253.50,3427.667395230,N,13630.982811402,E,4,14,0.82,103.524,M,39.209,M,1.5,2006*7E
$PMSBATV,060253.50,1,2,0.82020,1.22784,6.80332,-0.001,0.008,0.012,0.00000,0.000*60
$GPGGA,060253.60,3427.667395135,N,13630.982813186,E,4,14,0.82,103.529,M,39.209,M,1.6,2006*7E
$PMSBATV,060253.60,1,2,0.74977,1.24226,6.81538,-0.008,-0.008,0.001,0.00000,0.000*41
$GPGGA,060253.70,3427.667394094,N,13630.982809952,E,4,14,0.82,103.534,M,39.209,M,1.7,2006*73
$PMSBATV,060253.70,1,2,0.77986,1.21917,6.74046,-0.001,-0.002,-0.001,0.00000,0.000*69
$GPGGA,060253.80,3427.667395160,N,13630.982811036,E,4,14,0.82,103.536,M,39.209,M,1.8,2006*78
$PMSBATV,060253.80,1,2,0.76691,1.21710,6.72239,0.001,-0.005,0.009,0.00000,0.000*64
$GPGGA,060253.90,3427.667395402,N,13630.982810278,E,4,14,0.82,103.534,M,39.209,M,1.9,2006*72
$PMSBATV,060253.90,1,2,0.77549,1.20606,6.65591,0.003,-0.002,0.015,0.00000,0.000*6E
$GPGGA,060254.00,3427.667395784,N,13630.982810612,E,4,14,0.82,103.533,M,39.209,M,2.0,2006*74
$PMSBATV,060254.00,1,2,0.80237,1.23266,6.84158,-0.006,0.003,0.024,0.00000,0.000*6F
$GPGGA,060254.10,3427.667394245,N,13630.982811338,E,4,14,0.82,103.529,M,39.209,M,2.1,2006*7A
$PMSBATV,060254.10,1,2,0.75685,1.23055,6.86451,-0.005,-0.008,0.015,0.00000,0.000*42
$GPGGA,060254.20,3427.667394446,N,13630.982809161,E,4,14,0.82,103.532,M,39.209,M,2.2,2006*72
$PMSBATV,060254.20,1,2,0.79255,1.19442,6.55304,0.006,0.002,0.033,0.00000,0.000*4B
$GPGGA,060254.30,3427.667396173,N,13630.982811307,E,4,14,0.82,103.526,M,39.209,M,2.3,2006*7D
$PMSBATV,060254.30,1,2,0.82752,1.20219,6.56934,0.003,0.011,0.027,0.00000,0.000*46
$GPGGA,060254.40,3427.667395719,N,13630.982813152,E,4,14,0.82,103.527,M,39.209,M,2.4,2006*75
$PMSBATV,060254.40,1,2,0.79035,1.19692,6.63000,0.007,-0.000,0.014,0.00000,0.000*6F
$GPGGA,060254.50,3427.667396770,N,13630.982811607,E,4,14,0.82,103.531,M,39.209,M,2.5,2006*7B
$PMSBATV,060254.50,1,2,0.81717,1.18308,6.48967,0.013,0.008,0.028,0.00000,0.000*47
$GPGGA,060254.60,3427.667398058,N,13630.982813621,E,4,14,0.82,103.526,M,39.209,M,2.6,2006*78
$PMSBATV,060254.60,1,2,0.79809,1.19365,6.57683,0.009,0.002,0.023,0.00000,0.000*48
$GPGGA,060254.70,3427.667397913,N,13630.982812949,E,4,14,0.82,103.527,M,39.209,M,2.7,2006*70
$PMSBATV,060254.70,1,2,0.72554,1.22116,6.93974,0.001,-0.016,0.008,0.00000,0.000*6F
$GPGGA,060254.80,3427.667396934,N,13630.982808659,E,4,14,0.82,103.533,M,39.209,M,2.8,2006*74
$PMSBATV,060254.80,1,2,0.74253,1.24157,6.90242,-0.004,-0.013,0.009,0.00000,0.000*44
$GPGGA,060254.90,3427.667395990,N,13630.982808207,E,4,14,0.82,103.534,M,39.209,M,2.9,2006*71
$PMSBATV,060254.90,1,2,0.82271,1.26403,6.74300,-0.011,0.005,0.005,0.00000,0.000*65
$GPGGA,060255.00,3427.667394013,N,13630.982811390,E,4,14,0.82,103.536,M,39.209,M,3.0,2006*77
$PMSBATV,060255.00,1,2,0.78212,1.25662,6.73027,-0.009,-0.004,0.007,0.00000,0.000*4D
$GPGGA,060255.10,3427.667394241,N,13630.982809603,E,4,14,0.82,103.536,M,39.209,M,3.1,2006*74
$PMSBATV,060255.10,1,2,0.81739,1.24600,6.70180,-0.004,0.004,-0.001,0.00000,0.000*47
$GPGGA,060255.20,3427.667394563,N,13630.982811233,E,4,14,0.82,103.541,M,39.209,M,3.2,2006*7D
$PMSBATV,060255.20,1,2,0.82876,1.23988,6.68606,-0.002,0.007,0.019,0.00000,0.000*6A
$GPGGA,060255.30,3427.667394959,N,13630.982812144,E,4,14,0.82,103.535,M,39.209,M,3.3,2006*7B
$PMSBATV,060255.30,1,2,0.84101,1.21834,6.64354,0.007,0.010,0.033,0.00000,0.000*48
$GPGGA,060255.40,3427.667396675,N,13630.982813434,E,4,14,0.82,103.529,M,39.209,M,3.4,2006*76
$PMSBATV,060255.40,1,2,0.80417,1.21870,6.58724,0.007,0.002,0.030,0.00000,0.000*45
$GPGGA,060255.50,3427.667397112,N,13630.982812146,E,4,14,0.82,103.529,M,39.209,M,3.5,2006*70
$PMSBATV,060255.50,1,2,0.78232,1.25397,6.56300,-0.005,-0.004,0.015,0.00000,0.000*4B
$GPGGA,060255.60,3427.667395200,N,13630.982810739,E,4,14,0.82,103.534,M,39.209,M,3.6,2006*72
$PMSBATV,060255.60,1,2,0.78553,1.22486,6.60369,0.006,-0.004,0.007,0.00000,0.000*6F
$GPGGA,060255.70,3427.667396972,N,13630.982810874,E,4,14,0.82,103.538,M,39.209,M,3.7,2006*75
$PMSBATV,060255.70,1,2,0.80939,1.22894,6.58375,0.005,-0.000,0.020,0.00000,0.000*62
$GPGGA,060255.80,3427.667397197,N,13630.982811612,E,4,14,0.82,103.534,M,39.209,M,3.8,2006*74
$PMSBATV,060255.80,1,2,0.82584,1.23308,6.56715,0.004,0.001,0.014,0.00000,0.000*4C
$GPGGA,060255.90,3427.667397022,N,13630.982811932,E,4,14,0.82,103.536,M,39.209,M,3.9,2006*74
$PMSBATV,060255.90,1,2,0.83386,1.22774,6.53264,0.006,0.004,0.016,0.00000,0.000*45
$GPGGA,060256.00,3427.667397539,N,13630.982812540,E,4,14,0.82,103.536,M,39.209,M,4.0,2006*75
$PMSBATV,060256.00,1,2,0.81379,1.22165,6.56186,0.007,0.000,0.020,0.00000,0.000*41
$GPGGA,060256.10,3427.667398325,N,13630.982812075,E,4,14,0.82,103.535,M,39.209,M,4.1,2006*71
$PMSBATV,060256.10,1,2,0.81029,1.23608,6.61786,0.003,-0.002,0.016,0.00000,0.000*67
$GPGGA,060256.20,3427.667397792,N,13630.982811499,E,4,14,0.82,103.537,M,39.209,M,4.2,2006*71
$PMSBATV,060256.20,1,2,0.83693,1.23358,6.50704,0.001,0.005,0.015,0.00000,0.000*42
$GPGGA,060256.30,3427.667397617,N,13630.982812952,E,4,14,0.82,103.537,M,39.209,M,4.3,2006*74
$PMSBATV,060256.30,1,2,0.81127,1.24734,6.59056,-0.004,-0.001,0.030,0.00000,0.000*4F
$GPGGA,060256.40,3427.667396846,N,13630.982811886,E,4,14,0.82,103.532,M,39.209,M,4.4,2006*71
$PMSBATV,060256.40,1,2,0.82171,1.24914,6.57296,-0.004,0.002,0.036,0.00000,0.000*6C
$GPGGA,060256.50,3427.667396487,N,13630.982812343,E,4,14,0.82,103.528,M,39.209,M,4.5,2006*7A
$PMSBATV,060256.50,1,2,0.77946,1.26059,6.64566,-0.007,-0.009,0.001,0.00000,0.000*40
$GPGGA,060256.60,3427.667395754,N,13630.982809976,E,4,14,0.82,103.540,M,39.209,M,4.6,2006*7C
$PMSBATV,060256.60,1,2,0.78597,1.27491,6.68813,-0.011,-0.007,0.006,0.00000,0.000*40
$GPGGA,060256.70,3427.667394709,N,13630.982809713,E,4,14,0.82,103.540,M,39.209,M,4.7,2006*78
$PMSBATV,060256.70,1,2,0.81993,1.26833,6.72115,-0.009,0.001,0.018,0.00000,0.000*63
$GPGGA,060256.80,3427.667394628,N,13630.982811117,E,4,14,0.82,103.536,M,39.209,M,4.8,2006*70
$PMSBATV,060256.80,1,2,0.82111,1.25208,6.64307,-0.004,0.002,0.018,0.00000,0.000*64
$GPGGA,060256.90,3427.667395259,N,13630.982811375,E,4,14,0.82,103.537,M,39.209,M,4.9,2006*74
$PMSBATV,060256.90,1,2,0.83597,1.23507,6.60414,0.001,0.007,0.017,0.00000,0.000*43
$GPGGA,060257.00,3427.667396032,N,13630.982812558,E,4,14,0.82,103.537,M,39.209,M,5.0,2006*72
$PMSBATV,060257.00,1,2,0.83491,1.21921,6.54314,0.006,0.007,0.010,0.00000,0.000*46
$GPGGA,060257.10,3427.667396917,N,13630.982813111,E,4,13,0.93,103.540,M,39.209,M,5.1,2006*73
$PMSBATV,060257.10,1,2,0.81268,1.19926,6.50694,0.014,0.002,0.035,0.00000,0.000*41
$GPGGA,060257.20,3427.667399004,N,13630.982812692,E,4,13,0.93,103.530,M,39.209,M,5.2,2006*7D
$PMSBATV,060257.20,1,2,0.82994,1.16014,6.42851,0.027,0.010,0.030,0.00000,0.000*4C
$GPGGA,060257.30,3427.667402320,N,13630.982814939,E,4,13,0.93,103.531,M,39.209,M,5.3,2006*74
$PMSBATV,060257.30,1,2,0.87224,1.16994,6.23855,0.024,0.021,0.049,0.00000,0.000*45
$GPGGA,060257.40,3427.667402923,N,13630.982817928,E,4,13,0.93,103.522,M,39.209,M,5.4,2006*7C
$PMSBATV,060257.40,1,2,0.84053,1.17557,6.48342,0.022,0.013,0.043,0.00000,0.000*4C
$GPGGA,060257.50,3427.667403515,N,13630.982817219,E,4,13,0.93,103.523,M,39.209,M,5.5,2006*7C
$PMSBATV,060257.50,1,2,0.79483,1.18404,6.80312,0.017,0.002,0.018,0.00000,0.000*47
$GPGGA,060257.60,3427.667403525,N,13630.982815556,E,4,13,0.93,103.531,M,39.209,M,5.6,2006*72
$PMSBATV,060257.60,1,2,0.81627,1.19847,6.56423,0.014,0.008,0.032,0.00000,0.000*4A
$GPGGA,060257.70,3427.667403682,N,13630.982816830,E,4,13,0.93,103.526,M,39.209,M,5.7,2006*74
$PMSBATV,060257.70,1,2,0.77345,1.19858,6.91071,0.014,-0.004,0.033,0.00000,0.000*65
$GPGGA,060257.80,3427.667404411,N,13630.982814950,E,4,13,0.93,103.525,M,39.209,M,5.8,2006*7D
$PMSBATV,060257.80,1,2,0.78520,1.22252,6.77427,0.006,0.000,0.043,0.00000,0.000*4A
$GPGGA,060257.90,3427.667403214,N,13630.982815307,E,4,13,0.93,103.521,M,39.209,M,5.9,2006*74
$PMSBATV,060257.90,1,2,0.78531,1.24375,6.82847,-0.000,-0.000,0.050,0.00000,0.000*4D
$GPGGA,060258.00,3427.667402246,N,13630.982815101,E,4,13,0.93,103.516,M,39.209,M,6.0,2006*7E
$PMSBATV,060258.00,1,2,0.81366,1.23008,6.71039,0.006,0.006,0.025,0.00000,0.000*48
$GPGGA,060258.10,3427.667403173,N,13630.982816605,E,4,13,0.93,103.523,M,39.209,M,1.1,2006*7B
$PMSBATV,060258.10,1,2,0.78151,1.24736,6.80140,-0.000,-0.001,0.018,0.00000,0.000*4A
$GPGGA,060258.20,3427.667402229,N,13630.982814963,E,4,13,0.93,103.526,M,39.209,M,1.2,2006*7E
$PMSBATV,060258.20,1,2,0.78714,1.25516,6.87254,-0.003,-0.000,0.017,0.00000,0.000*43
$GPGGA,060258.30,3427.667401630,N,13630.982814897,E,4,13,0.93,103.528,M,39.209,M,1.3,2006*75
$PMSBATV,060258.30,1,2,0.78150,1.22979,6.65782,0.006,-0.004,0.019,0.00000,0.000*66
$GPGGA,060258.40,3427.667403318,N,13630.982814277,E,4,13,0.93,103.528,M,39.209,M,1.4,2006*7C
$PMSBATV,060258.40,1,2,0.77957,1.24294,6.73705,0.002,-0.006,-0.001,0.00000,0.000*45
$GPGGA,060258.50,3427.667402852,N,13630.982813724,E,4,13,0.93,103.536,M,39.209,M,1.5,2006*73
$PMSBATV,060258.50,1,2,0.80203,1.25224,6.87885,0.001,0.000,0.026,0.00000,0.000*40
$GPGGA,060258.60,3427.667402759,N,13630.982814673,E,4,13,0.93,103.528,M,39.209,M,1.6,2006*7C
$PMSBATV,060258.60,1,2,0.79496,1.22370,6.64779,0.009,0.000,0.010,0.00000,0.000*44
$GPGGA,060258.70,3427.667404783,N,13630.982814886,E,4,13,0.93,103.534,M,39.209,M,1.7,2006*74
$PMSBATV,060258.70,1,2,0.80879,1.25985,6.94653,-0.003,0.005,0.006,0.00000,0.000*6A
$GPGGA,060258.80,3427.667402722,N,13630.982815563,E,4,13,0.93,103.536,M,39.209,M,1.8,2006*7C
$PMSBATV,060258.80,1,2,0.80968,1.27239,7.02048,-0.008,0.004,-0.011,0.00000,0.000*49
$GPGGA,060258.90,3427.667401360,N,13630.982815517,E,4,13,0.93,103.544,M,39.209,M,1.9,2006*7B
$PMSBATV,060258.90,1,2,0.77410,1.26154,6.90499,-0.005,-0.006,0.020,0.00000,0.000*44
$GPGGA,060259.00,3427.667401796,N,13630.982813524,E,4,13,0.93,103.536,M,39.209,M,2.0,2006*77
$PMSBATV,060259.00,1,2,0.77819,1.28574,7.00468,-0.013,-0.005,0.027,0.00000,0.000*44
$GPGGA,060259.10,3427.667400110,N,13630.982813171,E,4,13,0.93,103.533,M,39.209,M,2.1,2006*7F
$PMSBATV,060259.10,1,2,0.72271,1.37240,7.10077,-0.047,-0.022,0.014,0.00000,0.000*45
$GPGGA,060259.20,3427.667391873,N,13630.982807434,E,4,14,0.82,103.539,M,39.209,M,2.2,2006*70
$PMSBATV,060259.20,1,2,0.76902,1.35585,7.28303,-0.044,-0.013,0.054,0.00000,0.000*4F
$GPGGA,060259.30,3427.667389841,N,13630.982807610,E,4,14,0.82,103.524,M,39.209,M,2.3,2006*70
$PMSBATV,060259.30,1,2,0.81021,1.31023,7.36285,-0.031,-0.003,0.035,0.00000,0.000*47
$GPGGA,060259.40,3427.667389843,N,13630.982809044,E,4,14,0.82,103.528,M,39.209,M,2.4,2006*77
$PMSBATV,060259.40,1,2,0.84391,1.28400,7.51644,-0.023,0.006,0.049,0.00000,0.000*68
$GPGGA,060259.50,3427.667389470,N,13630.982810438,E,4,14,0.82,103.521,M,39.209,M,2.5,2006*75
$PMSBATV,060259.50,1,2,0.85192,1.25247,7.33943,-0.012,0.008,0.032,0.00000,0.000*6D
$GPGGA,060259.60,3427.667390271,N,13630.982811309,E,4,14,0.82,103.524,M,39.209,M,2.6,2006*7B
$PMSBATV,060259.60,1,2,0.79293,1.24048,6.72125,-0.008,-0.006,0.010,0.00000,0.000*47
$GPGGA,060259.70,3427.667390613,N,13630.982808792,E,4,14,0.82,103.532,M,39.209,M,2.7,2006*72
$PMSBATV,060259.70,1,2,0.85205,1.23805,7.10487,-0.006,0.011,0.007,0.00000,0.000*67
$GPGGA,060259.80,3427.667390045,N,13630.982811927,E,4,14,0.82,103.534,M,39.209,M,2.8,2006*79
$PMSBATV,060259.80,1,2,0.86043,1.18483,7.21594,0.012,0.013,0.038,0.00000,0.000*46
$GPGGA,060259.90,3427.667393461,N,13630.982813536,E,4,14,0.82,103.523,M,39.209,M,2.9,2006*70
$PMSBATV,060259.90,1,2,0.81888,1.22193,7.12149,-0.001,0.003,0.016,0.00000,0.000*64
$GPGGA,060300.00,3427.667391418,N,13630.982811648,E,4,14,0.82,103.530,M,39.209,M,3.0,2006*7A
$PMSBATV,060300.00,1,2,0.76796,1.22951,7.37195,-0.003,-0.010,-0.005,0.00000,0.000*6A
$GPGGA,060300.10,3427.667390902,N,13630.982808765,E,4,14,0.82,103.539,M,39.209,M,3.1,2006*72
$PMSBATV,060300.10,1,2,0.79553,1.21583,7.23286,0.001,-0.004,0.007,0.00000,0.000*6E
$GPGGA,060300.20,3427.667391583,N,13630.982809791,E,4,14,0.82,103.536,M,39.209,M,3.2,2006*73
$PMSBATV,060300.20,1,2,0.80840,1.22010,7.10407,-0.000,0.002,0.006,0.00000,0.000*61
$GPGGA,060300.30,3427.667391292,N,13630.982810546,E,4,14,0.82,103.538,M,39.209,M,3.3,2006*7A
$PMSBATV,060300.30,1,2,0.77756,1.20842,7.28910,0.002,-0.006,0.011,0.00000,0.000*6D
$GPGGA,060300.40,3427.667391852,N,13630.982808935,E,4,14,0.82,103.537,M,39.209,M,3.4,2006*72
$PMSBATV,060300.40,1,2,0.82105,1.22314,7.09565,-0.003,0.002,0.029,0.00000,0.000*69
$GPGGA,060300.50,3427.667390970,N,13630.982810467,E,4,14,0.82,103.531,M,39.209,M,3.5,2006*77
$PMSBATV,060300.50,1,2,0.82528,1.20694,7.02569,0.002,0.002,0.027,0.00000,0.000*49
$GPGGA,060300.60,3427.667391745,N,13630.982810635,E,4,14,0.82,103.530,M,39.209,M,3.6,2006*7A
$PMSBATV,060300.60,1,2,0.80013,1.22505,7.27687,-0.004,-0.006,0.012,0.00000,0.000*4C
$GPGGA,060300.70,3427.667390893,N,13630.982808778,E,4,14,0.82,103.535,M,39.209,M,3.7,2006*7B
$PMSBATV,060300.70,1,2,0.81100,1.21867,7.19303,-0.003,-0.004,0.006,0.00000,0.000*41
$GPGGA,060300.80,3427.667390875,N,13630.982809038,E,4,14,0.82,103.539,M,39.209,M,3.8,2006*7D
$PMSBATV,060300.80,1,2,0.86295,1.22790,7.03511,-0.005,0.011,0.037,0.00000,0.000*61
$GPGGA,060300.90,3427.667390251,N,13630.982811730,E,4,14,0.82,103.527,M,39.209,M,3.9,2006*78
$PMSBATV,060300.90,1,2,0.82297,1.21039,7.07876,0.002,0.002,0.027,0.00000,0.000*40
$GPGGA,060301.00,3427.667391205,N,13630.982810481,E,4,14,0.82,103.530,M,39.209,M,4.0,2006*70
$PMSBATV,060301.00,1,2,0.81607,1.20920,7.11275,0.002,-0.001,0.038,0.00000,0.000*68
$GPGGA,060301.10,3427.667391681,N,13630.982809991,E,4,14,0.82,103.524,M,39.209,M,4.1,2006*79
$PMSBATV,060301.10,1,2,0.84174,1.19761,7.03089,0.008,0.006,0.033,0.00000,0.000*47
$GPGGA,060301.20,3427.667392666,N,13630.982811611,E,4,14,0.82,103.524,M,39.209,M,4.2,2006*7D
$PMSBATV,060301.20,1,2,0.80217,1.22507,7.22075,-0.001,-0.005,-0.008,0.00000,0.000*63
$GPGGA,060301.30,3427.667391207,N,13630.982809294,E,4,14,0.82,103.539,M,39.209,M,4.3,2006*71
$PMSBATV,060301.30,1,2,0.78110,1.24201,7.35589,-0.006,-0.011,-0.010,0.00000,0.000*6D
$GPGGA,060301.40,3427.667390294,N,13630.982807341,E,4,14,0.82,103.543,M,39.209,M,4.4,2006*70
$PMSBATV,060301.40,1,2,0.81234,1.22956,7.20367,-0.002,-0.002,-0.007,0.00000,0.000*64
$GPGGA,060301.50,3427.667390838,N,13630.982808786,E,4,14,0.82,103.544,M,39.209,M,4.5,2006*7B
$PMSBATV,060301.50,1,2,0.83952,1.24701,7.23496,-0.007,0.005,0.009,0.00000,0.000*60
$GPGGA,060301.60,3427.667389624,N,13630.982809895,E,4,14,0.82,103.541,M,39.209,M,4.6,2006*79
$PMSBATV,060301.60,1,2,0.81738,1.22871,7.16227,-0.001,-0.001,0.010,0.00000,0.000*40
$GPGGA,060301.70,3427.667390730,N,13630.982809072,E,4,14,0.82,103.541,M,39.209,M,4.7,2006*74
$PMSBATV,060301.70,1,2,0.84015,1.22363,7.08020,0.001,0.008,0.015,0.00000,0.000*42
$GPGGA,060301.80,3427.667391128,N,13630.982810931,E,4,14,0.82,103.540,M,39.209,M,4.8,2006*7D
$PMSBATV,060301.80,1,2,0.78252,1.19758,7.04170,0.010,-0.006,0.026,0.00000,0.000*60
$GPGGA,060301.90,3427.667393325,N,13630.982808536,E,4,14,0.82,103.536,M,39.209,M,4.9,2006*73
$PMSBATV,060301.90,1,2,0.82245,1.21681,7.02502,0.003,0.003,0.027,0.00000,0.000*40
$GPGGA,060302.00,3427.667392381,N,13630.982810064,E,4,14,0.82,103.535,M,39.209,M,5.0,2006*76
$PMSBATV,060302.00,1,2,0.83679,1.21952,6.96422,0.002,0.008,0.023,0.00000,0.000*40
$GPGGA,060302.10,3427.667392151,N,13630.982811276,E,4,14,0.82,103.536,M,39.209,M,5.1,2006*7A
$PMSBATV,060302.10,1,2,0.82252,1.21981,7.05401,0.003,0.005,0.036,0.00000,0.000*41
$GPGGA,060302.20,3427.667392601,N,13630.982810976,E,4,14,0.82,103.530,M,39.209,M,5.2,2006*74
$PMSBATV,060302.20,1,2,0.85935,1.22275,6.89574,0.002,0.013,0.045,0.00000,0.000*48
$GPGGA,060302.30,3427.667392384,N,13630.982813012,E,4,14,0.82,103.525,M,39.209,M,5.3,2006*70
$PMSBATV,060302.30,1,2,0.82087,1.23429,7.11429,-0.003,0.004,0.031,0.00000,0.000*60
$GPGGA,060302.40,3427.667391628,N,13630.982811657,E,4,14,0.82,103.528,M,39.209,M,5.4,2006*78
$PMSBATV,060302.40,1,2,0.79022,1.22351,7.24119,0.000,-0.004,0.008,0.00000,0.000*6C
$GPGGA,060302.50,3427.667392114,N,13630.982810206,E,4,14,0.82,103.536,M,39.209,M,5.5,2006*7D
$PMSBATV,060302.50,1,2,0.81406,1.21880,7.15427,0.002,0.002,0.020,0.00000,0.000*45
$GPGGA,060302.60,3427.667392540,N,13630.982811303,E,4,14,0.82,103.532,M,39.209,M,5.6,2006*79
$PMSBATV,060302.60,1,2,0.80325,1.22587,7.21472,0.002,-0.000,0.019,0.00000,0.000*6A
$GPGGA,060302.70,3427.667392565,N,13630.982810870,E,4,14,0.82,103.532,M,39.209,M,5.7,2006*70
$PMSBATV,060302.70,1,2,0.80604,1.23403,7.24897,-0.002,0.001,-0.006,0.00000,0.000*41
$GPGGA,060302.80,3427.667391916,N,13630.982810882,E,4,14,0.82,103.542,M,39.209,M,5.8,2006*71
$PMSBATV,060302.80,1,2,0.77772,1.22945,7.30020,-0.003,-0.007,-0.009,0.00000,0.000*6C
$GPGGA,060302.90,3427.667391772,N,13630.982809286,E,4,14,0.82,103.546,M,39.209,M,5.9,2006*7F
$PMSBATV,060302.90,1,2,0.76999,1.23673,7.34424,-0.004,-0.007,-0.013,0.00000,0.000*64
$GPGGA,060303.00,3427.667391479,N,13630.982808732,E,4,14,0.82,103.550,M,39.209,M,6.0,2006*79
$PMSBATV,060303.00,1,2,0.77927,1.22577,7.21536,0.001,-0.006,0.016,0.00000,0.000*69
$GPGGA,060303.10,3427.667392417,N,13630.982808622,E,4,14,0.82,103.542,M,39.209,M,6.1,2006*71
$PMSBATV,060303.10,1,2,0.79183,1.22877,7.22329,0.001,-0.004,0.024,0.00000,0.000*65
$GPGGA,060303.20,3427.667392424,N,13630.982808674,E,4,14,0.82,103.539,M,39.209,M,6.2,2006*7E
$PMSBATV,060303.20,1,2,0.84078,1.23822,7.23819,-0.002,0.008,0.013,0.00000,0.000*62
$GPGGA,060303.30,3427.667391725,N,13630.982811011,E,4,14,0.82,103.543,M,39.209,M,6.3,2006*7F
$PMSBATV,060303.30,1,2,0.80849,1.23186,7.20995,0.000,0.001,0.022,0.00000,0.000*48
$GPGGA,060303.40,3427.667392291,N,13630.982810051,E,4,14,0.82,103.540,M,39.209,M,6.4,2006*70
$PMSBATV,060303.40,1,2,0.80898,1.21344,7.02030,0.006,0.003,0.029,0.00000,0.000*44
$GPGGA,060303.50,3427.667393360,N,13630.982810813,E,4,14,0.82,103.537,M,39.209,M,6.5,2006*70
$PMSBATV,060303.50,1,2,0.79164,1.21031,7.03119,0.005,-0.000,0.029,0.00000,0.000*6E
$GPGGA,060303.60,3427.667393817,N,13630.982810297,E,4,14,0.82,103.536,M,39.209,M,6.6,2006*7C
$PMSBATV,060303.60,1,2,0.80913,1.21186,7.01636,0.005,0.002,0.007,0.00000,0.000*45
$GPGGA,060303.70,3427.667393657,N,13630.982811001,E,4,14,0.82,103.543,M,39.209,M,6.7,2006*78
$PMSBATV,060303.70,1,2,0.80011,1.22675,7.13347,0.001,0.000,0.003,0.00000,0.000*45
$GPGGA,060303.80,3427.667393130,N,13630.982810580,E,4,14,0.82,103.546,M,39.209,M,6.8,2006*76
$PMSBATV,060303.80,1,2,0.81195,1.24802,7.19676,-0.006,0.002,0.031,0.00000,0.000*6A
$GPGGA,060303.90,3427.667392019,N,13630.982810864,E,4,14,0.82,103.537,M,39.209,M,6.9,2006*7C
$PMSBATV,060303.90,1,2,0.81015,1.24430,7.16859,-0.002,0.005,0.026,0.00000,0.000*66
$GPGGA,060304.00,3427.667392238,N,13630.982811381,E,4,14,0.82,103.537,M,39.209,M,7.0,2006*7A
$PMSBATV,060304.00,1,2,0.79541,1.23035,7.16165,0.003,-0.002,0.017,0.00000,0.000*6F
$GPGGA,060304.10,3427.667393294,N,13630.982810529,E,4,14,0.82,103.540,M,39.209,M,2.1,2006*7D
$PMSBATV,060304.10,1,2,0.78193,1.21453,7.11413,0.009,-0.005,0.037,0.00000,0.000*6E
$GPGGA,060304.20,3427.667394829,N,13630.982809890,E,4,14,0.82,103.532,M,39.209,M,2.2,2006*74
$PMSBATV,060304.20,1,2,0.82556,1.22225,7.08360,0.004,0.007,0.057,0.00000,0.000*4E
$GPGGA,060304.30,3427.667394552,N,13630.982812171,E,4,14,0.82,103.522,M,39.209,M,2.3,2006*78
$PMSBATV,060304.30,1,2,0.77575,1.23052,7.24278,0.002,-0.006,0.030,0.00000,0.000*6A
$GPGGA,060304.40,3427.667394390,N,13630.982809538,E,4,14,0.82,103.530,M,39.209,M,2.4,2006*70
$PMSBATV,060304.40,1,2,0.81652,1.23394,7.16266,0.002,0.002,0.002,0.00000,0.000*4D
$GPGGA,060304.50,3427.667394008,N,13630.982810917,E,4,14,0.82,103.539,M,39.209,M,2.5,2006*72
$PMSBATV,060304.50,1,2,0.81288,1.22791,7.13242,0.003,0.002,0.024,0.00000,0.000*49
$GPGGA,060304.60,3427.667394349,N,13630.982811093,E,4,14,0.82,103.532,M,39.209,M,2.6,2006*7B
$PMSBATV,060304.60,1,2,0.75527,1.24560,7.35259,-0.002,-0.012,-0.001,0.00000,0.000*6D
$GPGGA,060304.70,3427.667393716,N,13630.982808081,E,4,14,0.82,103.542,M,39.209,M,2.7,2006*7E
$PMSBATV,060304.70,1,2,0.84730,1.25846,7.26078,-0.006,0.010,0.003,0.00000,0.000*69
$GPGGA,060304.80,3427.667392547,N,13630.982812104,E,4,14,0.82,103.542,M,39.209,M,2.8,2006*7E
$PMSBATV,060304.80,1,2,0.80326,1.25040,7.24617,-0.004,-0.000,-0.000,0.00000,0.000*62
$GPGGA,060304.90,3427.667392834,N,13630.982810479,E,4,14,0.82,103.545,M,39.209,M,2.9,2006*7D
$PMSBATV,060304.90,1,2,0.82609,1.23871,7.18626,0.000,0.007,0.046,0.00000,0.000*44
$GPGGA,060305.00,3427.667393657,N,13630.982812117,E,4,14,0.82,103.529,M,39.209,M,3.0,2006*72
$PMSBATV,060305.00,1,2,0.80700,1.22293,7.12080,0.006,0.001,0.038,0.00000,0.000*48
$GPGGA,060305.10,3427.667394773,N,13630.982811433,E,4,14,0.82,103.530,M,39.209,M,3.1,2006*7A
$PMSBATV,060305.10,1,2,0.78290,1.20903,7.09332,0.010,-0.005,0.030,0.00000,0.000*64
$GPGGA,060305.20,3427.667396078,N,13630.982810288,E,4,14,0.82,103.531,M,39.209,M,3.2,2006*72
$PMSBATV,060305.20,1,2,0.79190,1.22194,7.08661,0.005,0.000,0.035,0.00000,0.000*4A
$GPGGA,060305.30,3427.667395572,N,13630.982811146,E,4,14,0.82,103.527,M,39.209,M,3.3,2006*79
$PMSBATV,060305.30,1,2,0.79487,1.21903,7.06519,0.006,0.003,0.035,0.00000,0.000*4F
$GPGGA,060305.40,3427.667395961,N,13630.982811524,E,4,14,0.82,103.526,M,39.209,M,3.4,2006*76
$PMSBATV,060305.40,1,2,0.80380,1.25171,7.10376,-0.006,0.006,0.011,0.00000,0.000*61
$GPGGA,060305.50,3427.667393734,N,13630.982812250,E,4,14,0.82,103.534,M,39.209,M,3.5,2006*7A
$PMSBATV,060305.50,1,2,0.79952,1.27483,7.12923,-0.016,0.009,-0.024,0.00000,0.000*44
$GPGGA,060305.60,3427.667391189,N,13630.982812829,E,4,14,0.82,103.549,M,39.209,M,3.6,2006*76
$PMSBATV,060305.60,1,2,0.77914,1.24459,7.11274,-0.007,0.003,0.012,0.00000,0.000*67
$GPGGA,060305.70,3427.667392637,N,13630.982812354,E,4,14,0.82,103.539,M,39.209,M,3.7,2006*71
$PMSBATV,060305.70,1,2,0.77232,1.23232,7.11117,-0.001,0.001,0.006,0.00000,0.000*62
$GPGGA,060305.80,3427.667393279,N,13630.982812272,E,4,14,0.82,103.542,M,39.209,M,3.8,2006*77
$PMSBATV,060305.80,1,2,0.76089,1.22051,7.06922,0.002,-0.003,0.022,0.00000,0.000*67
$GPGGA,060305.90,3427.667393941,N,13630.982811593,E,4,14,0.82,103.537,M,39.209,M,3.9,2006*7E
$PMSBATV,060305.90,1,2,0.73906,1.20311,7.02260,0.007,-0.010,0.014,0.00000,0.000*63
$GPGGA,060306.00,3427.667395522,N,13630.982809992,E,4,14,0.82,103.540,M,39.209,M,4.0,2006*71
$PMSBATV,060306.00,1,2,0.76146,1.20701,7.03316,0.008,-0.008,0.001,0.00000,0.000*66
$GPGGA,060306.10,3427.667395678,N,13630.982810208,E,4,14,0.82,103.545,M,39.209,M,4.1,2006*78
$PMSBATV,060306.10,1,2,0.77021,1.21609,7.07818,0.003,-0.008,0.011,0.00000,0.000*65
$GPGGA,060306.20,3427.667395272,N,13630.982809940,E,4,14,0.82,103.543,M,39.209,M,4.2,2006*7F
$PMSBATV,060306.20,1,2,0.78184,1.25046,7.29644,-0.008,-0.005,0.004,0.00000,0.000*4A
$GPGGA,060306.30,3427.667393179,N,13630.982809589,E,4,14,0.82,103.547,M,39.209,M,4.3,2006*7C
$PMSBATV,060306.30,1,2,0.80558,1.21264,6.91740,0.006,0.001,0.021,0.00000,0.000*45
$GPGGA,060306.40,3427.667395523,N,13630.982810962,E,4,14,0.82,103.541,M,39.209,M,4.4,2006*76
$PMSBATV,060306.40,1,2,0.81602,1.22730,7.00728,0.000,0.005,0.026,0.00000,0.000*4A
$GPGGA,060306.50,3427.667394603,N,13630.982811680,E,4,14,0.82,103.539,M,39.209,M,4.5,2006*7B
$PMSBATV,060306.50,1,2,0.84656,1.23383,6.99300,-0.003,0.012,0.010,0.00000,0.000*60
$GPGGA,060306.60,3427.667393868,N,13630.982813505,E,4,14,0.82,103.545,M,39.209,M,4.6,2006*78
$PMSBATV,060306.60,1,2,0.79967,1.24401,7.09150,-0.006,-0.000,0.018,0.00000,0.000*4A
$GPGGA,060306.70,3427.667393224,N,13630.982811344,E,4,14,0.82,103.543,M,39.209,M,4.7,2006*7D
$PMSBATV,060306.70,1,2,0.84661,1.25119,7.07461,-0.009,0.011,-0.010,0.00000,0.000*43
$GPGGA,060306.80,3427.667392027,N,13630.982813637,E,4,14,0.82,103.554,M,39.209,M,4.8,2006*78
$PMSBATV,060306.80,1,2,0.79494,1.21573,7.12686,0.001,-0.003,0.009,0.00000,0.000*6B
$GPGGA,060306.90,3427.667394173,N,13630.982811338,E,4,14,0.82,103.549,M,39.209,M,4.9,2006*7A
$PMSBATV,060306.90,1,2,0.80021,1.22085,7.13913,0.000,-0.001,0.019,0.00000,0.000*69
$GPGGA,060307.00,3427.667394107,N,13630.982811735,E,4,14,0.82,103.546,M,39.209,M,5.0,2006*7F
$PMSBATV,060307.00,1,2,0.77478,1.23621,7.10474,-0.004,-0.006,0.033,0.00000,0.000*41
$GPGGA,060307.10,3427.667393443,N,13630.982810305,E,4,14,0.82,103.541,M,39.209,M,5.1,2006*7C
$PMSBATV,060307.10,1,2,0.79863,1.21509,7.10313,0.004,-0.004,0.036,0.00000,0.000*6F
$GPGGA,060307.20,3427.667394844,N,13630.982810650,E,4,14,0.82,103.539,M,39.209,M,5.2,2006*7A
$PMSBATV,060307.20,1,2,0.79002,1.17898,7.00263,0.015,-0.008,0.022,0.00000,0.000*6D
$GPGGA,060307.30,3427.667397398,N,13630.982810151,E,4,14,0.82,103.541,M,39.209,M,5.3,2006*7A
$PMSBATV,060307.30,1,2,0.78137,1.18876,7.05454,0.010,-0.007,0.037,0.00000,0.000*6C
$GPGGA,060307.40,3427.667397346,N,13630.982809729,E,4,14,0.82,103.536,M,39.209,M,5.4,2006*78
$PMSBATV,060307.40,1,2,0.87190,1.17890,6.73915,0.014,0.011,0.035,0.00000,0.000*45
$GPGGA,060307.50,3427.667398337,N,13630.982813326,E,4,14,0.82,103.534,M,39.209,M,5.5,2006*73
$PMSBATV,060307.50,1,2,0.86309,1.18182,6.79431,0.015,0.009,0.044,0.00000,0.000*4D
$GPGGA,060307.60,3427.667399401,N,13630.982813687,E,4,14,0.82,103.528,M,39.209,M,5.6,2006*73
$PMSBATV,060307.60,1,2,0.84728,1.22272,7.00790,0.003,0.008,0.027,0.00000,0.000*4A
$GPGGA,060307.70,3427.667397558,N,13630.982813732,E,4,14,0.82,103.533,M,39.209,M,5.7,2006*75
$PMSBATV,060307.70,1,2,0.85336,1.23421,7.06488,-0.000,0.008,-0.001,0.00000,0.000*4B
$GPGGA,060307.80,3427.667396730,N,13630.982813974,E,4,14,0.82,103.543,M,39.209,M,5.8,2006*73
$PMSBATV,060307.80,1,2,0.84802,1.23141,7.10338,-0.001,0.006,-0.002,0.00000,0.000*4D
$GPGGA,060307.90,3427.667396646,N,13630.982813945,E,4,14,0.82,103.545,M,39.209,M,5.9,2006*77
$PMSBATV,060307.90,1,2,0.82907,1.23406,7.16396,-0.001,0.003,0.020,0.00000,0.000*62
$GPGGA,060308.00,3427.667396846,N,13630.982813567,E,4,14,0.82,103.539,M,39.209,M,6.0,2006*72
$PMSBATV,060308.00,1,2,0.81881,1.23329,7.21361,0.001,-0.001,0.011,0.00000,0.000*6E
$GPGGA,060308.10,3427.667397176,N,13630.982812631,E,4,14,0.82,103.542,M,39.209,M,6.1,2006*74
$PMSBATV,060308.10,1,2,0.80017,1.21194,7.21614,0.009,-0.011,0.010,0.00000,0.000*60
$GPGGA,060308.20,3427.667399055,N,13630.982810902,E,4,14,0.82,103.543,M,39.209,M,6.2,2006*76
$PMSBATV,060308.20,1,2,0.78047,1.24499,7.30150,-0.003,-0.013,0.010,0.00000,0.000*4E
$GPGGA,060308.30,3427.667397196,N,13630.982809256,E,4,14,0.82,103.544,M,39.209,M,6.3,2006*73
$PMSBATV,060308.30,1,2,0.80976,1.26568,7.44641,-0.009,-0.007,0.020,0.00000,0.000*46
$GPGGA,060308.40,3427.667395908,N,13630.982809621,E,4,13,0.91,103.541,M,39.209,M,6.4,2006*7A
$PMSBATV,060308.40,1,2,0.86393,1.24644,7.30785,-0.004,0.008,0.032,0.00000,0.000*6F
$GPGGA,060308.50,3427.667396571,N,13630.982812385,E,4,13,0.91,103.536,M,39.209,M,6.5,2006*7A
$PMSBATV,060308.50,1,2,0.83121,1.22588,6.99624,0.004,0.003,0.034,0.00000,0.000*4D
$GPGGA,060308.60,3427.667398056,N,13630.982812018,E,4,13,0.91,103.534,M,39.209,M,6.6,2006*71
$PMSBATV,060308.60,1,2,0.83119,1.23551,7.10721,-0.000,0.005,0.022,0.00000,0.000*6C
$GPGGA,060308.70,3427.667397297,N,13630.982812196,E,4,13,0.91,103.538,M,39.209,M,6.7,2006*7A
$PMSBATV,060308.70,1,2,0.84056,1.24389,7.15705,-0.002,0.006,0.025,0.00000,0.000*61
$GPGGA,060308.80,3427.667396978,N,13630.982812677,E,4,13,0.91,103.536,M,39.209,M,6.8,2006*77
$PMSBATV,060308.80,1,2,0.82321,1.24611,7.18848,-0.003,0.002,-0.011,0.00000,0.000*4B
$GPGGA,060308.90,3427.667396364,N,13630.982811976,E,4,13,0.91,103.551,M,39.209,M,6.9,2006*7C
$PMSBATV,060308.90,1,2,0.80868,1.22981,7.09597,0.004,-0.001,-0.009,0.00000,0.000*4C
$GPGGA,060309.00,3427.667397553,N,13630.982811602,E,4,13,0.91,103.553,M,39.209,M,7.0,2006*71
$PMSBATV,060309.00,1,2,0.82593,1.23748,7.12108,0.001,0.004,0.000,0.00000,0.000*44
$GPGGA,060309.10,3427.667397162,N,13630.982812613,E,4,13,0.91,103.552,M,39.209,M,2.1,2006*70
$PMSBATV,060309.10,1,2,0.79546,1.21266,7.01472,0.010,-0.002,0.010,0.00000,0.000*62
$GPGGA,060309.20,3427.667399343,N,13630.982811810,E,4,13,0.91,103.550,M,39.209,M,2.2,2006*73
$PMSBATV,060309.20,1,2,0.82808,1.21572,6.98145,0.010,0.005,0.029,0.00000,0.000*40
$GPGGA,060309.30,3427.667399832,N,13630.982813118,E,4,13,0.91,103.542,M,39.209,M,2.3,2006*7E
$PMSBATV,060309.30,1,2,0.83821,1.25279,7.18952,-0.003,0.007,0.012,0.00000,0.000*61
$GPGGA,060309.40,3427.667397516,N,13630.982813247,E,4,14,0.82,103.549,M,39.209,M,2.4,2006*7C
$PMSBATV,060309.40,1,2,0.77968,1.21375,7.14441,0.009,-0.005,0.038,0.00000,0.000*6B
$GPGGA,060309.50,3427.667400439,N,13630.982811426,E,4,14,0.82,103.539,M,39.209,M,2.5,2006*7D
$PMSBATV,060309.50,1,2,0.85247,1.22888,6.96914,0.006,0.015,0.038,0.00000,0.000*4E
$GPGGA,060309.60,3427.667399836,N,13630.982815217,E,4,14,0.82,103.537,M,39.209,M,2.6,2006*77
$PMSBATV,060309.60,1,2,0.84574,1.23710,7.06359,0.003,0.012,0.013,0.00000,0.000*44
$GPGGA,060309.70,3427.667399147,N,13630.982815266,E,4,14,0.82,103.546,M,39.209,M,2.7,2006*78
$PMSBATV,060309.70,1,2,0.83891,1.23553,7.07110,0.004,0.011,0.027,0.00000,0.000*4C
$GPGGA,060309.80,3427.667399808,N,13630.982815817,E,4,14,0.82,103.540,M,39.209,M,2.8,2006*70
$PMSBATV,060309.80,1,2,0.81461,1.23914,7.18070,0.003,0.005,0.018,0.00000,0.000*4A
$GPGGA,060309.90,3427.667399465,N,13630.982814976,E,4,14,0.82,103.544,M,39.209,M,2.9,2006*74
$PMSBATV,060309.90,1,2,0.76860,1.21565,7.24050,0.011,-0.006,0.007,0.00000,0.000*68
$GPGGA,060310.00,3427.667401361,N,13630.982812887,E,4,14,0.82,103.549,M,39.209,M,3.0,2006*7C
$PMSBATV,060310.00,1,2,0.77964,1.24722,7.34939,-0.001,-0.003,0.034,0.00000,0.000*47
$GPGGA,060310.10,3427.667399827,N,13630.982813028,E,4,14,0.82,103.540,M,39.209,M,3.1,2006*76
$PMSBATV,060310.10,1,2,0.74983,1.23394,7.29017,0.004,-0.009,0.024,0.00000,0.000*68
$GPGGA,060310.20,3427.667400943,N,13630.982811679,E,4,14,0.82,103.542,M,39.209,M,3.2,2006*70
$PMSBATV,060310.20,1,2,0.77226,1.22936,7.18182,0.006,-0.006,0.024,0.00000,0.000*6D
$GPGGA,060310.30,3427.667401729,N,13630.982812114,E,4,14,0.82,103.541,M,39.209,M,3.3,2006*7F
$PMSBATV,060310.30,1,2,0.81003,1.25395,7.40336,-0.002,0.002,0.011,0.00000,0.000*62
$GPGGA,060310.40,3427.667400148,N,13630.982813483,E,4,14,0.82,103.546,M,39.209,M,3.4,2006*72
$PMSBATV,060310.40,1,2,0.78376,1.23715,7.24698,0.002,-0.002,0.027,0.00000,0.000*6E
$GPGGA,060310.50,3427.667401124,N,13630.982812717,E,4,14,0.82,103.540,M,39.209,M,3.5,2006*70
$PMSBATV,060310.50,1,2,0.79300,1.24694,7.34208,-0.001,-0.001,0.035,0.00000,0.000*42
$GPGGA,060310.60,3427.667400710,N,13630.982812853,E,4,14,0.82,103.536,M,39.209,M,3.6,2006*7E
$PMSBATV,060310.60,1,2,0.80052,1.26482,7.57244,-0.008,0.000,0.030,0.00000,0.000*69
$GPGGA,060310.70,3427.667399141,N,13630.982812781,E,4,14,0.82,103.537,M,39.209,M,3.7,2006*7A
$PMSBATV,060310.70,1,2,0.79336,1.26684,7.59305,-0.010,0.000,0.026,0.00000,0.000*6F
$GPGGA,060310.80,3427.667398516,N,13630.982812519,E,4,14,0.82,103.538,M,39.209,M,3.8,2006*71
$PMSBATV,060310.80,1,2,0.84151,1.25226,7.46036,-0.004,0.011,0.007,0.00000,0.000*65
$GPGGA,060310.90,3427.667399003,N,13630.982815022,E,4,14,0.82,103.544,M,39.209,M,3.9,2006*70
$PMSBATV,060310.90,1,2,0.79876,1.25721,7.41372,-0.007,0.000,0.017,0.00000,0.000*6E
$GPGGA,060311.00,3427.667398772,N,13630.982813632,E,4,14,0.82,103.540,M,39.209,M,4.0,2006*73
$PMSBATV,060311.00,1,2,0.80028,1.23403,7.32994,-0.000,0.002,0.029,0.00000,0.000*68
$GPGGA,060311.10,3427.667399790,N,13630.982813914,E,4,14,0.82,103.536,M,39.209,M,4.1,2006*74
$PMSBATV,060311.10,1,2,0.80687,1.21527,7.27217,0.006,0.003,0.016,0.00000,0.000*4D
$GPGGA,060311.20,3427.667401046,N,13630.982814517,E,4,14,0.82,103.540,M,39.209,M,4.2,2006*77
$PMSBATV,060311.20,1,2,0.79590,1.21068,7.23852,0.005,-0.001,0.028,0.00000,0.000*6D
$GPGGA,060311.30,3427.667401600,N,13630.982813928,E,4,14,0.82,103.536,M,39.209,M,4.3,2006*75
$PMSBATV,060311.30,1,2,0.78084,1.21000,7.26108,0.006,-0.005,0.008,0.00000,0.000*65
$GPGGA,060311.40,3427.667401862,N,13630.982813089,E,4,14,0.82,103.542,M,39.209,M,4.4,2006*7E
$PMSBATV,060311.40,1,2,0.79117,1.20575,7.22284,0.006,-0.004,0.007,0.00000,0.000*63
$GPGGA,060311.50,3427.667402144,N,13630.982812997,E,4,14,0.82,103.544,M,39.209,M,4.5,2006*71
$PMSBATV,060311.50,1,2,0.79293,1.22703,7.33979,-0.001,-0.005,0.017,0.00000,0.000*4F
$GPGGA,060311.60,3427.667401074,N,13630.982812424,E,4,14,0.82,103.542,M,39.209,M,4.6,2006*73
$PMSBATV,060311.60,1,2,0.80104,1.25345,7.47554,-0.010,-0.003,0.015,0.00000,0.000*42
$GPGGA,060311.70,3427.667399243,N,13630.982812243,E,4,14,0.82,103.542,M,39.209,M,4.7,2006*74
$PMSBATV,060311.70,1,2,0.80130,1.22669,7.27227,-0.002,-0.004,0.019,0.00000,0.000*45
$GPGGA,060311.80,3427.667400501,N,13630.982812138,E,4,14,0.82,103.541,M,39.209,M,4.8,2006*7E
$PMSBATV,060311.80,1,2,0.81855,1.22162,7.22535,-0.001,0.000,0.020,0.00000,0.000*6C
$GPGGA,060311.90,3427.667400427,N,13630.982812831,E,4,14,0.82,103.541,M,39.209,M,4.9,2006*7B
$PMSBATV,060311.90,1,2,0.83554,1.20001,7.05926,0.007,0.005,0.018,0.00000,0.000*4B
$GPGGA,060312.00,3427.667401803,N,13630.982814065,E,4,14,0.82,103.541,M,39.209,M,5.0,2006*7D
$PMSBATV,060312.00,1,2,0.84597,1.21091,7.12072,0.004,0.008,0.014,0.00000,0.000*4D
$GPGGA,060312.10,3427.667401453,N,13630.982814750,E,4,14,0.82,103.543,M,39.209,M,5.1,2006*77
$PMSBATV,060312.10,1,2,0.80884,1.18314,7.06384,0.013,-0.002,0.019,0.00000,0.000*60
$GPGGA,060312.20,3427.667403483,N,13630.982813268,E,4,14,0.82,103.542,M,39.209,M,5.2,2006*70
$PMSBATV,060312.20,1,2,0.81987,1.19005,7.07023,0.012,0.000,0.044,0.00000,0.000*4B
$GPGGA,060312.30,3427.667403923,N,13630.982813570,E,4,14,0.82,103.532,M,39.209,M,5.3,2006*7E
$PMSBATV,060312.30,1,2,0.81841,1.23022,7.13035,-0.002,-0.000,0.030,0.00000,0.000*4D
$GPGGA,060312.40,3427.667401544,N,13630.982812976,E,4,13,0.91,103.535,M,39.209,M,5.4,2006*78
$PMSBATV,060312.40,1,2,0.85476,1.21240,6.98672,0.002,0.008,0.016,0.00000,0.000*49
$GPGGA,060312.50,3427.667402141,N,13630.982814791,E,4,14,0.82,103.540,M,39.209,M,5.5,2006*7C
$PMSBATV,060312.50,1,2,0.84961,1.21616,6.98591,0.002,0.010,0.029,0.00000,0.000*4E
$GPGGA,060312.60,3427.667401974,N,13630.982815696,E,4,14,0.82,103.535,M,39.209,M,5.6,2006*74
$PMSBATV,060312.60,1,2,0.80927,1.20086,6.99001,0.004,0.002,0.029,0.00000,0.000*4D
$GPGGA,060312.70,3427.667402677,N,13630.982814418,E,4,14,0.82,103.535,M,39.209,M,5.7,2006*7E
$PMSBATV,060312.70,1,2,0.85302,1.20901,6.98004,0.001,0.009,0.008,0.00000,0.000*4B
