$GPGGA,075807.70,3542.293459038,N,13943.287695314,E,4,10,2.99,24.159,M,36.996,M,5.7,3107*47
$PMSBATV,075807.70,1,2,4.61874,1.38221,25.38996,-0.001,-0.002,0.011,-160.86377,0.000*59
$GPGGA,075807.80,3542.293458264,N,13943.287695583,E,4,10,2.99,24.156,M,36.996,M,5.8,3107*4A
$PMSBATV,075807.80,1,2,4.61534,1.38139,25.39013,-0.000,-0.004,0.010,-160.86377,0.000*56
$GPGGA,075807.90,3542.293458438,N,13943.287694976,E,4,10,2.99,24.156,M,36.996,M,5.9,3107*42
$PMSBATV,075807.90,1,2,4.62369,1.36892,25.38905,0.003,-0.000,0.016,-160.86377,0.000*7F
$GPGGA,075808.00,3542.293458882,N,13943.287696549,E,4,10,2.99,24.151,M,36.996,M,6.0,3107*46
$PMSBATV,075808.00,1,2,4.62581,1.37556,25.38799,0.002,-0.000,-0.005,-160.86377,0.000*58
$GPGGA,075808.10,3542.293458811,N,13943.287695207,E,4,10,2.99,24.164,M,36.996,M,6.1,3107*44
$PMSBATV,075808.10,1,2,4.61998,1.36843,25.38454,0.004,-0.000,0.005,-160.86377,0.000*7F
$GPGGA,075808.20,3542.293459200,N,13943.287695817,E,4,10,2.99,24.159,M,36.996,M,6.2,3107*4A
$PMSBATV,075808.20,1,2,4.63237,1.38001,25.38708,-0.001,0.005,0.010,-160.86377,0.000*7E
$GPGGA,075808.30,3542.293457849,N,13943.287697164,E,4,10,2.99,24.153,M,36.996,M,6.3,3107*46
$PMSBATV,075808.30,1,2,4.61235,1.36585,25.38292,0.005,-0.003,-0.018,-160.86377,0.000*59
$GPGGA,075808.40,3542.293459756,N,13943.287694200,E,4,10,2.99,24.175,M,36.996,M,6.4,3107*4F
$PMSBATV,075808.40,1,2,4.58951,1.38252,25.38505,0.000,-0.011,-0.004,-160.86377,0.000*5C
$GPGGA,075808.50,3542.293459800,N,13943.287691513,E,4,10,2.99,24.172,M,36.996,M,6.5,3107*44
$PMSBATV,075808.50,1,2,4.54660,1.38339,25.38762,-0.001,-0.025,-0.008,-160.86377,0.000*74
$GPGGA,075808.60,3542.293461180,N,13943.287686606,E,4,10,2.99,24.181,M,36.996,M,6.6,3107*43
$PMSBATV,075808.60,1,2,4.55900,1.37598,25.38687,0.002,-0.021,-0.011,-160.86377,0.000*55
$GPGGA,075808.70,3542.293461645,N,13943.287686603,E,4,10,2.99,24.183,M,36.996,M,6.7,3107*4A
$PMSBATV,075808.70,1,2,4.61765,1.33521,25.37430,0.017,-0.006,-0.005,-160.86377,0.000*5D
$GPGGA,075808.80,3542.293463386,N,13943.287692193,E,4,10,2.99,24.175,M,36.996,M,6.8,3107*40
$PMSBATV,075808.80,1,2,4.60087,1.37209,25.39197,0.005,-0.012,-0.013,-160.86377,0.000*56
$GPGGA,075808.90,3542.293462348,N,13943.287688378,E,4,10,2.99,24.185,M,36.996,M,6.9,3107*40
$PMSBATV,075808.90,1,2,4.63395,1.36560,25.38937,0.008,-0.002,-0.008,-160.86377,0.000*58
$GPGGA,075809.00,3542.293462034,N,13943.287691502,E,4,10,2.99,24.180,M,36.996,M,7.0,3107*4E
$PMSBATV,075809.00,1,2,4.63395,1.40102,25.39686,-0.003,-0.003,-0.004,-160.86377,0.000*7E
$GPGGA,075809.10,3542.293460586,N,13943.287690331,E,4,10,2.99,24.180,M,36.996,M,2.1,3107*42
$PMSBATV,075809.10,1,2,4.64368,1.40382,25.39886,-0.003,0.002,-0.000,-160.86377,0.000*56
$GPGGA,075809.20,3542.293459715,N,13943.287691414,E,4,10,2.98,24.177,M,36.996,M,2.2,3107*48
$PMSBATV,075809.20,1,2,4.62158,1.38695,25.39470,0.003,-0.005,0.002,-160.86377,0.000*73
$GPGGA,075809.30,3542.293461493,N,13943.287690017,E,4,10,2.98,24.179,M,36.996,M,2.3,3107*46
$PMSBATV,075809.30,1,2,4.61878,1.38421,25.38947,0.007,-0.006,0.012,-160.86377,0.000*79
$GPGGA,075809.40,3542.293462327,N,13943.287690454,E,4,10,2.98,24.173,M,36.996,M,2.4,3107*44
$PMSBATV,075809.40,1,2,4.63841,1.42126,25.39208,-0.003,0.001,0.007,-160.86377,0.000*7F
$GPGGA,075809.50,3542.293459805,N,13943.287690664,E,4,10,2.98,24.175,M,36.996,M,2.5,3107*40
$PMSBATV,075809.50,1,2,4.64143,1.38509,25.38775,0.010,0.001,0.005,-160.86377,0.000*55
$GPGGA,075809.60,3542.293462451,N,13943.287692074,E,4,10,2.98,24.176,M,36.996,M,2.6,3107*43
$PMSBATV,075809.60,1,2,4.62516,1.38989,25.38979,0.006,-0.004,0.014,-160.86377,0.000*7D
$GPGGA,075809.70,3542.293462794,N,13943.287690023,E,4,10,2.98,24.174,M,36.996,M,2.7,3107*4B
$PMSBATV,075809.70,1,2,4.67248,1.35040,25.39108,0.018,0.006,-0.000,-160.86377,0.000*73
$GPGGA,075809.80,3542.293464663,N,13943.287693812,E,4,10,2.98,24.178,M,36.996,M,2.8,3107*41
$PMSBATV,075809.80,1,2,4.65974,1.39499,25.39014,0.003,0.004,-0.009,-160.86377,0.000*7B
$GPGGA,075809.90,3542.293462622,N,13943.287691722,E,4,10,2.98,24.186,M,36.996,M,2.9,3107*4D
$PMSBATV,075809.90,1,2,4.65450,1.44016,25.38936,-0.011,0.003,0.000,-160.86377,0.000*7D
$GPGGA,075810.00,3542.293459998,N,13943.287690034,E,4,10,2.98,24.183,M,36.996,M,3.0,3107*46
$PMSBATV,075810.00,1,2,4.65213,1.42249,25.39032,-0.008,-0.001,-0.001,-160.86377,0.000*74
$GPGGA,075810.10,3542.293460498,N,13943.287689302,E,4,10,2.98,24.185,M,36.996,M,3.1,3107*49
$PMSBATV,075810.10,1,2,4.65891,1.40960,25.38882,-0.002,0.002,-0.006,-160.86377,0.000*56
$GPGGA,075810.20,3542.293461135,N,13943.287690444,E,4,10,2.98,24.188,M,36.996,M,3.2,3107*4A
$PMSBATV,075810.20,1,2,4.66095,1.42265,25.38752,-0.005,0.005,-0.013,-160.86377,0.000*50
$GPGGA,075810.30,3542.293459950,N,13943.287690195,E,4,10,2.98,24.193,M,36.996,M,3.3,3107*49
$PMSBATV,075810.30,1,2,4.69316,1.40759,25.38945,-0.003,0.014,-0.013,-160.86377,0.000*50
$GPGGA,075810.40,3542.293459433,N,13943.287693389,E,4,10,2.98,24.192,M,36.996,M,3.4,3107*4C
$PMSBATV,075810.40,1,2,4.65894,1.40831,25.38503,-0.003,0.007,-0.010,-160.86377,0.000*54
$GPGGA,075810.50,3542.293459850,N,13943.287692527,E,4,10,2.98,24.194,M,36.996,M,3.5,3107*40
$PMSBATV,075810.50,1,2,4.65107,1.43378,25.38482,-0.009,0.009,0.003,-160.86377,0.000*70
$GPGGA,075810.60,3542.293457892,N,13943.287692378,E,4,10,2.98,24.188,M,36.996,M,3.6,3107*41
$PMSBATV,075810.60,1,2,4.63528,1.41155,25.38079,-0.002,0.002,-0.005,-160.86377,0.000*58
$GPGGA,075810.70,3542.293459629,N,13943.287691297,E,4,10,2.98,24.195,M,36.996,M,3.7,3107*4E
$PMSBATV,075810.70,1,2,4.57473,1.41919,25.37520,-0.004,-0.013,0.014,-160.86377,0.000*51
$GPGGA,075810.80,3542.293460918,N,13943.287687277,E,4,10,2.98,24.191,M,36.996,M,3.8,3107*44
$PMSBATV,075810.80,1,2,4.63643,1.40505,25.37691,-0.001,0.005,0.018,-160.86377,0.000*72
$GPGGA,075810.90,3542.293459724,N,13943.287692357,E,4,10,2.98,24.181,M,36.996,M,3.9,3107*49
$PMSBATV,075810.90,1,2,4.64833,1.39411,25.37575,0.001,0.004,0.007,-160.86377,0.000*5C
$GPGGA,075811.00,3542.293460006,N,13943.287692410,E,4,10,2.98,24.186,M,36.996,M,4.0,3107*41
$PMSBATV,075811.00,1,2,4.61733,1.39606,25.37546,-0.000,-0.004,0.008,-160.86377,0.000*54
$GPGGA,075811.10,3542.293460569,N,13943.287690020,E,4,10,2.98,24.188,M,36.996,M,4.1,3107*46
$PMSBATV,075811.10,1,2,4.61444,1.37358,25.37187,0.007,-0.004,0.007,-160.86377,0.000*7A
$GPGGA,075811.20,3542.293462080,N,13943.287690387,E,4,10,2.98,24.189,M,36.996,M,4.2,3107*49
$PMSBATV,075811.20,1,2,4.60949,1.38391,25.37369,0.002,-0.008,-0.014,-160.86377,0.000*56
$GPGGA,075811.30,3542.293461852,N,13943.287687637,E,4,10,2.98,24.204,M,36.996,M,4.3,3107*43
$PMSBATV,075811.30,1,2,4.60652,1.36046,25.36453,0.012,-0.008,-0.008,-160.86377,0.000*56
$GPGGA,075811.40,3542.293464108,N,13943.287688921,E,4,10,2.98,24.202,M,36.996,M,4.4,3107*41
$PMSBATV,075811.40,1,2,4.55944,1.38057,25.37225,0.007,-0.021,0.011,-160.86377,0.000*7D
$GPGGA,075811.50,3542.293465141,N,13943.287684636,E,4,10,2.98,24.198,M,36.996,M,4.5,3107*48
$PMSBATV,075811.50,1,2,4.60942,1.39342,25.37263,0.003,-0.011,0.000,-160.86377,0.000*7F
$GPGGA,075811.60,3542.293463947,N,13943.287685740,E,4,10,2.98,24.201,M,36.996,M,4.6,3107*42
$PMSBATV,075811.60,1,2,4.64247,1.40271,25.36975,-0.000,-0.002,-0.002,-160.86377,0.000*77
$GPGGA,075811.70,3542.293462797,N,13943.287687576,E,4,10,2.98,24.199,M,36.996,M,4.7,3107*47
$PMSBATV,075811.70,1,2,4.64502,1.43303,25.38204,-0.012,0.001,0.002,-160.86377,0.000*74
$GPGGA,075811.80,3542.293460143,N,13943.287686878,E,4,10,2.98,24.197,M,36.996,M,4.8,3107*46
$PMSBATV,075811.80,1,2,4.59710,1.39370,25.37249,-0.000,-0.012,-0.001,-160.86377,0.000*79
$GPGGA,075811.90,3542.293463448,N,13943.287683668,E,4,10,2.98,24.205,M,36.996,M,4.9,3107*49
$PMSBATV,075811.90,1,2,4.62531,1.38665,25.36534,0.003,-0.003,0.002,-160.86377,0.000*7D
$GPGGA,075812.00,3542.293463504,N,13943.287686072,E,4,10,2.98,24.201,M,36.996,M,5.0,3107*4E
$PMSBATV,075812.00,1,2,4.64904,1.39191,25.36561,0.002,0.003,-0.003,-160.86377,0.000*76
$GPGGA,075812.10,3542.293462699,N,13943.287687499,E,4,10,2.98,24.202,M,36.996,M,5.1,3107*4B
$PMSBATV,075812.10,1,2,4.64420,1.38162,25.36107,0.007,-0.000,-0.002,-160.86377,0.000*5F
$GPGGA,075812.20,3542.293464044,N,13943.287687054,E,4,10,2.98,24.205,M,36.996,M,5.2,3107*49
$PMSBATV,075812.20,1,2,4.62158,1.38109,25.36048,0.008,-0.008,-0.008,-160.86377,0.000*5A
$GPGGA,075812.30,3542.293465171,N,13943.287684706,E,4,10,2.98,24.212,M,36.996,M,5.3,3107*4A
$PMSBATV,075812.30,1,2,4.64908,1.42144,25.36701,-0.007,0.004,0.001,-160.86377,0.000*79
$GPGGA,075812.40,3542.293461369,N,13943.287686459,E,4,10,2.98,24.204,M,36.996,M,5.4,3107*49
$PMSBATV,075812.40,1,2,4.66595,1.40046,25.36285,-0.001,0.008,-0.006,-160.86377,0.000*5C
$GPGGA,075812.50,3542.293461933,N,13943.287688161,E,4,10,2.98,24.207,M,36.996,M,5.5,3107*4F
$PMSBATV,075812.50,1,2,4.62413,1.44198,25.36907,-0.013,-0.002,0.011,-160.86377,0.000*5E
$GPGGA,075812.60,3542.293460237,N,13943.287684405,E,4,10,2.98,24.202,M,36.996,M,5.6,3107*4F
$PMSBATV,075812.60,1,2,4.61917,1.43375,25.36722,-0.011,-0.001,0.019,-160.86377,0.000*51
$GPGGA,075812.70,3542.293459979,N,13943.287684515,E,4,10,2.98,24.198,M,36.996,M,5.7,3107*44
$PMSBATV,075812.70,1,2,4.65343,1.36315,25.35999,0.011,0.006,0.006,-160.86377,0.000*5F
$GPGGA,075812.80,3542.293463515,N,13943.287688406,E,4,10,2.98,24.201,M,36.996,M,5.8,3107*47
$PMSBATV,075812.80,1,2,4.65501,1.36639,25.35990,0.011,0.008,0.015,-160.86377,0.000*5E
$GPGGA,075812.90,3542.293463618,N,13943.287689683,E,4,10,2.98,24.195,M,36.996,M,5.9,3107*49
$PMSBATV,075812.90,1,2,4.64034,1.38569,25.36238,0.004,0.006,0.020,-160.86377,0.000*53
$GPGGA,075813.00,3542.293462639,N,13943.287689121,E,4,10,2.98,24.192,M,36.996,M,6.0,3107*41
$PMSBATV,075813.00,1,2,4.67372,1.36254,25.35909,0.010,0.014,0.009,-160.86377,0.000*59
$GPGGA,075813.10,3542.293463214,N,13943.287692152,E,4,10,2.98,24.195,M,36.996,M,6.1,3107*42
$PMSBATV,075813.10,1,2,4.60383,1.38654,25.36320,0.004,-0.005,0.006,-160.86377,0.000*7E
$GPGGA,075813.20,3542.293464088,N,13943.287686281,E,4,10,2.98,24.204,M,36.996,M,6.2,3107*41
$PMSBATV,075813.20,1,2,4.64306,1.41538,25.36383,-0.007,0.006,0.010,-160.86377,0.000*7D
$GPGGA,075813.30,3542.293460974,N,13943.287688411,E,4,10,2.98,24.198,M,36.996,M,6.3,3107*48
$PMSBATV,075813.30,1,2,4.61297,1.42648,25.36625,-0.011,-0.002,0.022,-160.86377,0.000*51
$GPGGA,075813.40,3542.293460718,N,13943.287685956,E,4,10,2.98,24.193,M,36.996,M,6.4,3107*44
$PMSBATV,075813.40,1,2,4.61780,1.41039,25.36149,-0.002,-0.001,0.032,-160.86377,0.000*5B
$GPGGA,075813.50,3542.293461843,N,13943.287687042,E,4,10,2.98,24.184,M,36.996,M,6.5,3107*4C
$PMSBATV,075813.50,1,2,4.60912,1.39852,25.35825,0.004,-0.006,0.006,-160.86377,0.000*7F
$GPGGA,075813.60,3542.293463423,N,13943.287685159,E,4,10,2.98,24.200,M,36.996,M,6.6,3107*42
$PMSBATV,075813.60,1,2,4.60718,1.42191,25.36403,-0.004,-0.009,-0.001,-160.86377,0.000*71
$GPGGA,075813.70,3542.293462418,N,13943.287682650,E,4,10,2.98,24.207,M,36.996,M,6.7,3107*45
$PMSBATV,075813.70,1,2,4.58474,1.41038,25.36156,-0.001,-0.016,-0.005,-160.86377,0.000*79
$GPGGA,075813.80,3542.293463796,N,13943.287680013,E,4,10,2.98,24.213,M,36.996,M,6.8,3107*47
$PMSBATV,075813.80,1,2,4.62032,1.41762,25.36436,-0.005,-0.007,-0.000,-160.86377,0.000*73
$GPGGA,075813.90,3542.293462254,N,13943.287681726,E,4,10,2.98,24.208,M,36.996,M,6.9,3107*47
$PMSBATV,075813.90,1,2,4.64096,1.40330,25.35993,-0.001,-0.002,-0.011,-160.86377,0.000*78
$GPGGA,075814.00,3542.293462539,N,13943.287682743,E,4,10,2.98,24.214,M,36.996,M,7.0,3107*40
$PMSBATV,075814.00,1,2,4.67012,1.36350,25.34275,0.015,0.007,-0.005,-160.86377,0.000*79
$GPGGA,075814.10,3542.293464563,N,13943.287687266,E,4,10,2.98,24.208,M,36.996,M,2.1,3107*46
$PMSBATV,075814.10,1,2,4.63589,1.42293,25.35959,-0.006,-0.003,-0.003,-160.86377,0.000*72
$GPGGA,075814.20,3542.293462063,N,13943.287682454,E,4,10,2.98,24.213,M,36.996,M,2.2,3107*4D
$PMSBATV,075814.20,1,2,4.64663,1.41888,25.35534,-0.004,0.000,0.013,-160.86377,0.000*75
$GPGGA,075814.30,3542.293461837,N,13943.287683978,E,4,10,2.98,24.202,M,36.996,M,2.3,3107*45
$PMSBATV,075814.30,1,2,4.68019,1.40277,25.35018,0.002,0.009,0.011,-160.86377,0.000*53
$GPGGA,075814.40,3542.293461881,N,13943.287687154,E,4,10,2.98,24.199,M,36.996,M,2.4,3107*4B
$PMSBATV,075814.40,1,2,4.65449,1.40679,25.35185,0.000,0.001,0.005,-160.86377,0.000*58
$GPGGA,075814.50,3542.293462312,N,13943.287684465,E,4,10,2.98,24.206,M,36.996,M,2.5,3107*48
$PMSBATV,075814.50,1,2,4.64749,1.40311,25.35285,-0.000,-0.001,0.004,-160.86377,0.000*52
$GPGGA,075814.60,3542.293462350,N,13943.287684164,E,4,10,2.98,24.207,M,36.996,M,2.6,3107*4B
$PMSBATV,075814.60,1,2,4.66926,1.38055,25.34638,0.007,0.008,0.008,-160.86377,0.000*59
$GPGGA,075814.70,3542.293463003,N,13943.287687769,E,4,10,2.98,24.201,M,36.996,M,2.7,3107*41
$PMSBATV,075814.70,1,2,4.62911,1.38527,25.34625,0.010,-0.002,0.004,-160.86377,0.000*79
$GPGGA,075814.80,3542.293464552,N,13943.287684804,E,4,10,2.98,24.208,M,36.996,M,2.8,3107*49
$PMSBATV,075814.80,1,2,4.60394,1.39474,25.34544,0.007,-0.009,0.000,-160.86377,0.000*78
$GPGGA,075814.90,3542.293465110,N,13943.287682192,E,4,10,2.98,24.213,M,36.996,M,2.9,3107*40
$PMSBATV,075814.90,1,2,4.66181,1.41168,25.34282,0.001,0.009,0.007,-160.86377,0.000*5F
$GPGGA,075815.00,3542.293462399,N,13943.287687106,E,4,10,2.98,24.203,M,36.996,M,3.0,3107*4D
$PMSBATV,075815.00,1,2,4.66226,1.41021,25.33908,0.002,0.010,0.016,-160.86377,0.000*50
$GPGGA,075815.10,3542.293462606,N,13943.287687810,E,4,10,2.98,24.198,M,36.996,M,3.1,3107*41
$PMSBATV,075815.10,1,2,4.63092,1.43465,25.34342,-0.006,-0.000,0.018,-160.86377,0.000*57
$GPGGA,075815.20,3542.293461923,N,13943.287684635,E,4,10,2.98,24.200,M,36.996,M,3.2,3107*42
$PMSBATV,075815.20,1,2,4.62621,1.40541,25.33536,0.004,0.003,0.017,-160.86377,0.000*53
$GPGGA,075815.30,3542.293463476,N,13943.287686467,E,4,10,2.98,24.198,M,36.996,M,3.3,3107*48
$PMSBATV,075815.30,1,2,4.65647,1.39891,25.33230,0.008,0.012,0.015,-160.86377,0.000*54
$GPGGA,075815.40,3542.293463413,N,13943.287689812,E,4,10,2.98,24.194,M,36.996,M,3.4,3107*46
$PMSBATV,075815.40,1,2,4.59184,1.42936,25.33817,-0.003,-0.007,0.017,-160.86377,0.000*56
$GPGGA,075815.50,3542.293463598,N,13943.287683500,E,4,10,2.98,24.200,M,36.996,M,3.5,3107*4E
$PMSBATV,075815.50,1,2,4.58931,1.42907,25.33323,-0.001,-0.007,0.014,-160.86377,0.000*5F
$GPGGA,075815.60,3542.293464131,N,13943.287683365,E,4,10,2.98,24.201,M,36.996,M,3.6,3107*4A
$PMSBATV,075815.60,1,2,4.62288,1.42357,25.33011,0.002,0.001,0.006,-160.86377,0.000*57
$GPGGA,075815.70,3542.293463872,N,13943.287685427,E,4,10,2.98,24.202,M,36.996,M,3.7,3107*47
$PMSBATV,075815.70,1,2,4.64593,1.43526,25.33276,-0.003,0.007,-0.004,-160.86377,0.000*5A
$GPGGA,075815.80,3542.293462059,N,13943.287686348,E,4,10,2.98,24.206,M,36.996,M,3.8,3107*4E
$PMSBATV,075815.80,1,2,4.65726,1.44802,25.33429,-0.009,0.011,0.006,-160.86377,0.000*7A
$GPGGA,075815.90,3542.293460298,N,13943.287687516,E,4,10,2.98,24.199,M,36.996,M,3.9,3107*4A
$PMSBATV,075815.90,1,2,4.64282,1.45158,25.33568,-0.011,0.008,0.009,-160.86377,0.000*7C
$GPGGA,075816.00,3542.293459455,N,13943.287686608,E,4,10,2.98,24.199,M,36.996,M,4.0,3107*4E
$PMSBATV,075816.00,1,2,4.61432,1.38837,25.32675,0.008,-0.000,0.017,-160.86377,0.000*75
$GPGGA,075816.10,3542.293463585,N,13943.287687013,E,4,10,2.98,24.197,M,36.996,M,4.1,3107*48
$PMSBATV,075816.10,1,2,4.56786,1.39908,25.32723,0.004,-0.014,0.014,-160.86377,0.000*78
$GPGGA,075816.20,3542.293464654,N,13943.287682345,E,4,10,2.98,24.203,M,36.996,M,4.2,3107*4B
$PMSBATV,075816.20,1,2,4.56502,1.41581,25.32970,-0.001,-0.016,0.004,-160.86377,0.000*54
$GPGGA,075816.30,3542.293464103,N,13943.287680242,E,4,10,2.98,24.209,M,36.996,M,4.3,3107*40
$PMSBATV,075816.30,1,2,4.60011,1.41091,25.32626,0.000,-0.007,-0.015,-160.86377,0.000*5E
$GPGGA,075816.40,3542.293463576,N,13943.287681449,E,4,10,2.98,24.218,M,36.996,M,4.4,3107*4D
$PMSBATV,075816.40,1,2,4.61706,1.36932,25.31363,0.015,-0.003,-0.013,-160.86377,0.000*58
$GPGGA,075816.50,3542.293466121,N,13943.287684545,E,4,10,2.98,24.216,M,36.996,M,4.5,3107*48
$PMSBATV,075816.50,1,2,4.58646,1.39725,25.32279,0.005,-0.009,-0.005,-160.86377,0.000*54
$GPGGA,075816.60,3542.293465456,N,13943.287681712,E,4,10,2.98,24.217,M,36.996,M,4.6,3107*4A
$PMSBATV,075816.60,1,2,4.57464,1.40253,25.32467,0.001,-0.012,-0.007,-160.86377,0.000*55
$GPGGA,075816.70,3542.293465448,N,13943.287680097,E,4,10,2.98,24.220,M,36.996,M,4.7,3107*4A
$PMSBATV,075816.70,1,2,4.60675,1.42147,25.32548,-0.003,-0.003,0.006,-160.86377,0.000*59
$GPGGA,075816.80,3542.293463537,N,13943.287682003,E,4,10,2.98,24.211,M,36.996,M,4.8,3107*48
$PMSBATV,075816.80,1,2,4.61877,1.42250,25.32017,-0.002,-0.000,0.008,-160.86377,0.000*5D
$GPGGA,075816.90,3542.293463405,N,13943.287682903,E,4,10,2.98,24.208,M,36.996,M,4.9,3107*49
$PMSBATV,075816.90,1,2,4.63854,1.40378,25.31286,0.004,0.004,0.007,-160.86377,0.000*52
$GPGGA,075817.00,3542.293464156,N,13943.287684834,E,4,10,2.98,24.207,M,36.996,M,5.0,3107*41
$PMSBATV,075817.00,1,2,4.62715,1.41017,25.31264,0.002,0.002,0.017,-160.86377,0.000*57
$GPGGA,075817.10,3542.293463990,N,13943.287684736,E,4,10,2.98,24.201,M,36.996,M,5.1,3107*4F
$PMSBATV,075817.10,1,2,4.61851,1.43290,25.31523,-0.005,0.000,0.009,-160.86377,0.000*76
$GPGGA,075817.20,3542.293462834,N,13943.287683192,E,4,10,2.98,24.206,M,36.996,M,5.2,3107*49
$PMSBATV,075817.20,1,2,4.60679,1.39601,25.30950,0.009,-0.003,0.008,-160.86377,0.000*76
$GPGGA,075817.30,3542.293465848,N,13943.287683350,E,4,10,2.98,24.208,M,36.996,M,5.3,3107*47
$PMSBATV,075817.30,1,2,4.58402,1.42948,25.31226,-0.003,-0.012,-0.001,-160.86377,0.000*74
$GPGGA,075817.40,3542.293464848,N,13943.287678864,E,4,10,2.98,24.218,M,36.996,M,5.4,3107*4F
$PMSBATV,075817.40,1,2,4.65947,1.39217,25.30514,0.009,0.010,0.001,-160.86377,0.000*5E
$GPGGA,075817.50,3542.293465044,N,13943.287686673,E,4,10,2.98,24.208,M,36.996,M,5.5,3107*42
$PMSBATV,075817.50,1,2,4.61455,1.41846,25.30831,-0.001,0.000,0.031,-160.86377,0.000*79
$GPGGA,075817.60,3542.293464434,N,13943.287684297,E,4,10,2.98,24.194,M,36.996,M,5.6,3107*4A
$PMSBATV,075817.60,1,2,4.58130,1.42922,25.31165,-0.006,-0.010,0.018,-160.86377,0.000*5F
$GPGGA,075817.70,3542.293464442,N,13943.287679663,E,4,10,2.98,24.204,M,36.996,M,5.7,3107*4C
$PMSBATV,075817.70,1,2,4.63418,1.41443,25.30790,-0.002,0.004,0.007,-160.86377,0.000*7F
$GPGGA,075817.80,3542.293463747,N,13943.287683552,E,4,10,2.98,24.204,M,36.996,M,5.8,3107*49
$PMSBATV,075817.80,1,2,4.64487,1.39655,25.30640,0.004,0.008,0.020,-160.86377,0.000*55
$GPGGA,075817.90,3542.293464385,N,13943.287686130,E,4,10,2.98,24.194,M,36.996,M,5.9,3107*4B
$PMSBATV,075817.90,1,2,4.63153,1.37963,25.30716,0.008,0.004,0.010,-160.86377,0.000*5A
$GPGGA,075818.00,3542.293465817,N,13943.287685154,E,4,10,2.98,24.201,M,36.996,M,6.0,3107*48
$PMSBATV,075818.00,1,2,4.67177,1.40501,25.31038,-0.001,0.013,0.006,-160.86377,0.000*79
$GPGGA,075818.10,3542.293463054,N,13943.287687169,E,4,10,2.98,24.200,M,36.996,M,1.1,3107*4B
$PMSBATV,075818.10,1,2,4.61417,1.39071,25.31167,0.004,-0.002,0.019,-160.86377,0.000*71
$GPGGA,075818.20,3542.293465606,N,13943.287684149,E,4,10,2.98,24.197,M,36.996,M,1.2,3107*40
$PMSBATV,075818.20,1,2,4.64043,1.40740,25.31112,0.000,0.006,0.020,-160.86377,0.000*5C
$GPGGA,075818.30,3542.293464043,N,13943.287686036,E,4,10,2.98,24.193,M,36.996,M,1.3,3107*49
$PMSBATV,075818.30,1,2,4.64778,1.42970,25.31034,-0.008,0.009,0.033,-160.86377,0.000*70
$GPGGA,075818.40,3542.293462160,N,13943.287686515,E,4,10,2.98,24.183,M,36.996,M,1.4,3107*4A
$PMSBATV,075818.40,1,2,4.66532,1.43725,25.30670,-0.010,0.016,0.030,-160.86377,0.000*75
$GPGGA,075818.50,3542.293460654,N,13943.287688435,E,4,10,2.98,24.179,M,36.996,M,1.5,3107*40
$PMSBATV,075818.50,1,2,4.61966,1.43593,25.30599,-0.008,0.004,0.032,-160.86377,0.000*7D
$GPGGA,075818.60,3542.293461647,N,13943.287685628,E,4,10,2.98,24.181,M,36.996,M,1.6,3107*47
$PMSBATV,075818.60,1,2,4.64814,1.42172,25.30552,-0.005,0.013,0.040,-160.86377,0.000*7C
$GPGGA,075818.70,3542.293461130,N,13943.287688380,E,4,10,2.98,24.171,M,36.996,M,1.7,3107*45
$PMSBATV,075818.70,1,2,4.61702,1.42209,25.30402,-0.005,0.002,0.042,-160.86377,0.000*79
$GPGGA,075818.80,3542.293462080,N,13943.287686286,E,4,10,2.98,24.168,M,36.996,M,1.8,3107*4D
$PMSBATV,075818.80,1,2,4.63675,1.41822,25.30158,-0.000,0.008,0.042,-160.86377,0.000*70
$GPGGA,075818.90,3542.293462181,N,13943.287688524,E,4,10,2.98,24.162,M,36.996,M,1.9,3107*46
$PMSBATV,075818.90,1,2,4.61888,1.41298,25.30149,0.002,0.001,0.027,-160.86377,0.000*51
$GPGGA,075819.00,3542.293462931,N,13943.287686345,E,4,10,2.98,24.171,M,36.996,M,2.0,3107*4A
$PMSBATV,075819.00,1,2,4.64202,1.40049,25.30142,0.005,0.006,0.015,-160.86377,0.000*51
$GPGGA,075819.10,3542.293463064,N,13943.287687899,E,4,10,2.98,24.174,M,36.996,M,2.1,3107*4C
$PMSBATV,075819.10,1,2,4.64289,1.38503,25.29943,0.010,0.008,0.014,-160.86377,0.000*5D
$GPGGA,075819.20,3542.293464092,N,13943.287689428,E,4,10,2.98,24.173,M,36.996,M,2.2,3107*4D
$PMSBATV,075819.20,1,2,4.62388,1.40160,25.30140,0.005,0.002,0.009,-160.86377,0.000*57
$GPGGA,075819.30,3542.293463865,N,13943.287687382,E,4,10,2.98,24.178,M,36.996,M,2.3,3107*48
$PMSBATV,075819.30,1,2,4.61600,1.41874,25.30409,-0.001,-0.001,0.016,-160.86377,0.000*5C
$GPGGA,075819.40,3542.293463245,N,13943.287686196,E,4,10,2.98,24.175,M,36.996,M,2.4,3107*4B
$PMSBATV,075819.40,1,2,4.62415,1.44575,25.30551,-0.012,0.002,0.012,-160.86377,0.000*73
$GPGGA,075819.50,3542.293460815,N,13943.287685503,E,4,10,2.98,24.176,M,36.996,M,2.5,3107*4F
$PMSBATV,075819.50,1,2,4.63767,1.41458,25.30053,0.000,0.007,0.026,-160.86377,0.000*55
$GPGGA,075819.60,3542.293462114,N,13943.287688325,E,4,10,2.98,24.165,M,36.996,M,2.6,3107*48
$PMSBATV,075819.60,1,2,4.60331,1.38114,25.29695,0.010,-0.004,0.022,-160.86377,0.000*7E
$GPGGA,075819.70,3542.293465304,N,13943.287686513,E,4,10,2.98,24.169,M,36.996,M,2.7,3107*4D
$PMSBATV,075819.70,1,2,4.56631,1.41244,25.30377,0.000,-0.013,0.023,-160.86377,0.000*70
$GPGGA,075819.80,3542.293464799,N,13943.287682594,E,4,10,2.98,24.171,M,36.996,M,2.8,3107*4E
$PMSBATV,075819.80,1,2,4.61473,1.41531,25.30191,0.000,-0.001,0.014,-160.86377,0.000*77
$GPGGA,075819.90,3542.293463523,N,13943.287685228,E,4,10,2.98,24.170,M,36.996,M,2.9,3107*4C
$PMSBATV,075819.90,1,2,4.61988,1.39043,25.29629,0.008,-0.001,0.027,-160.86377,0.000*74
$GPGGA,075820.00,3542.293465044,N,13943.287686588,E,4,10,2.98,24.160,M,36.996,M,3.0,3107*4A
$PMSBATV,075820.00,1,2,4.65009,1.42634,25.30423,-0.006,0.004,0.005,-160.86377,0.000*72
$GPGGA,075820.10,3542.293462040,N,13943.287685846,E,4,10,2.98,24.170,M,36.996,M,3.1,3107*44
$PMSBATV,075820.10,1,2,4.63471,1.39014,25.29776,0.006,0.001,-0.007,-160.86377,0.000*7A
$GPGGA,075820.20,3542.293464412,N,13943.287685519,E,4,10,2.98,24.180,M,36.996,M,3.2,3107*49
$PMSBATV,075820.20,1,2,4.60603,1.40667,25.30616,-0.002,-0.009,-0.001,-160.86377,0.000*74
$GPGGA,075820.30,3542.293464219,N,13943.287681742,E,4,10,2.98,24.183,M,36.996,M,3.3,3107*4F
$PMSBATV,075820.30,1,2,4.66102,1.39926,25.30241,-0.001,0.003,-0.010,-160.86377,0.000*53
$GPGGA,075820.40,3542.293463248,N,13943.287685259,E,4,10,2.98,24.184,M,36.996,M,3.4,3107*40
$PMSBATV,075820.40,1,2,4.64291,1.41813,25.30263,-0.006,0.000,-0.004,-160.86377,0.000*56
$GPGGA,075820.50,3542.293462469,N,13943.287683837,E,4,10,2.98,24.184,M,36.996,M,3.5,3107*40
$PMSBATV,075820.50,1,2,4.62745,1.38964,25.30115,0.004,-0.007,-0.008,-160.86377,0.000*59
$GPGGA,075820.60,3542.293464808,N,13943.287681914,E,4,10,2.98,24.192,M,36.996,M,3.6,3107*48
$PMSBATV,075820.60,1,2,4.68011,1.35841,25.29617,0.015,0.006,-0.012,-160.86377,0.000*77
$GPGGA,075820.70,3542.293465916,N,13943.287686803,E,4,10,2.98,24.191,M,36.996,M,3.7,3107*44
$PMSBATV,075820.70,1,2,4.63724,1.36028,25.29583,0.013,-0.001,-0.001,-160.86377,0.000*58
$GPGGA,075820.80,3542.293467019,N,13943.287685347,E,4,10,2.98,24.188,M,36.996,M,3.8,3107*40
$PMSBATV,075820.80,1,2,4.62854,1.39474,25.30069,0.001,-0.005,-0.002,-160.86377,0.000*51
$GPGGA,075820.90,3542.293465512,N,13943.287682924,E,4,10,2.98,24.193,M,36.996,M,3.9,3107*4E
$PMSBATV,075820.90,1,2,4.66638,1.38308,25.29737,0.003,0.005,0.002,-160.86377,0.000*5B
$GPGGA,075821.00,3542.293464964,N,13943.287685959,E,4,10,2.98,24.187,M,36.996,M,4.0,3107*4C
$PMSBATV,075821.00,1,2,4.63692,1.42210,25.30398,-0.011,-0.003,0.015,-160.86377,0.000*59
$GPGGA,075821.10,3542.293463161,N,13943.287682419,E,4,10,2.98,24.183,M,36.996,M,4.1,3107*4C
$PMSBATV,075821.10,1,2,4.63251,1.42157,25.30489,-0.011,-0.007,0.001,-160.86377,0.000*55
$GPGGA,075821.20,3542.293463084,N,13943.287679906,E,4,10,2.98,24.193,M,36.996,M,4.2,3107*40
$PMSBATV,075821.20,1,2,4.66215,1.38758,25.29984,-0.001,0.000,0.003,-160.86377,0.000*76
$GPGGA,075821.30,3542.293464162,N,13943.287682767,E,4,10,2.98,24.189,M,36.996,M,4.3,3107*48
$PMSBATV,075821.30,1,2,4.67210,1.37966,25.29628,0.002,0.005,0.006,-160.86377,0.000*58
$GPGGA,075821.40,3542.293464311,N,13943.287684316,E,4,10,2.98,24.187,M,36.996,M,4.4,3107*44
$PMSBATV,075821.40,1,2,4.70062,1.36142,25.29219,0.009,0.014,0.003,-160.86377,0.000*59
$GPGGA,075821.50,3542.293464558,N,13943.287688005,E,4,10,2.98,24.185,M,36.996,M,4.5,3107*40
$PMSBATV,075821.50,1,2,4.69330,1.36080,25.29224,0.009,0.013,0.014,-160.86377,0.000*54
$GPGGA,075821.60,3542.293464868,N,13943.287688874,E,4,10,2.98,24.179,M,36.996,M,4.6,3107*43
$PMSBATV,075821.60,1,2,4.71484,1.38836,25.29445,0.002,0.021,0.031,-160.86377,0.000*51
$GPGGA,075821.70,3542.293462591,N,13943.287691617,E,4,10,2.98,24.165,M,36.996,M,4.7,3107*40
$PMSBATV,075821.70,1,2,4.71186,1.37905,25.29409,0.007,0.022,0.034,-160.86377,0.000*52
$GPGGA,075821.80,3542.293463042,N,13943.287693452,E,4,10,2.98,24.160,M,36.996,M,4.8,3107*4E
$PMSBATV,075821.80,1,2,4.67262,1.36472,25.29670,0.009,0.011,0.027,-160.86377,0.000*5F
$GPGGA,075821.90,3542.293464832,N,13943.287691352,E,4,10,2.98,24.166,M,36.996,M,4.9,3107*45
$PMSBATV,075821.90,1,2,4.69335,1.37245,25.29448,0.008,0.017,0.032,-160.86377,0.000*5A
$GPGGA,075822.00,3542.293464091,N,13943.287693804,E,4,10,2.98,24.159,M,36.996,M,5.0,3107*40
$PMSBATV,075822.00,1,2,4.67661,1.36230,25.29454,0.014,0.011,0.023,-160.86377,0.000*5F
$GPGGA,075822.10,3542.293466041,N,13943.287693139,E,4,10,2.98,24.164,M,36.996,M,5.1,3107*46
$PMSBATV,075822.10,1,2,4.63739,1.36038,25.29810,0.014,-0.002,0.023,-160.86377,0.000*7F
$GPGGA,075822.20,3542.293467851,N,13943.287689883,E,4,10,2.98,24.168,M,36.996,M,5.2,3107*41
$PMSBATV,075822.20,1,2,4.64340,1.35036,25.29521,0.017,-0.002,0.012,-160.86377,0.000*72
$GPGGA,075822.30,3542.293469156,N,13943.287690305,E,4,10,2.98,24.173,M,36.996,M,5.3,3107*46
$PMSBATV,075822.30,1,2,4.62973,1.37699,25.29752,0.009,-0.003,0.015,-160.86377,0.000*71
$GPGGA,075822.40,3542.293468541,N,13943.287688924,E,4,10,2.98,24.172,M,36.996,M,5.4,3107*44
$PMSBATV,075822.40,1,2,4.63366,1.39362,25.30105,0.001,-0.002,0.013,-160.86377,0.000*75
$GPGGA,075822.50,3542.293467459,N,13943.287688284,E,4,10,2.98,24.172,M,36.996,M,5.5,3107*42
$PMSBATV,075822.50,1,2,4.66311,1.41280,25.30351,-0.005,0.006,0.010,-160.86377,0.000*73
$GPGGA,075822.60,3542.293465374,N,13943.287689829,E,4,10,2.98,24.171,M,36.996,M,5.6,3107*47
$PMSBATV,075822.60,1,2,4.65959,1.43483,25.30946,-0.013,0.008,0.000,-160.86377,0.000*76
$GPGGA,075822.70,3542.293463300,N,13943.287688995,E,4,10,2.98,24.176,M,36.996,M,5.7,3107*42
$PMSBATV,075822.70,1,2,4.62671,1.43563,25.30770,-0.012,-0.001,0.020,-160.86377,0.000*56
$GPGGA,075822.80,3542.293463558,N,13943.287687239,E,4,10,2.98,24.168,M,36.996,M,5.8,3107*44
$PMSBATV,075822.80,1,2,4.62830,1.40196,25.29559,-0.001,-0.003,0.007,-160.86377,0.000*5B
$GPGGA,075822.90,3542.293465587,N,13943.287686795,E,4,10,2.98,24.176,M,36.996,M,5.9,3107*4D
$PMSBATV,075822.90,1,2,4.68745,1.38346,25.29366,0.005,0.013,0.005,-160.86377,0.000*50
$GPGGA,075823.00,3542.293465013,N,13943.287692146,E,4,10,2.98,24.170,M,36.996,M,6.0,3107*4C
$PMSBATV,075823.00,1,2,4.64342,1.39578,25.29501,-0.001,0.001,0.015,-160.86377,0.000*71
$GPGGA,075823.10,3542.293465240,N,13943.287688436,E,4,10,2.98,24.170,M,36.996,M,1.1,3107*46
$PMSBATV,075823.10,1,2,4.64855,1.39080,25.29363,0.000,0.001,0.003,-160.86377,0.000*56
$GPGGA,075823.20,3542.293465433,N,13943.287688397,E,4,10,2.98,24.177,M,36.996,M,1.2,3107*4F
$PMSBATV,075823.20,1,2,4.65511,1.38911,25.29133,0.001,0.006,0.017,-160.86377,0.000*5D
$GPGGA,075823.30,3542.293465133,N,13943.287690477,E,4,10,2.98,24.166,M,36.996,M,1.3,3107*4A
$PMSBATV,075823.30,1,2,4.62659,1.40993,25.29709,-0.006,-0.003,0.015,-160.86377,0.000*5E
$GPGGA,075823.40,3542.293464456,N,13943.287687088,E,4,10,2.98,24.170,M,36.996,M,1.4,3107*48
$PMSBATV,075823.40,1,2,4.66257,1.38200,25.28672,0.005,0.009,0.029,-160.86377,0.000*53
$GPGGA,075823.50,3542.293465227,N,13943.287692267,E,4,10,2.98,24.155,M,36.996,M,1.5,3107*49
$PMSBATV,075823.50,1,2,4.64187,1.36647,25.28270,0.011,0.006,0.022,-160.86377,0.000*50
$GPGGA,075823.60,3542.293466848,N,13943.287692012,E,4,10,2.97,24.159,M,36.996,M,1.6,3107*4A
$PMSBATV,075823.60,1,2,4.63443,1.39620,25.28853,0.001,0.003,0.021,-160.86377,0.000*5B
$GPGGA,075823.70,3542.293465761,N,13943.287690217,E,4,10,2.97,24.160,M,36.996,M,1.7,3107*42
$PMSBATV,075823.70,1,2,4.65318,1.37436,25.28146,0.009,0.009,0.020,-160.86377,0.000*50
$GPGGA,075823.80,3542.293466621,N,13943.287693105,E,4,10,2.97,24.156,M,36.996,M,1.8,3107*42
$PMSBATV,075823.80,1,2,4.63290,1.37820,25.28015,0.010,0.004,0.030,-160.86377,0.000*50
$GPGGA,075823.90,3542.293467418,N,13943.287692606,E,4,10,2.97,24.150,M,36.996,M,1.9,3107*48
$PMSBATV,075823.90,1,2,4.63461,1.38552,25.27871,0.007,0.003,0.017,-160.86377,0.000*5F
$GPGGA,075824.00,3542.293467641,N,13943.287691426,E,4,10,2.97,24.158,M,36.996,M,2.0,3107*49
$PMSBATV,075824.00,1,2,4.65922,1.40740,25.28222,-0.001,0.010,0.014,-160.86377,0.000*7A
$GPGGA,075824.10,3542.293465533,N,13943.287693076,E,4,10,2.97,24.156,M,36.996,M,2.1,3107*40
$PMSBATV,075824.10,1,2,4.61229,1.42460,25.28638,-0.006,-0.000,0.017,-160.86377,0.000*5B
$GPGGA,075824.20,3542.293465428,N,13943.287689865,E,4,10,2.97,24.157,M,36.996,M,2.2,3107*4B
$PMSBATV,075824.20,1,2,4.60416,1.39435,25.27677,0.005,-0.005,0.022,-160.86377,0.000*76
$GPGGA,075824.30,3542.293467842,N,13943.287689919,E,4,10,2.97,24.153,M,36.996,M,2.3,3107*47
$PMSBATV,075824.30,1,2,4.58527,1.40329,25.28035,0.002,-0.010,0.012,-160.86377,0.000*74
$GPGGA,075824.40,3542.293468083,N,13943.287687271,E,4,10,2.97,24.160,M,36.996,M,2.4,3107*46
$PMSBATV,075824.40,1,2,4.62933,1.41699,25.28221,-0.003,-0.000,0.006,-160.86377,0.000*53
$GPGGA,075824.50,3542.293466376,N,13943.287689277,E,4,10,2.97,24.160,M,36.996,M,2.5,3107*49
$PMSBATV,075824.50,1,2,4.63629,1.41732,25.28002,-0.002,0.001,0.008,-160.86377,0.000*77
$GPGGA,075824.60,3542.293466164,N,13943.287689452,E,4,10,2.97,24.158,M,36.996,M,2.6,3107*42
$PMSBATV,075824.60,1,2,4.66776,1.40883,25.27582,-0.000,0.012,0.011,-160.86377,0.000*74
$GPGGA,075824.70,3542.293465328,N,13943.287693119,E,4,10,2.97,24.152,M,36.996,M,2.7,3107*40
$PMSBATV,075824.70,1,2,4.60550,1.41230,25.27139,-0.001,-0.005,0.004,-160.86377,0.000*5C
$GPGGA,075824.80,3542.293466955,N,13943.287688026,E,4,10,2.97,24.162,M,36.996,M,2.8,3107*47
$PMSBATV,075824.80,1,2,4.62433,1.42261,25.27375,-0.004,-0.001,0.004,-160.86377,0.000*59
$GPGGA,075824.90,3542.293465866,N,13943.287688839,E,4,10,2.97,24.161,M,36.996,M,2.9,3107*40
$PMSBATV,075824.90,1,2,4.65805,1.37985,25.26428,0.009,0.008,-0.005,-160.86377,0.000*73
$GPGGA,075825.00,3542.293467205,N,13943.287692698,E,4,10,2.97,24.163,M,36.996,M,3.0,3107*41
$PMSBATV,075825.00,1,2,4.64053,1.38833,25.26825,0.004,0.002,-0.001,-160.86377,0.000*70
$GPGGA,075825.10,3542.293467262,N,13943.287690962,E,4,10,2.97,24.164,M,36.996,M,3.1,3107*4F
$PMSBATV,075825.10,1,2,4.65429,1.41316,25.27577,-0.004,0.005,0.006,-160.86377,0.000*70
$GPGGA,075825.20,3542.293465068,N,13943.287691685,E,4,10,2.97,24.159,M,36.996,M,3.2,3107*4C
$PMSBATV,075825.20,1,2,4.64489,1.41374,25.27652,-0.005,0.002,0.018,-160.86377,0.000*71
$GPGGA,075825.30,3542.293464982,N,13943.287691279,E,4,10,2.97,24.153,M,36.996,M,3.3,3107*4D
$PMSBATV,075825.30,1,2,4.60942,1.37938,25.27069,0.006,-0.009,0.003,-160.86377,0.000*71
$GPGGA,075825.40,3542.293468364,N,13943.287688383,E,4,10,2.97,24.166,M,36.996,M,3.4,3107*49
$PMSBATV,075825.40,1,2,4.67358,1.39312,25.27080,0.003,0.009,0.002,-160.86377,0.000*52
$GPGGA,075825.50,3542.293466131,N,13943.287692987,E,4,10,2.97,24.160,M,36.996,M,3.5,3107*46
$PMSBATV,075825.50,1,2,4.62046,1.38114,25.26805,0.008,-0.005,0.011,-160.86377,0.000*73
$GPGGA,075825.60,3542.293468609,N,13943.287690147,E,4,10,2.97,24.160,M,36.996,M,3.6,3107*42
$PMSBATV,075825.60,1,2,4.59999,1.39852,25.27202,0.001,-0.012,0.012,-160.86377,0.000*79
$GPGGA,075825.70,3542.293468437,N,13943.287687122,E,4,10,2.97,24.162,M,36.996,M,3.7,3107*4A
$PMSBATV,075825.70,1,2,4.63099,1.36687,25.26192,0.011,-0.005,-0.004,-160.86377,0.000*57
$GPGGA,075825.80,3542.293470198,N,13943.287689299,E,4,10,2.97,24.168,M,36.996,M,3.8,3107*44
$PMSBATV,075825.80,1,2,4.62980,1.37318,25.26274,0.009,-0.005,0.004,-160.86377,0.000*75
$GPGGA,075825.90,3542.293470221,N,13943.287689300,E,4,10,2.97,24.164,M,36.996,M,3.9,3107*48
$PMSBATV,075825.90,1,2,4.62933,1.39904,25.27356,-0.001,-0.006,0.001,-160.86377,0.000*56
$GPGGA,075826.00,3542.293468622,N,13943.287687777,E,4,10,2.97,24.167,M,36.996,M,4.0,3107*4B
$PMSBATV,075826.00,1,2,4.65144,1.36396,25.26017,0.012,-0.002,-0.013,-160.86377,0.000*5F
$GPGGA,075826.10,3542.293470760,N,13943.287689568,E,4,10,2.97,24.175,M,36.996,M,4.1,3107*44
$PMSBATV,075826.10,1,2,4.64157,1.40166,25.27015,-0.000,-0.003,-0.001,-160.86377,0.000*7E
$GPGGA,075826.20,3542.293468915,N,13943.287688378,E,4,10,2.97,24.170,M,36.996,M,4.2,3107*42
$PMSBATV,075826.20,1,2,4.62976,1.41710,25.27488,-0.005,-0.006,0.001,-160.86377,0.000*5B
$GPGGA,075826.30,3542.293468246,N,13943.287686372,E,4,10,2.97,24.172,M,36.996,M,4.3,3107*49
$PMSBATV,075826.30,1,2,4.64424,1.41266,25.27360,-0.005,-0.004,-0.011,-160.86377,0.000*7D
$GPGGA,075826.40,3542.293468136,N,13943.287686063,E,4,10,2.97,24.180,M,36.996,M,4.4,3107*43
$PMSBATV,075826.40,1,2,4.66222,1.43383,25.27402,-0.011,0.002,-0.002,-160.86377,0.000*5F
$GPGGA,075826.50,3542.293466009,N,13943.287687457,E,4,10,2.97,24.173,M,36.996,M,4.5,3107*4E
$PMSBATV,075826.50,1,2,4.67880,1.36679,25.26095,0.012,0.010,-0.004,-160.86377,0.000*7F
$GPGGA,075826.60,3542.293469215,N,13943.287691796,E,4,10,2.97,24.173,M,36.996,M,4.6,3107*47
$PMSBATV,075826.60,1,2,4.67037,1.37744,25.25934,0.010,0.004,-0.005,-160.86377,0.000*71
$GPGGA,075826.70,3542.293469825,N,13943.287690747,E,4,10,2.97,24.176,M,36.996,M,4.7,3107*46
$PMSBATV,075826.70,1,2,4.65737,1.39436,25.26137,0.005,0.002,-0.003,-160.86377,0.000*71
$GPGGA,075826.80,3542.293469336,N,13943.287689817,E,4,10,2.97,24.178,M,36.996,M,4.8,3107*43
$PMSBATV,075826.80,1,2,4.66337,1.41456,25.26182,-0.001,0.007,0.000,-160.86377,0.000*7C
$GPGGA,075826.90,3542.293467987,N,13943.287690535,E,4,10,2.97,24.177,M,36.996,M,4.9,3107*47
$PMSBATV,075826.90,1,2,4.64387,1.40049,25.26177,0.004,0.002,0.012,-160.86377,0.000*5B
$GPGGA,075827.00,3542.293469289,N,13943.287689982,E,4,10,2.97,24.172,M,36.996,M,5.0,3107*41
$PMSBATV,075827.00,1,2,4.64334,1.42816,25.26263,-0.005,0.001,0.004,-160.86377,0.000*75
$GPGGA,075827.10,3542.293467757,N,13943.287688445,E,4,10,2.97,24.177,M,36.996,M,5.1,3107*4B
$PMSBATV,075827.10,1,2,4.63691,1.42363,25.26016,-0.001,0.002,0.007,-160.86377,0.000*74
$GPGGA,075827.20,3542.293468134,N,13943.287688978,E,4,10,2.97,24.176,M,36.996,M,5.2,3107*45
$PMSBATV,075827.20,1,2,4.60456,1.42637,25.26044,-0.003,-0.008,0.016,-160.86377,0.000*5B
$GPGGA,075827.30,3542.293468769,N,13943.287686109,E,4,10,2.97,24.174,M,36.996,M,5.3,3107*49
$PMSBATV,075827.30,1,2,4.58480,1.40575,25.25547,0.003,-0.015,0.009,-160.86377,0.000*77
$GPGGA,075827.40,3542.293471167,N,13943.287683990,E,4,10,2.97,24.179,M,36.996,M,5.4,3107*49
$PMSBATV,075827.40,1,2,4.64326,1.39395,25.25297,0.009,0.001,0.003,-160.86377,0.000*50
$GPGGA,075827.50,3542.293470732,N,13943.287688382,E,4,10,2.97,24.177,M,36.996,M,5.5,3107*42
$PMSBATV,075827.50,1,2,4.66861,1.39507,25.25249,0.009,0.007,0.010,-160.86377,0.000*51
$GPGGA,075827.60,3542.293470388,N,13943.287691088,E,4,10,2.97,24.170,M,36.996,M,5.6,3107*41
$PMSBATV,075827.60,1,2,4.62162,1.42008,25.25921,0.001,-0.004,0.025,-160.86377,0.000*7F
$GPGGA,075827.70,3542.293470345,N,13943.287687845,E,4,10,2.97,24.165,M,36.996,M,5.7,3107*4A
$PMSBATV,075827.70,1,2,4.65049,1.41958,25.25624,0.003,0.005,0.026,-160.86377,0.000*59
$GPGGA,075827.80,3542.293469984,N,13943.287690322,E,4,10,2.97,24.159,M,36.996,M,5.8,3107*46
$PMSBATV,075827.80,1,2,4.65605,1.38399,25.24921,0.013,0.006,0.023,-160.86377,0.000*5D
$GPGGA,075827.90,3542.293472191,N,13943.287692175,E,4,10,2.97,24.158,M,36.996,M,5.9,3107*43
$PMSBATV,075827.90,1,2,4.68703,1.40310,25.25128,0.010,0.014,0.017,-160.86377,0.000*5F
$GPGGA,075828.00,3542.293470842,N,13943.287694587,E,4,10,2.97,24.157,M,36.996,M,6.0,3107*4A
$PMSBATV,075828.00,1,2,4.63329,1.41003,25.25297,0.009,0.001,0.017,-160.86377,0.000*55
$GPGGA,075828.10,3542.293472286,N,13943.287691077,E,4,10,2.97,24.161,M,36.996,M,1.1,3107*47
$PMSBATV,075828.10,1,2,4.63872,1.42527,25.25354,0.003,0.002,0.013,-160.86377,0.000*52
$GPGGA,075828.20,3542.293471564,N,13943.287690944,E,4,10,2.97,24.163,M,36.996,M,1.2,3107*45
$PMSBATV,075828.20,1,2,4.67818,1.42855,25.24995,0.003,0.014,0.016,-160.86377,0.000*55
$GPGGA,075828.30,3542.293470521,N,13943.287694695,E,4,10,2.97,24.156,M,36.996,M,1.3,3107*44
$PMSBATV,075828.30,1,2,4.59336,1.44357,25.25435,-0.001,-0.009,0.028,-160.86377,0.000*54
$GPGGA,075828.40,3542.293472077,N,13943.287688288,E,4,10,2.97,24.156,M,36.996,M,1.4,3107*45
$PMSBATV,075828.40,1,2,4.62745,1.46023,25.25129,-0.006,0.001,0.010,-160.86377,0.000*78
$GPGGA,075828.50,3542.293470156,N,13943.287689471,E,4,10,2.97,24.162,M,36.996,M,1.5,3107*43
$PMSBATV,075828.50,1,2,4.60722,1.43934,25.25027,-0.001,-0.006,0.004,-160.86377,0.000*57
$GPGGA,075828.60,3542.293471884,N,13943.287687372,E,4,10,2.97,24.168,M,36.996,M,1.6,3107*44
$PMSBATV,075828.60,1,2,4.59103,1.42930,25.24692,0.002,-0.011,0.008,-160.86377,0.000*73
$GPGGA,075828.70,3542.293473111,N,13943.287686094,E,4,10,2.97,24.168,M,36.996,M,1.7,3107*49
$PMSBATV,075828.70,1,2,4.64994,1.41514,25.24385,0.007,0.005,0.007,-160.86377,0.000*52
$GPGGA,075828.80,3542.293472688,N,13943.287691111,E,4,10,2.97,24.161,M,36.996,M,1.8,3107*4C
$PMSBATV,075828.80,1,2,4.62181,1.41934,25.24492,0.004,-0.003,0.012,-160.86377,0.000*74
$GPGGA,075828.90,3542.293473361,N,13943.287688817,E,4,10,2.97,24.162,M,36.996,M,1.9,3107*4B
$PMSBATV,075828.90,1,2,4.62952,1.43407,25.24793,-0.000,-0.000,0.012,-160.86377,0.000*54
$GPGGA,075829.00,3542.293472413,N,13943.287689182,E,4,10,2.97,24.160,M,36.996,M,2.0,3107*4C
$PMSBATV,075829.00,1,2,4.62415,1.43478,25.24807,-0.002,0.000,0.019,-160.86377,0.000*7C
$GPGGA,075829.10,3542.293472205,N,13943.287689206,E,4,10,2.97,24.155,M,36.996,M,2.1,3107*44
$PMSBATV,075829.10,1,2,4.66177,1.44493,25.25146,-0.007,0.008,0.013,-160.86377,0.000*70
$GPGGA,075829.20,3542.293470369,N,13943.287690874,E,4,10,2.97,24.154,M,36.996,M,2.2,3107*4B
$PMSBATV,075829.20,1,2,4.68991,1.44326,25.24965,-0.008,0.018,0.024,-160.86377,0.000*76
$GPGGA,075829.30,3542.293468799,N,13943.287694394,E,4,10,2.97,24.143,M,36.996,M,2.3,3107*4E
$PMSBATV,075829.30,1,2,4.66392,1.44043,25.25268,-0.010,0.010,0.009,-160.86377,0.000*79
$GPGGA,075829.40,3542.293468605,N,13943.287691878,E,4,10,2.97,24.154,M,36.996,M,2.4,3107*40
$PMSBATV,075829.40,1,2,4.69957,1.39663,25.24907,0.004,0.024,0.018,-160.86377,0.000*50
$GPGGA,075829.50,3542.293469483,N,13943.287697743,E,4,10,2.97,24.143,M,36.996,M,2.5,3107*4A
$PMSBATV,075829.50,1,2,4.64655,1.39699,25.24702,0.005,0.006,0.009,-160.86377,0.000*5E
$GPGGA,075829.60,3542.293471373,N,13943.287693368,E,4,10,2.97,24.154,M,36.996,M,2.6,3107*44
$PMSBATV,075829.60,1,2,4.65160,1.37107,25.24899,0.013,0.005,-0.003,-160.86377,0.000*7D
$GPGGA,075829.70,3542.293473189,N,13943.287694159,E,4,10,2.97,24.162,M,36.996,M,2.7,3107*43
$PMSBATV,075829.70,1,2,4.60190,1.38213,25.25090,0.010,-0.009,0.010,-160.86377,0.000*72
$GPGGA,075829.80,3542.293474697,N,13943.287690794,E,4,10,2.97,24.160,M,36.996,M,2.8,3107*4D
$PMSBATV,075829.80,1,2,4.58788,1.39800,25.25410,0.005,-0.012,0.018,-160.86377,0.000*7A
$GPGGA,075829.90,3542.293474418,N,13943.287689209,E,4,10,2.97,24.156,M,36.996,M,2.9,3107*44
$PMSBATV,075829.90,1,2,4.63658,1.40047,25.25094,0.003,-0.001,0.008,-160.86377,0.000*77
$GPGGA,075830.00,3542.293473622,N,13943.287691361,E,4,10,2.97,24.158,M,36.996,M,3.0,3107*49
$PMSBATV,075830.00,1,2,4.66282,1.41978,25.25375,-0.002,0.005,0.005,-160.86377,0.000*70
$GPGGA,075830.10,3542.293471880,N,13943.287692343,E,4,10,2.97,24.158,M,36.996,M,3.1,3107*4E
$PMSBATV,075830.10,1,2,4.63794,1.42143,25.25731,-0.004,0.002,0.016,-160.86377,0.000*72
$GPGGA,075830.20,3542.293471802,N,13943.287691305,E,4,10,2.97,24.153,M,36.996,M,3.2,3107*4E
$PMSBATV,075830.20,1,2,4.63749,1.44855,25.26468,-0.013,0.001,0.012,-160.86377,0.000*74
$GPGGA,075830.30,3542.293470011,N,13943.287689585,E,4,10,2.97,24.156,M,36.996,M,3.3,3107*47
$PMSBATV,075830.30,1,2,4.63139,1.40337,25.24743,0.005,-0.003,0.010,-160.86377,0.000*70
$GPGGA,075830.40,3542.293473361,N,13943.287690194,E,4,10,2.97,24.157,M,36.996,M,3.4,3107*4D
$PMSBATV,075830.40,1,2,4.60824,1.41646,25.25148,0.001,-0.009,0.017,-160.86377,0.000*76
$GPGGA,075830.50,3542.293473605,N,13943.287687770,E,4,10,2.97,24.156,M,36.996,M,3.5,3107*41
$PMSBATV,075830.50,1,2,4.68692,1.42406,25.25315,-0.003,0.012,0.016,-160.86377,0.000*7A
$GPGGA,075830.60,3542.293470925,N,13943.287693159,E,4,10,2.97,24.147,M,36.996,M,3.6,3107*47
$PMSBATV,075830.60,1,2,4.64227,1.41154,25.24886,0.003,-0.000,0.024,-160.86377,0.000*7C
$GPGGA,075830.70,3542.293472746,N,13943.287690838,E,4,10,2.97,24.145,M,36.996,M,3.7,3107*41
$PMSBATV,075830.70,1,2,4.63933,1.39828,25.24412,0.005,-0.001,0.007,-160.86377,0.000*7E
$GPGGA,075830.80,3542.293473912,N,13943.287690213,E,4,10,2.97,24.155,M,36.996,M,3.8,3107*4D
$PMSBATV,075830.80,1,2,4.61709,1.39006,25.24241,0.009,-0.010,0.010,-160.86377,0.000*7A
$GPGGA,075830.90,3542.293475643,N,13943.287688226,E,4,10,2.97,24.157,M,36.996,M,3.9,3107*4D
$PMSBATV,075830.90,1,2,4.65306,1.40018,25.24452,0.004,-0.002,0.007,-160.86377,0.000*79
$GPGGA,075831.00,3542.293474322,N,13943.287690015,E,4,10,2.97,24.155,M,36.996,M,4.0,3107*41
$PMSBATV,075831.00,1,2,4.64527,1.42668,25.25260,-0.004,-0.003,0.007,-160.86377,0.000*5C
$GPGGA,075831.10,3542.293472994,N,13943.287688381,E,5,05,6.42,24.156,M,36.996,M,4.1,3107*4D
$PMSBATV,075831.10,1,2,4.70697,1.44395,25.25433,-0.010,0.012,-0.028,-160.86377,0.000*59
$GPGGA,075831.20,3542.293470180,N,13943.287690176,E,4,10,2.97,24.174,M,36.996,M,4.2,3107*48
$PMSBATV,075831.20,1,2,4.80569,1.46963,25.25740,-0.019,0.038,-0.080,-160.86377,0.000*52
$GPGGA,075831.30,3542.293464734,N,13943.287695353,E,4,10,2.97,24.202,M,36.996,M,4.3,3107*46
$PMSBATV,075831.30,1,2,4.76121,1.47091,25.25755,-0.021,0.027,-0.100,-160.86377,0.000*5F
$GPGGA,075831.40,3542.293464151,N,13943.287692061,E,4,10,2.97,24.230,M,36.996,M,4.4,3107*47
$PMSBATV,075831.40,1,2,4.71838,1.51826,25.25886,-0.041,0.016,-0.096,-160.86377,0.000*56
$GPGGA,075831.50,3542.293459812,N,13943.287687368,E,4,10,2.97,24.245,M,36.996,M,4.5,3107*4B
$PMSBATV,075831.50,1,2,4.69275,1.48000,25.25929,-0.030,0.010,-0.095,-160.86377,0.000*5E
$GPGGA,075831.60,3542.293460745,N,13943.287686344,E,4,10,2.97,24.259,M,36.996,M,4.6,3107*4E
$PMSBATV,075831.60,1,2,4.63058,1.45721,25.25534,-0.022,-0.006,-0.088,-160.86377,0.000*76
$GPGGA,075831.70,3542.293462670,N,13943.287682155,E,4,10,2.97,24.273,M,36.996,M,4.7,3107*45
$PMSBATV,075831.70,1,2,4.62670,1.46154,25.25034,-0.028,-0.007,-0.070,-160.86377,0.000*74
$GPGGA,075831.80,3542.293460832,N,13943.287680725,E,4,10,2.97,24.274,M,36.996,M,4.8,3107*4B
$PMSBATV,075831.80,1,2,4.57159,1.43215,25.24253,-0.017,-0.024,-0.056,-160.86377,0.000*79
$GPGGA,075831.90,3542.293463835,N,13943.287676179,E,4,10,2.97,24.280,M,36.996,M,4.9,3107*42
$PMSBATV,075831.90,1,2,4.54855,1.40928,25.23844,-0.009,-0.030,-0.042,-160.86377,0.000*7C
$GPGGA,075832.00,3542.293465816,N,13943.287673811,E,4,10,2.97,24.281,M,36.996,M,5.0,3107*44
$PMSBATV,075832.00,1,2,4.60238,1.41542,25.24412,-0.012,-0.017,-0.035,-160.86377,0.000*76
$GPGGA,075832.10,3542.293464031,N,13943.287675486,E,4,10,2.97,24.278,M,36.996,M,5.1,3107*4A
$PMSBATV,075832.10,1,2,4.60307,1.40934,25.24337,-0.011,-0.021,-0.040,-160.86377,0.000*72
$GPGGA,075832.20,3542.293464391,N,13943.287672705,E,4,10,2.97,24.288,M,36.996,M,5.2,3107*43
$PMSBATV,075832.20,1,2,4.62865,1.36931,25.22401,0.001,-0.014,-0.029,-160.86377,0.000*59
$GPGGA,075832.30,3542.293466367,N,13943.287675356,E,4,10,2.97,24.284,M,36.996,M,5.3,3107*41
$PMSBATV,075832.30,1,2,4.60857,1.38076,25.22843,-0.001,-0.019,-0.020,-160.86377,0.000*7C
$GPGGA,075832.40,3542.293466712,N,13943.287672763,E,4,10,2.97,24.286,M,36.996,M,5.4,3107*40
$PMSBATV,075832.40,1,2,4.64332,1.33698,25.20394,0.015,-0.010,-0.008,-160.86377,0.000*52
$GPGGA,075832.50,3542.293469193,N,13943.287676587,E,4,10,2.97,24.277,M,36.996,M,5.5,3107*42
$PMSBATV,075832.50,1,2,4.64091,1.34802,25.20947,0.012,-0.011,-0.004,-160.86377,0.000*5D
$GPGGA,075832.60,3542.293469812,N,13943.287675410,E,4,10,2.97,24.278,M,36.996,M,5.6,3107*41
$PMSBATV,075832.60,1,2,4.68971,1.34938,25.20381,0.013,0.004,0.007,-160.86377,0.000*5B
$GPGGA,075832.70,3542.293468945,N,13943.287679768,E,4,10,2.97,24.268,M,36.996,M,5.7,3107*42
$PMSBATV,075832.70,1,2,4.68766,1.36569,25.21038,0.009,0.004,-0.001,-160.86377,0.000*78
$GPGGA,075832.80,3542.293468804,N,13943.287678786,E,4,10,2.97,24.274,M,36.996,M,5.8,3107*4A
$PMSBATV,075832.80,1,2,4.68074,1.37763,25.21470,0.006,0.001,-0.003,-160.86377,0.000*7A
$GPGGA,075832.90,3542.293468905,N,13943.287677585,E,4,10,2.97,24.279,M,36.996,M,5.9,3107*49
$PMSBATV,075832.90,1,2,4.68084,1.38680,25.21984,0.003,0.006,0.007,-160.86377,0.000*5A
$GPGGA,075833.00,3542.293468048,N,13943.287678374,E,4,10,2.97,24.273,M,36.996,M,6.0,3107*46
$PMSBATV,075833.00,1,2,4.66511,1.38700,25.22369,0.002,0.003,0.019,-160.86377,0.000*5D
$GPGGA,075833.10,3542.293468572,N,13943.287677615,E,4,10,2.97,24.268,M,36.996,M,6.1,3107*4D
$PMSBATV,075833.10,1,2,4.68211,1.37168,25.22049,0.009,0.006,0.016,-160.86377,0.000*52
$GPGGA,075833.20,3542.293470026,N,13943.287678851,E,4,10,2.97,24.268,M,36.996,M,6.2,3107*41
$PMSBATV,075833.20,1,2,4.64871,1.40640,25.22906,-0.002,-0.005,0.021,-160.86377,0.000*52
$GPGGA,075833.30,3542.293469299,N,13943.287674370,E,4,10,2.97,24.270,M,36.996,M,6.3,3107*42
$PMSBATV,075833.30,1,2,4.67559,1.37845,25.22588,0.006,0.004,0.032,-160.86377,0.000*51
$GPGGA,075833.40,3542.293470246,N,13943.287677608,E,4,10,2.97,24.258,M,36.996,M,6.4,3107*4B
$PMSBATV,075833.40,1,2,4.68324,1.39503,25.22458,0.002,0.006,0.037,-160.86377,0.000*5B
$GPGGA,075833.50,3542.293469508,N,13943.287678288,E,4,10,2.97,24.252,M,36.996,M,6.5,3107*47
$PMSBATV,075833.50,1,2,4.67689,1.39788,25.22786,0.001,0.005,0.030,-160.86377,0.000*51
$GPGGA,075833.60,3542.293469736,N,13943.287676839,E,4,10,2.97,24.255,M,36.996,M,6.6,3107*41
$PMSBATV,075833.60,1,2,4.71275,1.40324,25.22824,-0.002,0.012,0.012,-160.86377,0.000*71
$GPGGA,075833.70,3542.293468473,N,13943.287678015,E,4,10,2.97,24.262,M,36.996,M,6.7,3107*4E
$PMSBATV,075833.70,1,2,4.69678,1.40000,25.22791,0.000,0.008,0.010,-160.86377,0.000*52
$GPGGA,075833.80,3542.293469247,N,13943.287677127,E,4,10,2.97,24.265,M,36.996,M,6.8,3107*46
$PMSBATV,075833.80,1,2,4.64693,1.37616,25.22602,0.010,-0.005,0.017,-160.86377,0.000*79
$GPGGA,075833.90,3542.293472680,N,13943.287674391,E,4,10,2.97,24.266,M,36.996,M,6.9,3107*4C
$PMSBATV,075833.90,1,2,4.68614,1.39259,25.22887,0.004,0.005,0.012,-160.86377,0.000*54
$GPGGA,075834.00,3542.293471081,N,13943.287676406,E,4,10,2.97,24.266,M,36.996,M,7.0,3107*45
$PMSBATV,075834.00,1,2,4.69219,1.42395,25.23376,-0.005,0.007,0.008,-160.86377,0.000*7E
$GPGGA,075834.10,3542.293469139,N,13943.287675736,E,4,10,2.97,24.268,M,36.996,M,2.1,3107*46
$PMSBATV,075834.10,1,2,4.63800,1.41540,25.23290,-0.003,-0.006,0.020,-160.86377,0.000*53
$GPGGA,075834.20,3542.293471047,N,13943.287672115,E,4,10,2.97,24.266,M,36.996,M,2.2,3107*49
$PMSBATV,075834.20,1,2,4.67779,1.41253,25.23397,-0.004,0.004,0.012,-160.86377,0.000*7F
$GPGGA,075834.30,3542.293470098,N,13943.287673772,E,4,10,2.97,24.268,M,36.996,M,2.3,3107*42
$PMSBATV,075834.30,1,2,4.72324,1.45566,25.23995,-0.017,0.018,0.027,-160.86377,0.000*72
$GPGGA,075834.40,3542.293465635,N,13943.287677070,E,4,10,2.97,24.252,M,36.996,M,2.4,3107*4F
$PMSBATV,075834.40,1,2,4.69845,1.43864,25.23790,-0.012,0.011,0.024,-160.86377,0.000*7E
$GPGGA,075834.50,3542.293466513,N,13943.287675700,E,4,10,2.97,24.255,M,36.996,M,2.5,3107*4E
$PMSBATV,075834.50,1,2,4.67475,1.41581,25.23199,-0.004,0.005,0.026,-160.86377,0.000*75
$GPGGA,075834.60,3542.293468503,N,13943.287674050,E,4,10,2.97,24.257,M,36.996,M,2.6,3107*40
$PMSBATV,075834.60,1,2,4.68334,1.42693,25.23556,-0.010,0.007,0.018,-160.86377,0.000*75
$GPGGA,075834.70,3542.293467058,N,13943.287673793,E,4,10,2.97,24.260,M,36.996,M,2.7,3107*4F
$PMSBATV,075834.70,1,2,4.68088,1.41731,25.23371,-0.008,0.009,0.014,-160.86377,0.000*72
$GPGGA,075834.80,3542.293467150,N,13943.287674037,E,4,10,2.97,24.261,M,36.996,M,2.8,3107*49
$PMSBATV,075834.80,1,2,4.66095,1.42513,25.23362,-0.010,0.003,0.024,-160.86377,0.000*7C
$GPGGA,075834.90,3542.293466933,N,13943.287672089,E,4,10,2.97,24.258,M,36.996,M,2.9,3107*4C
$PMSBATV,075834.90,1,2,4.64708,1.40120,25.22854,-0.001,-0.002,0.023,-160.86377,0.000*5E
$GPGGA,075835.00,3542.293468952,N,13943.287671059,E,4,10,2.97,24.259,M,36.996,M,3.0,3107*4A
$PMSBATV,075835.00,1,2,4.67424,1.38701,25.22826,0.004,0.005,0.012,-160.86377,0.000*57
$GPGGA,075835.10,3542.293469481,N,13943.287673061,E,4,10,2.97,24.262,M,36.996,M,3.1,3107*49
$PMSBATV,075835.10,1,2,4.66197,1.37349,25.22112,0.012,0.002,0.023,-160.86377,0.000*51
$GPGGA,075835.20,3542.293471688,N,13943.287673247,E,4,10,2.97,24.257,M,36.996,M,3.2,3107*4B
$PMSBATV,075835.20,1,2,4.65308,1.40985,25.23237,-0.001,-0.001,0.021,-160.86377,0.000*59
$GPGGA,075835.30,3542.293469816,N,13943.287670980,E,4,10,2.97,24.259,M,36.996,M,3.3,3107*46
$PMSBATV,075835.30,1,2,4.66579,1.40506,25.23120,-0.000,0.003,0.017,-160.86377,0.000*72
$GPGGA,075835.40,3542.293469862,N,13943.287671352,E,4,10,2.97,24.260,M,36.996,M,3.4,3107*4B
$PMSBATV,075835.40,1,2,4.69163,1.40845,25.22944,0.001,0.010,0.013,-160.86377,0.000*5E
$GPGGA,075835.50,3542.293469480,N,13943.287673150,E,4,10,2.97,24.259,M,36.996,M,3.5,3107*43
$PMSBATV,075835.50,1,2,4.70715,1.40204,25.22847,0.003,0.016,0.017,-160.86377,0.000*5D
$GPGGA,075835.60,3542.293469215,N,13943.287675208,E,4,10,2.97,24.255,M,36.996,M,3.6,3107*4D
$PMSBATV,075835.60,1,2,4.67572,1.37765,25.22131,0.011,0.005,0.018,-160.86377,0.000*5F
$GPGGA,075835.70,3542.293472344,N,13943.287673572,E,4,10,2.97,24.259,M,36.996,M,3.7,3107*42
$PMSBATV,075835.70,1,2,4.70798,1.36618,25.21989,0.014,0.015,0.027,-160.86377,0.000*54
$GPGGA,075835.80,3542.293472472,N,13943.287677380,E,4,10,2.97,24.248,M,36.996,M,3.8,3107*4F
$PMSBATV,075835.80,1,2,4.72761,1.37571,25.22149,0.010,0.024,0.030,-160.86377,0.000*55
$GPGGA,075835.90,3542.293471255,N,13943.287680539,E,4,10,2.97,24.242,M,36.996,M,3.9,3107*49
$PMSBATV,075835.90,1,2,4.72066,1.39569,25.22673,0.005,0.024,0.031,-160.86377,0.000*58
$GPGGA,075836.00,3542.293470206,N,13943.287680830,E,4,10,2.97,24.240,M,36.996,M,4.0,3107*4C
$PMSBATV,075836.00,1,2,4.69862,1.39834,25.22923,0.001,0.018,0.038,-160.86377,0.000*59
$GPGGA,075836.10,3542.293470112,N,13943.287680090,E,4,10,2.97,24.236,M,36.996,M,4.1,3107*49
$PMSBATV,075836.10,1,2,4.70360,1.40203,25.23029,0.001,0.022,0.045,-160.86377,0.000*58
$GPGGA,075836.20,3542.293469382,N,13943.287681976,E,4,10,2.97,24.228,M,36.996,M,4.2,3107*45
$PMSBATV,075836.20,1,2,4.69281,1.39833,25.22987,0.003,0.018,0.033,-160.86377,0.000*5C
$GPGGA,075836.30,3542.293470124,N,13943.287681299,E,4,10,2.97,24.234,M,36.996,M,4.3,3107*44
$PMSBATV,075836.30,1,2,4.67702,1.41613,25.23256,-0.004,0.013,0.023,-160.86377,0.000*78
$GPGGA,075836.40,3542.293469309,N,13943.287679230,E,4,10,2.97,24.241,M,36.996,M,4.4,3107*47
$PMSBATV,075836.40,1,2,4.64743,1.44021,25.23607,-0.014,0.005,0.024,-160.86377,0.000*7A
$GPGGA,075836.50,3542.293467932,N,13943.287675998,E,4,10,2.97,24.242,M,36.996,M,4.5,3107*4D
$PMSBATV,075836.50,1,2,4.63411,1.43277,25.23438,-0.012,-0.001,0.014,-160.86377,0.000*5C
$GPGGA,075836.60,3542.293468700,N,13943.287673905,E,4,10,2.97,24.249,M,36.996,M,4.6,3107*44
$PMSBATV,075836.60,1,2,4.65950,1.38389,25.22477,0.003,0.005,0.006,-160.86377,0.000*50
$GPGGA,075836.70,3542.293470913,N,13943.287676580,E,4,10,2.97,24.252,M,36.996,M,4.7,3107*4F
$PMSBATV,075836.70,1,2,4.66374,1.38049,25.22282,0.006,0.005,0.006,-160.86377,0.000*58
$GPGGA,075836.80,3542.293471556,N,13943.287677041,E,4,10,2.97,24.253,M,36.996,M,4.8,3107*4B
$PMSBATV,075836.80,1,2,4.66859,1.40581,25.22989,-0.002,0.007,0.011,-160.86377,0.000*70
$GPGGA,075836.90,3542.293469975,N,13943.287677059,E,4,10,2.97,24.250,M,36.996,M,4.9,3107*45
$PMSBATV,075836.90,1,2,4.68634,1.41425,25.23537,-0.006,0.014,0.024,-160.86377,0.000*7C
$GPGGA,075837.00,3542.293468111,N,13943.287679187,E,4,10,2.97,24.238,M,36.996,M,5.0,3107*4C
$PMSBATV,075837.00,1,2,4.68370,1.37971,25.22273,0.006,0.013,0.018,-160.86377,0.000*5F
$GPGGA,075837.10,3542.293470528,N,13943.287680044,E,4,10,2.97,24.242,M,36.996,M,5.1,3107*4E
$PMSBATV,075837.10,1,2,4.67894,1.39327,25.22550,0.003,0.012,0.023,-160.86377,0.000*5D
$GPGGA,075837.20,3542.293470261,N,13943.287680063,E,4,10,2.97,24.239,M,36.996,M,5.2,3107*4D
$PMSBATV,075837.20,1,2,4.66370,1.39577,25.22524,0.004,0.009,0.031,-160.86377,0.000*50
$GPGGA,075837.30,3542.293470626,N,13943.287679760,E,4,10,2.97,24.234,M,36.996,M,5.3,3107*45
$PMSBATV,075837.30,1,2,4.64984,1.37623,25.21910,0.011,0.003,0.015,-160.86377,0.000*5E
$GPGGA,075837.40,3542.293473169,N,13943.287678518,E,4,10,2.97,24.246,M,36.996,M,5.4,3107*43
$PMSBATV,075837.40,1,2,4.59483,1.36971,25.21773,0.014,-0.014,0.009,-160.86377,0.000*7C
$GPGGA,075837.50,3542.293476228,N,13943.287673475,E,4,10,2.97,24.257,M,36.996,M,5.5,3107*41
$PMSBATV,075837.50,1,2,4.65299,1.37541,25.21767,0.013,0.004,0.029,-160.86377,0.000*5D
$GPGGA,075837.60,3542.293475160,N,13943.287678890,E,4,10,2.96,24.237,M,36.996,M,5.6,3107*46
$PMSBATV,075837.60,1,2,4.67243,1.38552,25.21897,0.011,0.010,0.021,-160.86377,0.000*59
$GPGGA,075837.70,3542.293474688,N,13943.287680496,E,4,10,2.96,24.238,M,36.996,M,5.7,3107*44
$PMSBATV,075837.70,1,2,4.69329,1.44370,25.24554,-0.009,0.014,0.025,-160.86377,0.000*75
$GPGGA,075837.80,3542.293470550,N,13943.287679902,E,4,10,2.96,24.234,M,36.996,M,5.8,3107*4C
$PMSBATV,075837.80,1,2,4.70434,1.43641,25.24139,-0.006,0.019,0.049,-160.86377,0.000*7E
$GPGGA,075837.90,3542.293470062,N,13943.287683066,E,4,10,2.96,24.215,M,36.996,M,5.9,3107*45
$PMSBATV,075837.90,1,2,4.66099,1.39872,25.22561,0.007,0.008,0.038,-160.86377,0.000*5D
$GPGGA,075838.00,3542.293473794,N,13943.287681265,E,4,10,2.96,24.223,M,36.996,M,6.0,3107*42
$PMSBATV,075838.00,1,2,4.69357,1.42140,25.23558,-0.002,0.016,0.023,-160.86377,0.000*77
$GPGGA,075838.10,3542.293471544,N,13943.287682291,E,4,10,2.96,24.226,M,36.996,M,6.1,3107*42
$PMSBATV,075838.10,1,2,4.65971,1.46320,25.25160,-0.018,0.006,0.037,-160.86377,0.000*72
$GPGGA,075838.20,3542.293468912,N,13943.287678673,E,4,10,2.96,24.220,M,36.996,M,1.2,3107*49
$PMSBATV,075838.20,1,2,4.67781,1.44127,25.24240,-0.010,0.014,0.051,-160.86377,0.000*7E
$GPGGA,075838.30,3542.293469148,N,13943.287682122,E,4,10,2.96,24.206,M,36.996,M,1.3,3107*4D
$PMSBATV,075838.30,1,2,4.75063,1.43164,25.24100,-0.008,0.036,0.061,-160.86377,0.000*7A
$GPGGA,075838.40,3542.293466628,N,13943.287689653,E,4,10,2.96,24.186,M,36.996,M,1.4,3107*42
$PMSBATV,075838.40,1,2,4.73751,1.41822,25.23796,-0.005,0.033,0.054,-160.86377,0.000*74
$GPGGA,075838.50,3542.293466709,N,13943.287690321,E,4,10,2.96,24.186,M,36.996,M,1.5,3107*48
$PMSBATV,075838.50,1,2,4.72624,1.41125,25.23303,-0.001,0.029,0.046,-160.86377,0.000*7D
$GPGGA,075838.60,3542.293467432,N,13943.287690446,E,4,10,2.96,24.188,M,36.996,M,1.6,3107*4A
$PMSBATV,075838.60,1,2,4.69366,1.41189,25.22915,0.000,0.020,0.056,-160.86377,0.000*59
$GPGGA,075838.70,3542.293468035,N,13943.287689458,E,4,10,2.96,24.182,M,36.996,M,1.7,3107*4B
$PMSBATV,075838.70,1,2,4.64641,1.38838,25.22374,0.008,0.008,0.047,-160.86377,0.000*57
$GPGGA,075838.80,3542.293470951,N,13943.287687102,E,4,10,2.96,24.187,M,36.996,M,1.8,3107*48
$PMSBATV,075838.80,1,2,4.63639,1.38273,25.22194,0.011,0.001,0.030,-160.86377,0.000*58
$GPGGA,075838.90,3542.293472838,N,13943.287685320,E,4,10,2.96,24.197,M,36.996,M,1.9,3107*45
$PMSBATV,075838.90,1,2,4.66050,1.36273,25.21630,0.019,0.007,0.021,-160.86377,0.000*5F
$GPGGA,075839.00,3542.293474250,N,13943.287687980,E,4,10,2.96,24.197,M,36.996,M,2.0,3107*47
$PMSBATV,075839.00,1,2,4.61889,1.39696,25.22461,0.007,-0.005,0.009,-160.86377,0.000*73
$GPGGA,075839.10,3542.293474016,N,13943.287683431,E,4,10,2.96,24.208,M,36.996,M,2.1,3107*41
$PMSBATV,075839.10,1,2,4.62133,1.37973,25.21776,0.013,-0.007,-0.006,-160.86377,0.000*50
$GPGGA,075839.20,3542.293475839,N,13943.287682724,E,4,10,2.96,24.219,M,36.996,M,2.2,3107*43
$PMSBATV,075839.20,1,2,4.64829,1.34801,25.20152,0.024,0.001,-0.005,-160.86377,0.000*7D
$GPGGA,075839.30,3542.293477907,N,13943.287686357,E,4,10,2.96,24.217,M,36.996,M,2.3,3107*47
$PMSBATV,075839.30,1,2,4.65572,1.39387,25.22440,0.008,0.004,-0.005,-160.86377,0.000*79
$GPGGA,075839.40,3542.293475261,N,13943.287685718,E,4,10,2.96,24.218,M,36.996,M,2.4,3107*4D
$PMSBATV,075839.40,1,2,4.63852,1.38200,25.21891,0.012,-0.002,-0.007,-160.86377,0.000*59
$GPGGA,075839.50,3542.293477062,N,13943.287684706,E,4,10,2.96,24.223,M,36.996,M,2.5,3107*48
$PMSBATV,075839.50,1,2,4.63522,1.42035,25.24266,-0.002,-0.005,-0.005,-160.86377,0.000*75
$GPGGA,075839.60,3542.293474910,N,13943.287682311,E,4,10,2.96,24.225,M,36.996,M,2.6,3107*45
$PMSBATV,075839.60,1,2,4.64365,1.41957,25.24132,-0.003,-0.002,0.004,-160.86377,0.000*52
$GPGGA,075839.70,3542.293474538,N,13943.287683395,E,4,10,2.96,24.219,M,36.996,M,2.7,3107*41
$PMSBATV,075839.70,1,2,4.65143,1.44823,25.25490,-0.013,-0.001,-0.005,-160.86377,0.000*71
$GPGGA,075839.80,3542.293472307,N,13943.287681813,E,4,10,2.96,24.226,M,36.996,M,2.8,3107*46
$PMSBATV,075839.80,1,2,4.69869,1.42754,25.24808,-0.009,0.013,0.001,-160.86377,0.000*7A
$GPGGA,075839.90,3542.293471124,N,13943.287686165,E,4,10,2.96,24.218,M,36.996,M,2.9,3107*44
$PMSBATV,075839.90,1,2,4.69246,1.38429,25.22616,0.007,0.013,0.001,-160.86377,0.000*5C
$GPGGA,075840.00,3542.293473671,N,13943.287688454,E,4,10,2.96,24.217,M,36.996,M,3.0,3107*48
$PMSBATV,075840.00,1,2,4.62910,1.38971,25.22403,0.006,-0.004,0.018,-160.86377,0.000*7C
$GPGGA,075840.10,3542.293475296,N,13943.287684370,E,4,10,2.96,24.214,M,36.996,M,3.1,3107*4D
$PMSBATV,075840.10,1,2,4.64327,1.39343,25.22796,0.004,-0.002,0.008,-160.86377,0.000*75
$GPGGA,075840.20,3542.293475025,N,13943.287684406,E,4,10,2.96,24.218,M,36.996,M,3.2,3107*4D
$PMSBATV,075840.20,1,2,4.65654,1.38883,25.22430,0.008,0.003,0.024,-160.86377,0.000*51
$GPGGA,075840.30,3542.293475298,N,13943.287686716,E,4,10,2.96,24.206,M,36.996,M,3.3,3107*46
$PMSBATV,075840.30,1,2,4.66244,1.42385,25.23407,-0.003,0.005,0.026,-160.86377,0.000*71
$GPGGA,075840.40,3542.293473284,N,13943.287686457,E,4,10,2.96,24.202,M,36.996,M,3.4,3107*4F
$PMSBATV,075840.40,1,2,4.66611,1.39187,25.22327,0.007,0.006,0.018,-160.86377,0.000*5D
$GPGGA,075840.50,3542.293475076,N,13943.287687397,E,4,10,2.96,24.205,M,36.996,M,3.5,3107*4B
$PMSBATV,075840.50,1,2,4.66103,1.39112,25.22255,0.006,0.004,0.024,-160.86377,0.000*5C
$GPGGA,075840.60,3542.293475405,N,13943.287687486,E,4,10,2.96,24.201,M,36.996,M,3.6,3107*48
$PMSBATV,075840.60,1,2,4.64443,1.40121,25.22507,0.002,0.003,0.037,-160.86377,0.000*53
$GPGGA,075840.70,3542.293474929,N,13943.287687368,E,4,10,2.96,24.191,M,36.996,M,3.7,3107*47
$PMSBATV,075840.70,1,2,4.64704,1.41995,25.23237,-0.004,0.003,0.026,-160.86377,0.000*7A
$GPGGA,075840.80,3542.293473634,N,13943.287685948,E,4,10,2.96,24.195,M,36.996,M,3.8,3107*4D
$PMSBATV,075840.80,1,2,4.71081,1.38645,25.21970,0.007,0.019,0.025,-160.86377,0.000*5B
$GPGGA,075840.90,3542.293474078,N,13943.287692364,E,4,10,2.96,24.186,M,36.996,M,3.9,3107*44
$PMSBATV,075840.90,1,2,4.68664,1.38932,25.22004,0.006,0.012,0.026,-160.86377,0.000*50
$GPGGA,075841.00,3542.293474570,N,13943.287691476,E,4,10,2.96,24.186,M,36.996,M,4.0,3107*48
$PMSBATV,075841.00,1,2,4.66413,1.39038,25.22053,0.006,0.007,0.036,-160.86377,0.000*51
$GPGGA,075841.10,3542.293475144,N,13943.287690770,E,4,10,2.96,24.180,M,36.996,M,4.1,3107*48
$PMSBATV,075841.10,1,2,4.68716,1.38984,25.21926,0.006,0.012,0.025,-160.86377,0.000*59
