$GPGGA,042602.20,3542.293983355,N,13943.287670849,E,5,02,99.90,23.606,M,36.996,M,5.2,2107*70
$PMSBATV,042602.20,2,2,4.34765,1.48716,139.07486,0.000,0.000,-0.000,175.77712,0.000*6B
$GPGGA,042602.30,3542.293983327,N,13943.287670841,E,5,02,99.90,23.606,M,36.996,M,5.3,2107*7D
$PMSBATV,042602.30,2,2,4.34641,1.48721,139.07146,0.000,0.000,0.000,175.77712,0.000*4D
$GPGGA,042602.40,3542.293983298,N,13943.287670830,E,5,02,99.90,23.606,M,36.996,M,5.4,2107*7E
$PMSBATV,042602.40,2,2,4.34635,1.48516,139.06792,-0.000,0.000,0.000,175.77712,0.000*6C
$GPGGA,042602.50,3542.293983269,N,13943.287670831,E,5,02,99.90,23.606,M,36.996,M,5.5,2107*71
$PMSBATV,042602.50,2,2,4.34792,1.48471,139.07123,0.000,0.000,-0.000,175.77712,0.000*6C
$GPGGA,042602.60,3542.293983235,N,13943.287670828,E,5,02,99.90,23.606,M,36.996,M,5.6,2107*70
$PMSBATV,042602.60,2,2,4.34285,1.48806,139.07046,0.000,0.000,-0.000,175.77712,0.000*62
$GPGGA,042602.70,3542.293983206,N,13943.287670823,E,5,02,99.90,23.606,M,36.996,M,5.7,2107*7B
$PMSBATV,042602.70,2,2,4.34429,1.48763,139.07414,0.000,-0.000,-0.000,175.77712,0.000*41
$GPGGA,042602.80,3542.293983179,N,13943.287670823,E,5,02,99.90,23.606,M,36.996,M,5.8,2107*70
$PMSBATV,042602.80,2,2,4.34781,1.48585,139.07429,0.000,-0.000,-0.000,175.77712,0.000*4B
$GPGGA,042602.90,3542.293983151,N,13943.287670814,E,5,02,99.90,23.606,M,36.996,M,5.9,2107*7E
$PMSBATV,042602.90,2,2,4.34111,1.48452,139.07302,-0.000,0.000,0.000,175.77712,0.000*6D
$GPGGA,042603.00,3542.293983125,N,13943.287670814,E,5,02,99.90,23.606,M,36.996,M,6.0,2107*7F
$PMSBATV,042603.00,2,2,4.34513,1.48531,139.06952,-0.000,-0.000,-0.000,175.77712,0.000*69
$GPGGA,042603.10,3542.293983091,N,13943.287670808,E,5,02,99.90,23.606,M,36.996,M,1.1,2107*7B
$PMSBATV,042603.10,2,2,4.34519,1.48764,139.07228,0.000,0.000,0.000,175.77712,0.000*4A
$GPGGA,042603.20,3542.293983060,N,13943.287670803,E,5,02,99.90,23.606,M,36.996,M,1.2,2107*7E
$PMSBATV,042603.20,2,2,4.33489,1.48682,139.07361,-0.000,0.000,-0.000,175.77712,0.000*43
$GPGGA,042603.30,3542.293983036,N,13943.287670792,E,5,02,99.90,23.606,M,36.996,M,1.3,2107*7A
$PMSBATV,042603.30,2,2,4.33524,1.48231,139.07167,-0.000,0.000,-0.000,175.77712,0.000*4C
$GPGGA,042603.40,3542.293983005,N,13943.287670795,E,5,02,99.90,23.606,M,36.996,M,1.4,2107*7D
$PMSBATV,042603.40,2,2,4.33267,1.48273,139.07052,0.000,0.000,0.000,175.77712,0.000*4A
$GPGGA,042603.50,3542.293982973,N,13943.287670794,E,5,02,99.90,23.606,M,36.996,M,1.5,2107*75
$PMSBATV,042603.50,2,2,4.32968,1.48408,139.07215,0.000,-0.000,0.000,175.77712,0.000*68
$GPGGA,042603.60,3542.293982944,N,13943.287670793,E,5,02,99.90,23.606,M,36.996,M,1.6,2107*76
$PMSBATV,042603.60,2,2,4.33080,1.48396,139.06768,0.000,-0.000,-0.000,175.77712,0.000*46
$GPGGA,042603.70,3542.293982917,N,13943.287670793,E,5,02,99.90,23.606,M,36.996,M,1.7,2107*70
$PMSBATV,042603.70,2,2,4.32497,1.48383,139.06864,0.000,0.000,-0.000,175.77712,0.000*6E
$GPGGA,042603.80,3542.293982887,N,13943.287670795,E,5,02,99.90,23.606,M,36.996,M,1.8,2107*7E
$PMSBATV,042603.80,2,2,4.32255,1.48708,139.06958,0.000,-0.000,0.000,175.77712,0.000*60
$GPGGA,042603.90,3542.293982864,N,13943.287670795,E,5,02,99.90,23.606,M,36.996,M,1.9,2107*73
$PMSBATV,042603.90,2,2,4.32428,1.48776,139.06865,0.000,-0.000,-0.000,175.77712,0.000*46
$GPGGA,042604.00,3542.293982839,N,13943.287670801,E,5,02,99.90,23.606,M,36.996,M,2.0,2107*7D
$PMSBATV,042604.00,2,2,4.32533,1.48959,139.06864,0.000,-0.000,0.000,175.77712,0.000*6C
$GPGGA,042604.10,3542.293982811,N,13943.287670804,E,5,02,99.90,23.606,M,36.996,M,2.1,2107*72
$PMSBATV,042604.10,2,2,4.32902,1.49098,139.06996,0.000,-0.000,0.000,175.77712,0.000*6A
$GPGGA,042604.20,3542.293982781,N,13943.287670803,E,5,02,99.90,23.606,M,36.996,M,2.2,2107*73
$PMSBATV,042604.20,2,2,4.32819,1.49027,139.06997,0.000,0.000,-0.000,175.77712,0.000*67
$GPGGA,042604.30,3542.293982748,N,13943.287670802,E,5,02,99.90,23.606,M,36.996,M,2.3,2107*77
$PMSBATV,042604.30,2,2,4.32029,1.49018,139.06970,0.000,0.000,-0.000,175.77712,0.000*68
$GPGGA,042604.40,3542.293982717,N,13943.287670802,E,5,02,99.90,23.606,M,36.996,M,2.4,2107*7D
$PMSBATV,042604.40,2,2,4.32029,1.49183,139.07069,0.000,-0.000,-0.000,175.77712,0.000*41
$GPGGA,042604.50,3542.293982689,N,13943.287670802,E,5,02,99.90,23.606,M,36.996,M,2.5,2107*7B
$PMSBATV,042604.50,2,2,4.31529,1.48729,139.07093,0.000,0.000,0.000,175.77712,0.000*44
$GPGGA,042604.60,3542.293982658,N,13943.287670800,E,5,02,99.90,23.606,M,36.996,M,2.6,2107*75
$PMSBATV,042604.60,2,2,4.31276,1.49486,139.06906,-0.000,0.000,-0.000,175.77712,0.000*49
$GPGGA,042604.70,3542.293982634,N,13943.287670800,E,5,02,99.90,23.606,M,36.996,M,2.7,2107*7F
$PMSBATV,042604.70,2,2,4.32231,1.49639,139.06798,0.000,-0.000,-0.000,175.77712,0.000*47
$GPGGA,042604.80,3542.293982604,N,13943.287670803,E,5,02,99.90,23.606,M,36.996,M,2.8,2107*7F
$PMSBATV,042604.80,2,2,4.32510,1.49788,139.07023,0.000,-0.000,-0.000,175.77712,0.000*41
$GPGGA,042604.90,3542.293982581,N,13943.287670799,E,5,02,99.90,23.606,M,36.996,M,2.9,2107*7D
$PMSBATV,042604.90,2,2,4.32566,1.49443,139.06520,-0.000,-0.000,-0.000,175.77712,0.000*6F
$GPGGA,042605.00,3542.293982554,N,13943.287670794,E,5,02,99.90,23.606,M,36.996,M,3.0,2107*78
$PMSBATV,042605.00,2,2,4.33035,1.48958,139.06544,0.000,-0.000,-0.000,175.77712,0.000*4C
$GPGGA,042605.10,3542.293982522,N,13943.287670793,E,5,02,99.90,23.606,M,36.996,M,3.1,2107*7E
$PMSBATV,042605.10,2,2,4.32661,1.49190,139.06413,0.000,0.000,-0.000,175.77712,0.000*68
$GPGGA,042605.20,3542.293982493,N,13943.287670787,E,5,02,99.90,23.605,M,36.996,M,3.2,2107*73
$PMSBATV,042605.20,2,2,4.33030,1.49232,139.06375,-0.000,0.000,0.000,175.77712,0.000*64
$GPGGA,042605.30,3542.293982467,N,13943.287670783,E,5,02,99.90,23.605,M,36.996,M,3.3,2107*7C
$PMSBATV,042605.30,2,2,4.33065,1.49178,139.06406,-0.000,-0.000,-0.000,175.77712,0.000*6B
$GPGGA,042605.40,3542.293982438,N,13943.287670771,E,5,02,99.90,23.605,M,36.996,M,3.4,2107*7B
$PMSBATV,042605.40,2,2,4.32534,1.48758,139.06456,-0.000,0.000,-0.000,175.77712,0.000*41
$GPGGA,042605.50,3542.293982411,N,13943.287670768,E,5,02,99.90,23.605,M,36.996,M,3.5,2107*78
$PMSBATV,042605.50,2,2,4.32245,1.48774,139.06503,0.000,-0.000,0.000,175.77712,0.000*63
$GPGGA,042605.60,3542.293982379,N,13943.287670760,E,5,02,99.90,23.605,M,36.996,M,3.6,2107*79
$PMSBATV,042605.60,2,2,4.32188,1.48898,139.07108,0.000,0.000,-0.000,175.77712,0.000*61
$GPGGA,042605.70,3542.293982348,N,13943.287670761,E,5,02,99.90,23.605,M,36.996,M,3.7,2107*7A
$PMSBATV,042605.70,2,2,4.32173,1.48964,139.07076,0.000,0.000,-0.000,175.77712,0.000*6E
$GPGGA,042605.80,3542.293982318,N,13943.287670753,E,5,02,99.90,23.605,M,36.996,M,3.8,2107*7E
$PMSBATV,042605.80,2,2,4.31684,1.48171,139.07288,0.000,0.000,-0.000,175.77712,0.000*62
$GPGGA,042605.90,3542.293982287,N,13943.287670750,E,5,02,99.90,23.605,M,36.996,M,3.9,2107*7A
$PMSBATV,042605.90,2,2,4.31674,1.48012,139.07519,0.000,-0.000,-0.000,175.77712,0.000*4A
$GPGGA,042606.00,3542.293982255,N,13943.287670740,E,5,02,99.90,23.605,M,36.996,M,4.0,2107*70
$PMSBATV,042606.00,2,2,4.31101,1.47953,139.07410,-0.000,0.000,0.000,175.77712,0.000*63
$GPGGA,042606.10,3542.293982224,N,13943.287670739,E,5,02,99.90,23.605,M,36.996,M,4.1,2107*78
$PMSBATV,042606.10,2,2,4.31423,1.48202,139.06945,0.000,-0.000,-0.000,175.77712,0.000*46
$GPGGA,042606.20,3542.293982194,N,13943.287670734,E,5,02,99.90,23.605,M,36.996,M,4.2,2107*7D
$PMSBATV,042606.20,2,2,4.31580,1.48409,139.07259,0.000,0.000,-0.000,175.77712,0.000*6A
$GPGGA,042606.30,3542.293982168,N,13943.287670722,E,5,02,99.90,23.605,M,36.996,M,4.3,2107*79
$PMSBATV,042606.30,2,2,4.31432,1.47798,139.07383,-0.000,0.000,-0.000,175.77712,0.000*4C
$GPGGA,042606.40,3542.293982136,N,13943.287670716,E,5,02,99.90,23.605,M,36.996,M,4.4,2107*75
$PMSBATV,042606.40,2,2,4.31313,1.48171,139.07661,0.000,0.000,-0.000,175.77712,0.000*65
$GPGGA,042606.50,3542.293982105,N,13943.287670716,E,5,02,99.90,23.605,M,36.996,M,4.5,2107*75
$PMSBATV,042606.50,2,2,4.31629,1.48209,139.07876,0.000,0.000,-0.000,175.77712,0.000*6C
$GPGGA,042606.60,3542.293982071,N,13943.287670711,E,5,02,99.90,23.605,M,36.996,M,4.6,2107*70
$PMSBATV,042606.60,2,2,4.31257,1.48373,139.07868,0.000,0.000,0.000,175.77712,0.000*4C
$GPGGA,042606.70,3542.293982038,N,13943.287670717,E,5,02,99.90,23.605,M,36.996,M,4.7,2107*7B
$PMSBATV,042606.70,2,2,4.31836,1.48569,139.07971,0.000,0.000,-0.000,175.77712,0.000*69
$GPGGA,042606.80,3542.293982008,N,13943.287670714,E,5,02,99.90,23.605,M,36.996,M,4.8,2107*7B
$PMSBATV,042606.80,2,2,4.31362,1.48741,139.07901,0.000,-0.000,0.000,175.77712,0.000*63
$GPGGA,042606.90,3542.293981977,N,13943.287670704,E,5,02,99.90,23.605,M,36.996,M,4.9,2107*78
$PMSBATV,042606.90,2,2,4.31033,1.48943,139.07952,0.000,0.000,-0.000,175.77712,0.000*6F
$GPGGA,042607.00,3542.293981948,N,13943.287670708,E,5,02,99.90,23.605,M,36.996,M,5.0,2107*78
$PMSBATV,042607.00,2,2,4.31536,1.49010,139.08130,0.000,-0.000,-0.000,175.77712,0.000*47
$GPGGA,042607.10,3542.293981918,N,13943.287670707,E,5,02,99.90,23.605,M,36.996,M,5.1,2107*72
$PMSBATV,042607.10,2,2,4.31299,1.49367,139.08377,0.000,-0.000,-0.000,175.77712,0.000*46
$GPGGA,042607.20,3542.293981891,N,13943.287670698,E,5,02,99.90,23.605,M,36.996,M,5.2,2107*75
$PMSBATV,042607.20,2,2,4.30911,1.49128,139.08490,-0.000,-0.000,-0.000,175.77712,0.000*65
$GPGGA,042607.30,3542.293981867,N,13943.287670693,E,5,02,99.90,23.605,M,36.996,M,5.3,2107*77
$PMSBATV,042607.30,2,2,4.31804,1.48892,139.08416,-0.000,-0.000,-0.000,175.77712,0.000*67
$GPGGA,042607.40,3542.293981833,N,13943.287670696,E,5,02,99.90,23.605,M,36.996,M,5.4,2107*73
$PMSBATV,042607.40,2,2,4.32100,1.49375,139.08347,0.000,0.000,0.000,175.77712,0.000*43
$GPGGA,042607.50,3542.293981804,N,13943.287670698,E,5,02,99.90,23.605,M,36.996,M,5.5,2107*79
$PMSBATV,042607.50,2,2,4.31919,1.49083,139.08154,0.000,0.000,0.000,175.77712,0.000*4B
$GPGGA,042607.60,3542.293981777,N,13943.287670693,E,5,02,99.90,23.605,M,36.996,M,5.6,2107*79
$PMSBATV,042607.60,2,2,4.32091,1.49164,139.08024,0.000,-0.000,-0.000,175.77712,0.000*4C
$GPGGA,042607.70,3542.293981750,N,13943.287670694,E,5,02,99.90,23.605,M,36.996,M,5.7,2107*7B
$PMSBATV,042607.70,2,2,4.32253,1.49379,139.08011,0.000,-0.000,-0.000,175.77712,0.000*49
$GPGGA,042607.80,3542.293981725,N,13943.287670691,E,5,02,99.90,23.605,M,36.996,M,5.8,2107*7C
$PMSBATV,042607.80,2,2,4.32141,1.49515,139.07900,-0.000,-0.000,-0.000,175.77712,0.000*61
$GPGGA,042607.90,3542.293981698,N,13943.287670690,E,5,02,99.90,23.605,M,36.996,M,5.9,2107*7A
$PMSBATV,042607.90,2,2,4.32320,1.49896,139.08058,-0.000,0.000,-0.000,175.77712,0.000*45
$GPGGA,042608.00,3542.293981673,N,13943.287670685,E,5,02,99.90,23.605,M,36.996,M,6.0,2107*77
$PMSBATV,042608.00,2,2,4.32105,1.49883,139.08502,-0.000,0.000,-0.000,175.77712,0.000*48
$GPGGA,042608.10,3542.293981647,N,13943.287670685,E,5,02,99.90,23.605,M,36.996,M,1.1,2107*77
$PMSBATV,042608.10,2,2,4.32261,1.49967,139.08201,0.000,-0.000,-0.000,175.77712,0.000*47
$GPGGA,042608.20,3542.293981624,N,13943.287670681,E,5,02,99.90,23.605,M,36.996,M,1.2,2107*76
$PMSBATV,042608.20,2,2,4.32816,1.50220,139.08173,-0.000,-0.000,-0.000,175.77712,0.000*65
$GPGGA,042608.30,3542.293981601,N,13943.287670677,E,5,02,99.90,23.605,M,36.996,M,1.3,2107*78
$PMSBATV,042608.30,2,2,4.33282,1.49871,139.07788,-0.000,-0.000,0.000,175.77712,0.000*44
$GPGGA,042608.40,3542.293981575,N,13943.287670678,E,5,02,99.90,23.605,M,36.996,M,1.4,2107*77
$PMSBATV,042608.40,2,2,4.33087,1.49709,139.07727,0.000,-0.000,-0.000,175.77712,0.000*41
$GPGGA,042608.50,3542.293981550,N,13943.287670672,E,5,02,99.90,23.605,M,36.996,M,1.5,2107*7A
$PMSBATV,042608.50,2,2,4.33913,1.49517,139.07735,-0.000,0.000,-0.000,175.77712,0.000*4A
$GPGGA,042608.60,3542.293981524,N,13943.287670667,E,5,02,99.90,23.605,M,36.996,M,1.6,2107*7D
$PMSBATV,042608.60,2,2,4.34229,1.49249,139.07716,0.000,-0.000,0.000,175.77712,0.000*6C
$GPGGA,042608.70,3542.293981493,N,13943.287670664,E,5,02,99.90,23.605,M,36.996,M,1.7,2107*73
$PMSBATV,042608.70,2,2,4.33828,1.49425,139.07632,-0.000,0.000,-0.000,175.77712,0.000*47
$GPGGA,042608.80,3542.293981469,N,13943.287670659,E,5,02,99.90,23.605,M,36.996,M,1.8,2107*78
$PMSBATV,042608.80,2,2,4.34003,1.49116,139.07659,-0.000,-0.000,0.000,175.77712,0.000*46
$GPGGA,042608.90,3542.293981440,N,13943.287670653,E,5,02,99.90,23.605,M,36.996,M,1.9,2107*79
$PMSBATV,042608.90,2,2,4.33506,1.48969,139.07821,0.000,0.000,-0.000,175.77712,0.000*6D
$GPGGA,042609.00,3542.293981406,N,13943.287670648,E,5,02,99.90,23.605,M,36.996,M,2.0,2107*73
$PMSBATV,042609.00,2,2,4.32969,1.48903,139.07849,-0.000,0.000,0.000,175.77712,0.000*63
$GPGGA,042609.10,3542.293981378,N,13943.287670646,E,5,02,99.90,23.605,M,36.996,M,2.1,2107*73
$PMSBATV,042609.10,2,2,4.33201,1.48886,139.07978,0.000,0.000,0.000,175.77712,0.000*44
$GPGGA,042609.20,3542.293981350,N,13943.287670649,E,5,02,99.90,23.605,M,36.996,M,2.2,2107*76
$PMSBATV,042609.20,2,2,4.33074,1.48900,139.07924,0.000,-0.000,-0.000,175.77712,0.000*41
$GPGGA,042609.30,3542.293981316,N,13943.287670647,E,5,02,99.90,23.605,M,36.996,M,2.3,2107*7A
$PMSBATV,042609.30,2,2,4.32584,1.49498,139.07880,0.000,0.000,-0.000,175.77712,0.000*64
$GPGGA,042609.40,3542.293981291,N,13943.287670643,E,5,02,99.90,23.605,M,36.996,M,2.4,2107*70
$PMSBATV,042609.40,2,2,4.33016,1.50057,139.08125,0.000,-0.000,-0.000,175.77712,0.000*47
$GPGGA,042609.50,3542.293981266,N,13943.287670641,E,5,02,99.90,23.605,M,36.996,M,2.5,2107*7A
$PMSBATV,042609.50,2,2,4.32914,1.49636,139.08379,-0.000,0.000,-0.000,175.77712,0.000*4E
$GPGGA,042609.60,3542.293981240,N,13943.287670635,E,5,02,99.90,23.605,M,36.996,M,2.6,2107*7D
$PMSBATV,042609.60,2,2,4.32689,1.49742,139.08500,0.000,-0.000,-0.000,175.77712,0.000*4C
$GPGGA,042609.70,3542.293981212,N,13943.287670634,E,5,02,99.90,23.605,M,36.996,M,2.7,2107*7B
$PMSBATV,042609.70,2,2,4.32552,1.50194,139.08232,0.000,-0.000,0.000,175.77712,0.000*66
$GPGGA,042609.80,3542.293981189,N,13943.287670630,E,5,02,99.90,23.605,M,36.996,M,2.8,2107*7E
$PMSBATV,042609.80,2,2,4.32923,1.50653,139.08925,-0.000,-0.000,0.000,175.77712,0.000*4F
$GPGGA,042609.90,3542.293981160,N,13943.287670627,E,5,02,99.90,23.605,M,36.996,M,2.9,2107*7F
$PMSBATV,042609.90,2,2,4.32853,1.50520,139.09118,0.000,-0.000,-0.000,175.77712,0.000*48
$GPGGA,042610.00,3542.293981132,N,13943.287670627,E,5,02,99.90,23.605,M,36.996,M,3.0,2107*71
$PMSBATV,042610.00,2,2,4.33228,1.50835,139.09261,0.000,-0.000,-0.000,175.77712,0.000*4A
$GPGGA,042610.10,3542.293981103,N,13943.287670618,E,5,02,99.90,23.605,M,36.996,M,3.1,2107*7F
$PMSBATV,042610.10,2,2,4.32458,1.51079,139.09527,-0.000,0.000,0.000,175.77712,0.000*62
$GPGGA,042610.20,3542.293981077,N,13943.287670619,E,5,02,99.90,23.605,M,36.996,M,3.2,2107*7C
$PMSBATV,042610.20,2,2,4.32849,1.50864,139.09155,0.000,-0.000,-0.000,175.77712,0.000*44
$GPGGA,042610.30,3542.293981050,N,13943.287670614,E,5,02,99.90,23.605,M,36.996,M,3.3,2107*74
$PMSBATV,042610.30,2,2,4.32676,1.50672,139.09232,0.000,0.000,-0.000,175.77712,0.000*61
$GPGGA,042610.40,3542.293981021,N,13943.287670609,E,5,02,99.90,23.605,M,36.996,M,3.4,2107*7E
$PMSBATV,042610.40,2,2,4.32495,1.50012,139.09193,0.000,0.000,-0.000,175.77712,0.000*61
$GPGGA,042610.50,3542.293980994,N,13943.287670603,E,5,02,99.90,23.605,M,36.996,M,3.5,2107*72
$PMSBATV,042610.50,2,2,4.32977,1.49893,139.09672,-0.000,-0.000,-0.000,175.77712,0.000*60
$GPGGA,042610.60,3542.293980970,N,13943.287670607,E,5,02,99.90,23.605,M,36.996,M,3.6,2107*7C
$PMSBATV,042610.60,2,2,4.33593,1.49664,139.09568,0.000,-0.000,-0.000,175.77712,0.000*47
$GPGGA,042610.70,3542.293980944,N,13943.287670609,E,5,02,99.90,23.605,M,36.996,M,3.7,2107*75
$PMSBATV,042610.70,2,2,4.33607,1.49435,139.09272,0.000,0.000,0.000,175.77712,0.000*42
$GPGGA,042610.80,3542.293980917,N,13943.287670610,E,5,02,99.90,23.605,M,36.996,M,3.8,2107*7B
$PMSBATV,042610.80,2,2,4.33428,1.49252,139.09359,0.000,0.000,0.000,175.77712,0.000*4D
$GPGGA,042610.90,3542.293980887,N,13943.287670603,E,5,02,99.90,23.605,M,36.996,M,3.9,2107*71
$PMSBATV,042610.90,2,2,4.33207,1.49155,139.09099,0.000,-0.000,-0.000,175.77712,0.000*4C
$GPGGA,042611.00,3542.293980861,N,13943.287670601,E,5,02,99.90,23.605,M,36.996,M,4.0,2107*7D
$PMSBATV,042611.00,2,2,4.33635,1.48916,139.08951,-0.000,-0.000,-0.000,175.77712,0.000*6E
$GPGGA,042611.10,3542.293980832,N,13943.287670594,E,5,02,99.90,23.605,M,36.996,M,4.1,2107*74
$PMSBATV,042611.10,2,2,4.33082,1.49110,139.08490,0.000,0.000,-0.000,175.77712,0.000*6A
$GPGGA,042611.20,3542.293980811,N,13943.287670593,E,5,02,99.90,23.605,M,36.996,M,4.2,2107*72
$PMSBATV,042611.20,2,2,4.32997,1.48957,139.08725,-0.000,-0.000,-0.000,175.77712,0.000*62
$GPGGA,042611.30,3542.293980785,N,13943.287670591,E,5,02,99.90,23.605,M,36.996,M,4.3,2107*72
$PMSBATV,042611.30,2,2,4.33045,1.48955,139.08764,-0.000,-0.000,-0.000,175.77712,0.000*63
$GPGGA,042611.40,3542.293980755,N,13943.287670587,E,5,02,99.90,23.605,M,36.996,M,4.4,2107*78
$PMSBATV,042611.40,2,2,4.32993,1.48857,139.08437,0.000,0.000,0.000,175.77712,0.000*4C
$GPGGA,042611.50,3542.293980726,N,13943.287670583,E,5,02,99.90,23.605,M,36.996,M,4.5,2107*78
$PMSBATV,042611.50,2,2,4.32842,1.48886,139.08516,0.000,0.000,0.000,175.77712,0.000*4E
$GPGGA,042611.60,3542.293980701,N,13943.287670582,E,5,02,99.90,23.605,M,36.996,M,4.6,2107*7C
$PMSBATV,042611.60,2,2,4.32469,1.49310,139.08264,0.000,-0.000,-0.000,175.77712,0.000*4F
$GPGGA,042611.70,3542.293980671,N,13943.287670580,E,5,02,99.90,23.605,M,36.996,M,4.7,2107*78
$PMSBATV,042611.70,2,2,4.32138,1.49561,139.08179,0.000,-0.000,-0.000,175.77712,0.000*40
$GPGGA,042611.80,3542.293980644,N,13943.287670581,E,5,02,99.90,23.605,M,36.996,M,4.8,2107*7F
$PMSBATV,042611.80,2,2,4.32107,1.49523,139.08191,0.000,0.000,-0.000,175.77712,0.000*6E
$GPGGA,042611.90,3542.293980620,N,13943.287670575,E,5,02,99.90,23.605,M,36.996,M,4.9,2107*76
$PMSBATV,042611.90,2,2,4.31831,1.49827,139.08075,-0.000,0.000,-0.000,175.77712,0.000*4F
$GPGGA,042612.00,3542.293980593,N,13943.287670581,E,5,02,99.90,23.605,M,36.996,M,5.0,2107*74
$PMSBATV,042612.00,2,2,4.32303,1.50182,139.07835,0.000,-0.000,-0.000,175.77712,0.000*41
$GPGGA,042612.10,3542.293980573,N,13943.287670579,E,5,02,99.90,23.605,M,36.996,M,5.1,2107*7D
$PMSBATV,042612.10,2,2,4.32862,1.50030,139.07934,-0.000,-0.000,0.000,175.77712,0.000*44
$GPGGA,042612.20,3542.293980547,N,13943.287670580,E,5,02,99.90,23.605,M,36.996,M,5.2,2107*7C
$PMSBATV,042612.20,2,2,4.33000,1.50508,139.07856,0.000,0.000,0.000,175.77712,0.000*41
$GPGGA,042612.30,3542.293980520,N,13943.287670580,E,5,02,99.90,23.605,M,36.996,M,5.3,2107*7D
$PMSBATV,042612.30,2,2,4.33209,1.51100,139.07729,0.000,0.000,-0.000,175.77712,0.000*6C
$GPGGA,042612.40,3542.293980495,N,13943.287670582,E,5,02,99.90,23.605,M,36.996,M,5.4,2107*70
$PMSBATV,042612.40,2,2,4.33415,1.51426,139.07408,0.000,-0.000,-0.000,175.77712,0.000*4C
$GPGGA,042612.50,3542.293980472,N,13943.287670574,E,5,02,99.90,23.605,M,36.996,M,5.5,2107*70
$PMSBATV,042612.50,2,2,4.33587,1.51313,139.07482,-0.000,0.000,-0.000,175.77712,0.000*44
$GPGGA,042612.60,3542.293980447,N,13943.287670572,E,5,02,99.90,23.605,M,36.996,M,5.6,2107*70
$PMSBATV,042612.60,2,2,4.33901,1.51009,139.07184,-0.000,-0.000,0.000,175.77712,0.000*4E
$GPGGA,042612.70,3542.293980418,N,13943.287670567,E,5,02,99.90,23.605,M,36.996,M,5.7,2107*7E
$PMSBATV,042612.70,2,2,4.34368,1.50931,139.07174,0.000,0.000,0.000,175.77712,0.000*41
$GPGGA,042612.80,3542.293980395,N,13943.287670565,E,5,02,99.90,23.605,M,36.996,M,5.8,2107*7E
$PMSBATV,042612.80,2,2,4.34672,1.50797,139.07250,0.000,-0.000,0.000,175.77712,0.000*6A
$GPGGA,042612.90,3542.293980371,N,13943.287670561,E,5,02,99.90,23.605,M,36.996,M,5.9,2107*70
$PMSBATV,042612.90,2,2,4.33930,1.50987,139.07294,-0.000,-0.000,0.000,175.77712,0.000*4F
$GPGGA,042613.00,3542.293980346,N,13943.287670559,E,5,02,99.90,23.605,M,36.996,M,6.0,2107*7D
$PMSBATV,042613.00,2,2,4.34215,1.50734,139.07362,-0.000,0.000,-0.000,175.77712,0.000*42
$GPGGA,042613.10,3542.293980317,N,13943.287670565,E,5,02,99.90,23.605,M,36.996,M,6.1,2107*76
$PMSBATV,042613.10,2,2,4.34854,1.51711,139.07275,0.000,0.000,-0.000,175.77712,0.000*60
$GPGGA,042613.20,3542.293980289,N,13943.287670564,E,5,02,99.90,23.605,M,36.996,M,6.2,2107*71
$PMSBATV,042613.20,2,2,4.34819,1.51918,139.07668,0.000,0.000,-0.000,175.77712,0.000*65
$GPGGA,042613.30,3542.293980264,N,13943.287670560,E,5,02,99.90,23.605,M,36.996,M,6.3,2107*76
$PMSBATV,042613.30,2,2,4.34662,1.52447,139.07680,0.000,-0.000,-0.000,175.77712,0.000*49
$GPGGA,042613.40,3542.293980239,N,13943.287670552,E,5,02,99.90,23.605,M,36.996,M,6.4,2107*7F
$PMSBATV,042613.40,2,2,4.34464,1.51667,139.07617,0.000,0.000,0.000,175.77712,0.000*47
$GPGGA,042613.50,3542.293980217,N,13943.287670544,E,5,02,99.90,23.605,M,36.996,M,6.5,2107*74
$PMSBATV,042613.50,2,2,4.34554,1.51869,139.07331,-0.000,-0.000,-0.000,175.77712,0.000*68
$GPGGA,042613.60,3542.293980194,N,13943.287670535,E,5,02,99.90,23.605,M,36.996,M,6.6,2107*7A
$PMSBATV,042613.60,2,2,4.33590,1.51805,139.07424,-0.000,0.000,-0.000,175.77712,0.000*40
$GPGGA,042613.70,3542.293980163,N,13943.287670530,E,5,02,99.90,23.605,M,36.996,M,6.7,2107*77
$PMSBATV,042613.70,2,2,4.33131,1.51732,139.07495,0.000,0.000,0.000,175.77712,0.000*4F
$GPGGA,042613.80,3542.293980143,N,13943.287670524,E,5,02,99.90,23.605,M,36.996,M,6.8,2107*70
$PMSBATV,042613.80,2,2,4.33628,1.51573,139.07323,-0.000,-0.000,-0.000,175.77712,0.000*6F
$GPGGA,042613.90,3542.293980121,N,13943.287670517,E,5,02,99.90,23.605,M,36.996,M,6.9,2107*74
$PMSBATV,042613.90,2,2,4.33431,1.51459,139.07179,-0.000,0.000,-0.000,175.77712,0.000*4D
$GPGGA,042614.00,3542.293980090,N,13943.287670519,E,5,02,99.90,23.605,M,36.996,M,7.0,2107*77
$PMSBATV,042614.00,2,2,4.33118,1.51241,139.07292,0.000,0.000,0.000,175.77712,0.000*44
$GPGGA,042614.10,3542.293980068,N,13943.287670518,E,5,02,99.90,23.605,M,36.996,M,2.1,2107*74
$PMSBATV,042614.10,2,2,4.33273,1.51355,139.07381,-0.000,-0.000,-0.000,175.77712,0.000*61
$GPGGA,042614.20,3542.293980049,N,13943.287670515,E,5,02,99.90,23.605,M,36.996,M,2.2,2107*7A
$PMSBATV,042614.20,2,2,4.33547,1.51205,139.07852,-0.000,0.000,0.000,175.77712,0.000*63
$GPGGA,042614.30,3542.293980017,N,13943.287670514,E,5,02,99.90,23.605,M,36.996,M,2.3,2107*70
$PMSBATV,042614.30,2,2,4.33864,1.51305,139.07735,0.000,0.000,0.000,175.77712,0.000*4C
$GPGGA,042614.40,3542.293979989,N,13943.287670509,E,5,02,99.90,23.605,M,36.996,M,2.4,2107*74
$PMSBATV,042614.40,2,2,4.34308,1.51177,139.07715,0.000,-0.000,0.000,175.77712,0.000*65
$GPGGA,042614.50,3542.293979965,N,13943.287670506,E,5,02,99.90,23.605,M,36.996,M,2.5,2107*79
$PMSBATV,042614.50,2,2,4.34415,1.50959,139.07931,-0.000,-0.000,0.000,175.77712,0.000*4F
$GPGGA,042614.60,3542.293979942,N,13943.287670497,E,5,02,99.90,23.605,M,36.996,M,2.6,2107*75
$PMSBATV,042614.60,2,2,4.33384,1.51097,139.07788,-0.000,0.000,0.000,175.77712,0.000*6F
$GPGGA,042614.70,3542.293979910,N,13943.287670495,E,5,02,99.90,23.605,M,36.996,M,2.7,2107*70
$PMSBATV,042614.70,2,2,4.33062,1.51292,139.07888,0.000,0.000,-0.000,175.77712,0.000*6D
$GPGGA,042614.80,3542.293979883,N,13943.287670499,E,5,02,99.90,23.605,M,36.996,M,2.8,2107*77
$PMSBATV,042614.80,2,2,4.32801,1.51514,139.08107,0.000,0.000,-0.000,175.77712,0.000*66
$GPGGA,042614.90,3542.293979859,N,13943.287670492,E,5,02,99.90,23.605,M,36.996,M,2.9,2107*7B
$PMSBATV,042614.90,2,2,4.32357,1.51669,139.08128,-0.000,0.000,0.000,175.77712,0.000*6B
$GPGGA,042615.00,3542.293979840,N,13943.287670483,E,5,02,99.90,23.605,M,36.996,M,3.0,2107*73
$PMSBATV,042615.00,2,2,4.32533,1.51617,139.07856,-0.000,0.000,0.000,175.77712,0.000*61
$GPGGA,042615.10,3542.293979808,N,13943.287670485,E,5,02,99.90,23.605,M,36.996,M,3.1,2107*79
$PMSBATV,042615.10,2,2,4.32438,1.52178,139.08064,0.000,0.000,-0.000,175.77712,0.000*61
$GPGGA,042615.20,3542.293979786,N,13943.287670488,E,5,02,99.90,23.605,M,36.996,M,3.2,2107*7D
$PMSBATV,042615.20,2,2,4.32660,1.52540,139.08363,0.000,-0.000,-0.000,175.77712,0.000*4B
$GPGGA,042615.30,3542.293979767,N,13943.287670476,E,5,02,99.90,23.605,M,36.996,M,3.3,2107*73
$PMSBATV,042615.30,2,2,4.32358,1.51956,139.08261,-0.000,-0.000,-0.000,175.77712,0.000*62
$GPGGA,042615.40,3542.293979742,N,13943.287670471,E,5,02,99.90,23.605,M,36.996,M,3.4,2107*73
$PMSBATV,042615.40,2,2,4.32329,1.51972,139.08288,0.000,-0.000,0.000,175.77712,0.000*62
$GPGGA,042615.50,3542.293979717,N,13943.287670473,E,5,02,99.90,23.605,M,36.996,M,3.5,2107*71
$PMSBATV,042615.50,2,2,4.32600,1.52488,139.08370,0.000,-0.000,-0.000,175.77712,0.000*4D
$GPGGA,042615.60,3542.293979691,N,13943.287670471,E,5,02,99.90,23.605,M,36.996,M,3.6,2107*7C
$PMSBATV,042615.60,2,2,4.32396,1.52259,139.08259,0.000,0.000,-0.000,175.77712,0.000*69
$GPGGA,042615.70,3542.293979664,N,13943.287670466,E,5,02,99.90,23.605,M,36.996,M,3.7,2107*70
$PMSBATV,042615.70,2,2,4.33063,1.52437,139.07909,0.000,0.000,-0.000,175.77712,0.000*6F
$GPGGA,042615.80,3542.293979641,N,13943.287670463,E,5,02,99.90,23.605,M,36.996,M,3.8,2107*72
$PMSBATV,042615.80,2,2,4.33074,1.52497,139.08140,-0.000,0.000,-0.000,175.77712,0.000*4B
$GPGGA,042615.90,3542.293979613,N,13943.287670459,E,5,02,99.90,23.605,M,36.996,M,3.9,2107*7C
$PMSBATV,042615.90,2,2,4.32609,1.53037,139.08300,0.000,0.000,-0.000,175.77712,0.000*63
$GPGGA,042616.00,3542.293979589,N,13943.287670453,E,5,02,99.90,23.605,M,36.996,M,4.0,2107*72
$PMSBATV,042616.00,2,2,4.32599,1.53208,139.08089,-0.000,0.000,-0.000,175.77712,0.000*42
$GPGGA,042616.10,3542.293979566,N,13943.287670444,E,5,02,99.90,23.605,M,36.996,M,4.1,2107*75
$PMSBATV,042616.10,2,2,4.32444,1.52892,139.07792,-0.000,0.000,0.000,175.77712,0.000*65
$GPGGA,042616.20,3542.293979544,N,13943.287670442,E,5,02,99.90,23.605,M,36.996,M,4.2,2107*73
$PMSBATV,042616.20,2,2,4.32584,1.52912,139.07954,0.000,-0.000,-0.000,175.77712,0.000*4B
$GPGGA,042616.30,3542.293979522,N,13943.287670443,E,5,02,99.90,23.605,M,36.996,M,4.3,2107*72
$PMSBATV,042616.30,2,2,4.32733,1.53048,139.07678,0.000,-0.000,-0.000,175.77712,0.000*42
$GPGGA,042616.40,3542.293979498,N,13943.287670435,E,5,02,99.90,23.605,M,36.996,M,4.4,2107*73
$PMSBATV,042616.40,2,2,4.32192,1.52721,139.07749,0.000,0.000,0.000,175.77712,0.000*42
$GPGGA,042616.50,3542.293979469,N,13943.287670434,E,5,02,99.90,23.605,M,36.996,M,4.5,2107*7C
$PMSBATV,042616.50,2,2,4.32952,1.52579,139.08017,0.000,0.000,-0.000,175.77712,0.000*66
$GPGGA,042616.60,3542.293979442,N,13943.287670428,E,5,02,99.90,23.605,M,36.996,M,4.6,2107*78
$PMSBATV,042616.60,2,2,4.32625,1.52688,139.08205,-0.000,0.000,-0.000,175.77712,0.000*4B
$GPGGA,042616.70,3542.293979411,N,13943.287670425,E,5,02,99.90,23.604,M,36.996,M,4.7,2107*72
$PMSBATV,042616.70,2,2,4.32030,1.52807,139.07975,0.000,0.000,-0.000,175.77712,0.000*6F
$GPGGA,042616.80,3542.293979388,N,13943.287670422,E,5,02,99.90,23.604,M,36.996,M,4.8,2107*72
$PMSBATV,042616.80,2,2,4.32234,1.52936,139.08008,0.000,0.000,0.000,175.77712,0.000*44
$GPGGA,042616.90,3542.293979363,N,13943.287670414,E,5,02,99.90,23.604,M,36.996,M,4.9,2107*72
$PMSBATV,042616.90,2,2,4.31484,1.52489,139.08247,-0.000,-0.000,-0.000,175.77712,0.000*66
$GPGGA,042617.00,3542.293979336,N,13943.287670412,E,5,02,99.90,23.604,M,36.996,M,5.0,2107*74
$PMSBATV,042617.00,2,2,4.31663,1.52697,139.08511,0.000,-0.000,0.000,175.77712,0.000*6C
$GPGGA,042617.10,3542.293979309,N,13943.287670405,E,5,02,99.90,23.604,M,36.996,M,5.1,2107*7E
$PMSBATV,042617.10,2,2,4.32225,1.53189,139.08719,-0.000,0.000,-0.000,175.77712,0.000*46
$GPGGA,042617.20,3542.293979285,N,13943.287670399,E,5,02,99.90,23.604,M,36.996,M,5.2,2107*79
$PMSBATV,042617.20,2,2,4.32342,1.53299,139.08964,0.000,0.000,-0.000,175.77712,0.000*6E
$GPGGA,042617.30,3542.293979262,N,13943.287670397,E,5,02,99.90,23.604,M,36.996,M,5.3,2107*7E
$PMSBATV,042617.30,2,2,4.32360,1.53335,139.08809,0.000,-0.000,-0.000,175.77712,0.000*4F
$GPGGA,042617.40,3542.293979237,N,13943.287670395,E,5,02,99.90,23.604,M,36.996,M,5.4,2107*7C
$PMSBATV,042617.40,2,2,4.33218,1.53394,139.08885,0.000,0.000,-0.000,175.77712,0.000*65
$GPGGA,042617.50,3542.293979214,N,13943.287670389,E,5,02,99.90,23.604,M,36.996,M,5.5,2107*70
$PMSBATV,042617.50,2,2,4.33734,1.53285,139.08795,0.000,-0.000,-0.000,175.77712,0.000*4D
$GPGGA,042617.60,3542.293979187,N,13943.287670383,E,5,02,99.90,23.604,M,36.996,M,5.6,2107*73
$PMSBATV,042617.60,2,2,4.33345,1.53431,139.08954,0.000,0.000,0.000,175.77712,0.000*46
$GPGGA,042617.70,3542.293979161,N,13943.287670377,E,5,02,99.90,23.604,M,36.996,M,5.7,2107*70
$PMSBATV,042617.70,2,2,4.33224,1.53295,139.08988,0.000,0.000,-0.000,175.77712,0.000*65
$GPGGA,042617.80,3542.293979133,N,13943.287670363,E,5,02,99.90,23.604,M,36.996,M,5.8,2107*72
$PMSBATV,042617.80,2,2,4.33156,1.53450,139.08853,-0.000,0.000,-0.000,175.77712,0.000*49
$GPGGA,042617.90,3542.293979110,N,13943.287670360,E,5,02,99.90,23.604,M,36.996,M,5.9,2107*70
$PMSBATV,042617.90,2,2,4.33251,1.54039,139.08673,-0.000,-0.000,0.000,175.77712,0.000*4C
$GPGGA,042618.00,3542.293979085,N,13943.287670354,E,5,02,99.90,23.604,M,36.996,M,6.0,2107*76
$PMSBATV,042618.00,2,2,4.33178,1.54021,139.08995,-0.000,0.000,-0.000,175.77712,0.000*4C
$GPGGA,042618.10,3542.293979057,N,13943.287670342,E,5,02,99.90,23.604,M,36.996,M,1.1,2107*79
$PMSBATV,042618.10,2,2,4.32857,1.54662,139.08838,0.000,0.000,-0.000,175.77712,0.000*62
$GPGGA,042618.20,3542.293979034,N,13943.287670333,E,5,02,99.90,23.604,M,36.996,M,1.2,2107*7A
$PMSBATV,042618.20,2,2,4.32783,1.55145,139.08706,-0.000,-0.000,-0.000,175.77712,0.000*66
$GPGGA,042618.30,3542.293979011,N,13943.287670327,E,5,02,99.90,23.604,M,36.996,M,1.3,2107*78
$PMSBATV,042618.30,2,2,4.32672,1.55576,139.08455,-0.000,-0.000,-0.000,175.77712,0.000*69
$GPGGA,042618.40,3542.293978986,N,13943.287670314,E,5,02,99.90,23.604,M,36.996,M,1.4,2107*7E
$PMSBATV,042618.40,2,2,4.32361,1.56060,139.08263,0.000,0.000,-0.000,175.77712,0.000*6B
$GPGGA,042618.50,3542.293978965,N,13943.287670306,E,5,02,99.90,23.604,M,36.996,M,1.5,2107*70
$PMSBATV,042618.50,2,2,4.32459,1.55799,139.07891,-0.000,0.000,0.000,175.77712,0.000*6C
$GPGGA,042618.60,3542.293978947,N,13943.287670290,E,5,02,99.90,23.604,M,36.996,M,1.6,2107*7E
$PMSBATV,042618.60,2,2,4.31596,1.55448,139.08119,-0.000,0.000,0.000,175.77712,0.000*67
$GPGGA,042618.70,3542.293978920,N,13943.287670285,E,5,02,99.90,23.604,M,36.996,M,1.7,2107*7B
$PMSBATV,042618.70,2,2,4.31299,1.55517,139.08275,0.000,-0.000,0.000,175.77712,0.000*6C
$GPGGA,042618.80,3542.293978894,N,13943.287670280,E,5,02,99.90,23.604,M,36.996,M,1.8,2107*70
$PMSBATV,042618.80,2,2,4.31415,1.55596,139.08532,-0.000,0.000,-0.000,175.77712,0.000*41
$GPGGA,042618.90,3542.293978875,N,13943.287670267,E,5,02,99.90,23.604,M,36.996,M,1.9,2107*76
$PMSBATV,042618.90,2,2,4.30674,1.54889,139.08662,-0.000,0.000,-0.000,175.77712,0.000*40
$GPGGA,042619.00,3542.293978845,N,13943.287670263,E,5,02,99.90,23.604,M,36.996,M,2.0,2107*73
$PMSBATV,042619.00,2,2,4.30462,1.54825,139.08854,0.000,0.000,-0.000,175.77712,0.000*6D
$GPGGA,042619.10,3542.293978817,N,13943.287670262,E,5,02,99.90,23.604,M,36.996,M,2.1,2107*75
$PMSBATV,042619.10,2,2,4.30527,1.55034,139.08808,0.000,0.000,-0.000,175.77712,0.000*6C
$GPGGA,042619.20,3542.293978799,N,13943.287670256,E,5,02,99.90,23.604,M,36.996,M,2.2,2107*7B
$PMSBATV,042619.20,2,2,4.30466,1.55130,139.08775,-0.000,-0.000,0.000,175.77712,0.000*46
$GPGGA,042619.30,3542.293978780,N,13943.287670250,E,5,02,99.90,23.604,M,36.996,M,2.3,2107*75
$PMSBATV,042619.30,2,2,4.30544,1.54870,139.08951,-0.000,0.000,-0.000,175.77712,0.000*42
$GPGGA,042619.40,3542.293978758,N,13943.287670250,E,5,02,99.90,23.604,M,36.996,M,2.4,2107*70
$PMSBATV,042619.40,2,2,4.31042,1.54548,139.08865,0.000,-0.000,-0.000,175.77712,0.000*47
$GPGGA,042619.50,3542.293978740,N,13943.287670239,E,5,02,99.90,23.604,M,36.996,M,2.5,2107*76
$PMSBATV,042619.50,2,2,4.30927,1.53858,139.08969,-0.000,0.000,0.000,175.77712,0.000*66
$GPGGA,042619.60,3542.293978720,N,13943.287670237,E,5,02,99.90,23.604,M,36.996,M,2.6,2107*7E
$PMSBATV,042619.60,2,2,4.31009,1.53941,139.08580,-0.000,-0.000,-0.000,175.77712,0.000*63
$GPGGA,042619.70,3542.293978698,N,13943.287670236,E,5,02,99.90,23.604,M,36.996,M,2.7,2107*7D
$PMSBATV,042619.70,2,2,4.30999,1.54100,139.08329,-0.000,-0.000,-0.000,175.77712,0.000*6C
$GPGGA,042619.80,3542.293978675,N,13943.287670234,E,5,02,99.90,23.604,M,36.996,M,2.8,2107*7C
$PMSBATV,042619.80,2,2,4.30945,1.54704,139.08358,0.000,-0.000,0.000,175.77712,0.000*66
$GPGGA,042619.90,3542.293978654,N,13943.287670224,E,5,02,99.90,23.604,M,36.996,M,2.9,2107*7E
$PMSBATV,042619.90,2,2,4.31015,1.55163,139.08543,-0.000,0.000,0.000,175.77712,0.000*60
$GPGGA,042620.00,3542.293978638,N,13943.287670219,E,5,02,99.90,23.604,M,36.996,M,3.0,2107*71
$PMSBATV,042620.00,2,2,4.31280,1.55238,139.08018,-0.000,-0.000,0.000,175.77712,0.000*46
$GPGGA,042620.10,3542.293978613,N,13943.287670212,E,5,02,99.90,23.604,M,36.996,M,3.1,2107*73
$PMSBATV,042620.10,2,2,4.31050,1.55224,139.08029,0.000,-0.000,0.000,175.77712,0.000*6A
$GPGGA,042620.20,3542.293978589,N,13943.287670214,E,5,02,99.90,23.604,M,36.996,M,3.2,2107*75
$PMSBATV,042620.20,2,2,4.31573,1.55576,139.08000,0.000,-0.000,0.000,175.77712,0.000*66
$GPGGA,042620.30,3542.293978573,N,13943.287670202,E,5,02,99.90,23.604,M,36.996,M,3.3,2107*77
$PMSBATV,042620.30,2,2,4.31075,1.55189,139.07887,-0.000,0.000,-0.000,175.77712,0.000*45
$GPGGA,042620.40,3542.293978548,N,13943.287670200,E,5,02,99.90,23.604,M,36.996,M,3.4,2107*7D
$PMSBATV,042620.40,2,2,4.31062,1.55323,139.07973,0.000,-0.000,0.000,175.77712,0.000*61
$GPGGA,042620.50,3542.293978533,N,13943.287670192,E,5,02,99.90,23.604,M,36.996,M,3.5,2107*79
$PMSBATV,042620.50,2,2,4.31699,1.54624,139.08004,-0.000,-0.000,-0.000,175.77712,0.000*67
$GPGGA,042620.60,3542.293978515,N,13943.287670187,E,5,02,99.90,23.604,M,36.996,M,3.6,2107*79
$PMSBATV,042620.60,2,2,4.31585,1.54326,139.07936,-0.000,0.000,-0.000,175.77712,0.000*47
$GPGGA,042620.70,3542.293978487,N,13943.287670181,E,5,02,99.90,23.604,M,36.996,M,3.7,2107*75
$PMSBATV,042620.70,2,2,4.31740,1.54656,139.08201,0.000,-0.000,0.000,175.77712,0.000*62
$GPGGA,042620.80,3542.293978468,N,13943.287670176,E,5,02,99.90,23.604,M,36.996,M,3.8,2107*7C
$PMSBATV,042620.80,2,2,4.31763,1.54570,139.08443,-0.000,-0.000,-0.000,175.77712,0.000*6B
$GPGGA,042620.90,3542.293978447,N,13943.287670164,E,5,02,99.90,23.604,M,36.996,M,3.9,2107*72
$PMSBATV,042620.90,2,2,4.30789,1.54662,139.08394,-0.000,0.000,-0.000,175.77712,0.000*4F
$GPGGA,042621.00,3542.293978425,N,13943.287670160,E,5,02,99.90,23.604,M,36.996,M,4.0,2107*74
$PMSBATV,042621.00,2,2,4.30944,1.54622,139.08572,0.000,-0.000,-0.000,175.77712,0.000*42
$GPGGA,042621.10,3542.293978403,N,13943.287670155,E,5,02,99.90,23.604,M,36.996,M,4.1,2107*76
$PMSBATV,042621.10,2,2,4.31313,1.54312,139.08818,-0.000,0.000,-0.000,175.77712,0.000*4D
$GPGGA,042621.20,3542.293978390,N,13943.287670148,E,5,02,99.90,23.604,M,36.996,M,4.2,2107*77
$PMSBATV,042621.20,2,2,4.31896,1.54231,139.08943,-0.001,-0.000,-0.000,175.77712,0.000*6B
$GPGGA,042621.30,3542.293978368,N,13943.287670140,E,5,02,99.90,23.604,M,36.996,M,4.3,2107*78
$PMSBATV,042621.30,2,2,4.31783,1.53926,139.09113,-0.000,0.000,-0.000,175.77712,0.000*4B
$GPGGA,042621.40,3542.293978344,N,13943.287670136,E,5,02,99.90,23.604,M,36.996,M,4.4,2107*77
$PMSBATV,042621.40,2,2,4.31715,1.53765,139.08894,0.000,-0.000,0.000,175.77712,0.000*60
$GPGGA,042621.50,3542.293978320,N,13943.287670132,E,5,02,99.90,23.604,M,36.996,M,4.5,2107*71
$PMSBATV,042621.50,2,2,4.32182,1.53666,139.08467,0.000,-0.000,-0.000,175.77712,0.000*45
$GPGGA,042621.60,3542.293978304,N,13943.287670125,E,5,02,99.90,23.604,M,36.996,M,4.6,2107*71
$PMSBATV,042621.60,2,2,4.32305,1.53343,139.08632,-0.000,-0.000,-0.000,175.77712,0.000*66
$GPGGA,042621.70,3542.293978277,N,13943.287670120,E,5,02,99.90,23.604,M,36.996,M,4.7,2107*71
$PMSBATV,042621.70,2,2,4.31784,1.53108,139.08505,0.000,0.000,-0.000,175.77712,0.000*63
$GPGGA,042621.80,3542.293978255,N,13943.287670111,E,5,02,99.90,23.604,M,36.996,M,4.8,2107*73
$PMSBATV,042621.80,2,2,4.32191,1.52647,139.08751,0.000,0.000,-0.000,175.77712,0.000*63
$GPGGA,042621.90,3542.293978237,N,13943.287670105,E,5,02,99.90,23.604,M,36.996,M,4.9,2107*72
$PMSBATV,042621.90,2,2,4.32502,1.52903,139.08495,-0.000,-0.000,-0.000,175.77712,0.000*68
$GPGGA,042622.00,3542.293978214,N,13943.287670093,E,5,02,99.90,23.604,M,36.996,M,5.0,2107*7F
$PMSBATV,042622.00,2,2,4.32337,1.52969,139.08236,-0.000,0.000,-0.000,175.77712,0.000*4C
$GPGGA,042622.10,3542.293978191,N,13943.287670092,E,5,02,99.90,23.604,M,36.996,M,5.1,2107*70
$PMSBATV,042622.10,2,2,4.32657,1.53055,139.08377,0.000,-0.000,0.000,175.77712,0.000*60
$GPGGA,042622.20,3542.293978173,N,13943.287670085,E,5,02,99.90,23.604,M,36.996,M,5.2,2107*7A
$PMSBATV,042622.20,2,2,4.32265,1.52889,139.08118,-0.000,-0.000,-0.000,175.77712,0.000*65
$GPGGA,042622.30,3542.293978153,N,13943.287670081,E,5,02,99.90,23.604,M,36.996,M,5.3,2107*7C
$PMSBATV,042622.30,2,2,4.32527,1.52758,139.07970,-0.000,-0.000,-0.000,175.77712,0.000*6F
$GPGGA,042622.40,3542.293978131,N,13943.287670077,E,5,02,99.90,23.604,M,36.996,M,5.4,2107*71
$PMSBATV,042622.40,2,2,4.32527,1.53000,139.08038,0.000,0.000,-0.000,175.77712,0.000*69
$GPGGA,042622.50,3542.293978128,N,13943.287670072,E,5,02,99.90,23.604,M,36.996,M,5.5,2107*7C
$PMSBATV,042622.50,2,2,4.31787,1.52567,139.08208,-0.000,0.000,-0.000,175.77712,0.000*4A
$GPGGA,042622.60,3542.293978130,N,13943.287670076,E,5,02,99.90,23.604,M,36.996,M,5.6,2107*71
$PMSBATV,042622.60,2,2,4.31839,1.53062,139.08275,-0.000,-0.000,0.000,175.77712,0.000*48
$GPGGA,042622.70,3542.293978114,N,13943.287670074,E,5,02,99.90,23.604,M,36.996,M,5.7,2107*75
$PMSBATV,042622.70,2,2,4.31639,1.53371,139.08351,-0.000,-0.000,0.000,175.77712,0.000*41
$GPGGA,042622.80,3542.293978094,N,13943.287670070,E,5,02,99.90,23.604,M,36.996,M,5.8,2107*78
$PMSBATV,042622.80,2,2,4.31171,1.53114,139.08546,-0.000,0.000,0.000,175.77712,0.000*69
$GPGGA,042622.90,3542.293978092,N,13943.287670070,E,5,02,99.90,23.604,M,36.996,M,5.9,2107*7E
$PMSBATV,042622.90,2,2,4.31091,1.52751,139.08566,0.000,-0.000,-0.000,175.77712,0.000*4E
$GPGGA,042623.00,3542.293978070,N,13943.287670068,E,5,02,99.90,23.604,M,36.996,M,6.0,2107*79
$PMSBATV,042623.00,2,2,4.30779,1.52633,139.08658,0.000,-0.000,0.000,175.77712,0.000*60
$GPGGA,042623.10,3542.293978047,N,13943.287670067,E,5,02,99.90,23.604,M,36.996,M,1.1,2107*75
$PMSBATV,042623.10,2,2,4.30561,1.52988,139.08554,0.000,-0.000,-0.000,175.77712,0.000*47
$GPGGA,042623.20,3542.293978030,N,13943.287670061,E,5,02,99.90,23.604,M,36.996,M,1.2,2107*73
$PMSBATV,042623.20,2,2,4.30637,1.52669,139.08546,-0.000,-0.000,-0.000,175.77712,0.000*6A
$GPGGA,042623.30,3542.293978009,N,13943.287670061,E,5,02,99.90,23.604,M,36.996,M,1.3,2107*79
$PMSBATV,042623.30,2,2,4.30788,1.52034,139.08583,0.000,-0.000,-0.000,175.77712,0.000*44
$GPGGA,042623.40,3542.293977990,N,13943.287670057,E,5,02,99.90,23.604,M,36.996,M,1.4,2107*7A
$PMSBATV,042623.40,2,2,4.30762,1.52133,139.08621,-0.000,0.000,-0.000,175.77712,0.000*4A
$GPGGA,042623.50,3542.293977974,N,13943.287670052,E,5,02,99.90,23.604,M,36.996,M,1.5,2107*75
$PMSBATV,042623.50,2,2,4.30868,1.52358,139.08566,-0.000,-0.000,-0.000,175.77712,0.000*6C
$GPGGA,042623.60,3542.293977950,N,13943.287670047,E,5,02,99.90,23.604,M,36.996,M,1.6,2107*77
$PMSBATV,042623.60,2,2,4.30481,1.52479,139.08471,0.000,0.000,0.000,175.77712,0.000*4A
$GPGGA,042623.70,3542.293977926,N,13943.287670048,E,5,02,99.90,23.604,M,36.996,M,1.7,2107*79
$PMSBATV,042623.70,2,2,4.30301,1.51710,139.08606,0.000,-0.000,0.000,175.77712,0.000*64
$GPGGA,042623.80,3542.293977904,N,13943.287670047,E,5,02,99.90,23.604,M,36.996,M,1.8,2107*76
$PMSBATV,042623.80,2,2,4.30216,1.51606,139.08538,0.000,0.000,-0.000,175.77712,0.000*64
$GPGGA,042623.90,3542.293977886,N,13943.287670042,E,5,02,99.90,23.604,M,36.996,M,1.9,2107*78
$PMSBATV,042623.90,2,2,4.30002,1.51574,139.08583,-0.000,-0.000,0.000,175.77712,0.000*49
$GPGGA,042624.00,3542.293977863,N,13943.287670044,E,5,02,99.90,23.604,M,36.996,M,2.0,2107*71
$PMSBATV,042624.00,2,2,4.29732,1.52107,139.08669,0.000,-0.000,-0.000,175.77712,0.000*4F
$GPGGA,042624.10,3542.293977840,N,13943.287670043,E,5,02,99.90,23.604,M,36.996,M,2.1,2107*77
$PMSBATV,042624.10,2,2,4.30021,1.52128,139.08840,0.000,-0.000,-0.000,175.77712,0.000*4B
$GPGGA,042624.20,3542.293977851,N,13943.287670034,E,5,02,99.90,23.604,M,36.996,M,2.2,2107*77
$PMSBATV,042624.20,2,2,4.29492,1.51557,139.08896,-0.001,-0.000,0.000,175.77712,0.000*49
$GPGGA,042624.30,3542.293977844,N,13943.287670043,E,5,02,99.90,23.604,M,36.996,M,2.3,2107*73
$PMSBATV,042624.30,2,2,4.29321,1.52181,139.09123,0.001,0.000,-0.000,175.77712,0.000*60
$GPGGA,042624.40,3542.293977844,N,13943.287670049,E,5,02,99.90,23.604,M,36.996,M,2.4,2107*79
$PMSBATV,042624.40,2,2,4.29920,1.52434,139.09003,-0.000,-0.000,-0.000,175.77712,0.000*65
$GPGGA,042624.50,3542.293977855,N,13943.287670047,E,5,02,99.90,23.604,M,36.996,M,2.5,2107*77
$PMSBATV,042624.50,2,2,4.29961,1.52180,139.09157,-0.000,-0.000,-0.000,175.77712,0.000*6B
$GPGGA,042624.60,3542.293977859,N,13943.287670043,E,5,02,99.90,23.604,M,36.996,M,2.6,2107*7F
$PMSBATV,042624.60,2,2,4.29758,1.52041,139.08810,-0.000,-0.000,0.000,175.77712,0.000*46
$GPGGA,042624.70,3542.293977858,N,13943.287670050,E,5,02,99.90,23.604,M,36.996,M,2.7,2107*7C
$PMSBATV,042624.70,2,2,4.30174,1.52184,139.08737,0.000,0.000,-0.000,175.77712,0.000*68
$GPGGA,042624.80,3542.293977861,N,13943.287670050,E,5,02,99.90,23.604,M,36.996,M,2.8,2107*76
$PMSBATV,042624.80,2,2,4.29920,1.51851,139.08643,-0.000,0.000,0.000,175.77712,0.000*66
$GPGGA,042624.90,3542.293977860,N,13943.287670047,E,5,02,99.90,23.604,M,36.996,M,2.9,2107*71
$PMSBATV,042624.90,2,2,4.30028,1.52222,139.08498,0.000,-0.000,-0.000,175.77712,0.000*4A
$GPGGA,042625.00,3542.293977861,N,13943.287670058,E,5,02,99.90,23.604,M,36.996,M,3.0,2107*7E
$PMSBATV,042625.00,2,2,4.30927,1.52362,139.08448,0.000,-0.000,-0.000,175.77712,0.000*4C
$GPGGA,042625.10,3542.293977863,N,13943.287670063,E,5,02,99.90,23.604,M,36.996,M,3.1,2107*74
$PMSBATV,042625.10,2,2,4.30549,1.52496,139.08309,0.000,0.000,-0.000,175.77712,0.000*6A
$GPGGA,042625.20,3542.293977864,N,13943.287670059,E,5,02,99.90,23.604,M,36.996,M,3.2,2107*7A
$PMSBATV,042625.20,2,2,4.30690,1.52471,139.08191,-0.000,0.000,-0.000,175.77712,0.000*49
$GPGGA,042625.30,3542.293977864,N,13943.287670062,E,5,02,99.90,23.604,M,36.996,M,3.3,2107*72
$PMSBATV,042625.30,2,2,4.31239,1.52909,139.08292,-0.000,-0.000,-0.000,175.77712,0.000*61
$GPGGA,042625.40,3542.293977868,N,13943.287670062,E,5,02,99.90,23.604,M,36.996,M,3.4,2107*7E
$PMSBATV,042625.40,2,2,4.31038,1.52454,139.08250,-0.000,-0.000,0.000,175.77712,0.000*43
$GPGGA,042625.50,3542.293977868,N,13943.287670061,E,5,02,99.90,23.604,M,36.996,M,3.5,2107*7D
$PMSBATV,042625.50,2,2,4.30841,1.52472,139.08299,0.000,-0.000,0.000,175.77712,0.000*69
$GPGGA,042625.60,3542.293977877,N,13943.287670064,E,5,02,99.90,23.604,M,36.996,M,3.6,2107*76
$PMSBATV,042625.60,2,2,4.31348,1.52112,139.08147,-0.000,-0.000,0.000,175.77712,0.000*47
$GPGGA,042625.70,3542.293977877,N,13943.287670063,E,5,02,99.90,23.604,M,36.996,M,3.7,2107*71
$PMSBATV,042625.70,2,2,4.30578,1.52155,139.07796,-0.000,0.000,-0.000,175.77712,0.000*44
$GPGGA,042625.80,3542.293977875,N,13943.287670073,E,5,02,99.90,23.604,M,36.996,M,3.8,2107*72
$PMSBATV,042625.80,2,2,4.31328,1.52146,139.07757,0.000,-0.000,-0.000,175.77712,0.000*46
$GPGGA,042625.90,3542.293977876,N,13943.287670076,E,5,02,99.90,23.604,M,36.996,M,3.9,2107*74
$PMSBATV,042625.90,2,2,4.31268,1.51841,139.07553,0.000,-0.000,-0.000,175.77712,0.000*49
$GPGGA,042626.00,3542.293977876,N,13943.287670075,E,5,02,99.90,23.604,M,36.996,M,4.0,2107*73
$PMSBATV,042626.00,2,2,4.31319,1.51740,139.07455,0.000,0.000,-0.000,175.77712,0.000*60
$GPGGA,042626.10,3542.293977874,N,13943.287670082,E,5,02,99.90,23.604,M,36.996,M,4.1,2107*79
$PMSBATV,042626.10,2,2,4.31182,1.51853,139.07674,0.000,-0.000,-0.000,175.77712,0.000*40
$GPGGA,042626.20,3542.293977878,N,13943.287670087,E,5,02,99.90,23.604,M,36.996,M,4.2,2107*70
$PMSBATV,042626.20,2,2,4.31121,1.51426,139.07647,-0.000,-0.000,-0.000,175.77712,0.000*69
$GPGGA,042626.30,3542.293977880,N,13943.287670088,E,5,02,99.90,23.604,M,36.996,M,4.3,2107*78
$PMSBATV,042626.30,2,2,4.30815,1.51397,139.07659,-0.000,-0.000,-0.000,175.77712,0.000*65
$GPGGA,042626.40,3542.293977881,N,13943.287670091,E,5,02,99.90,23.604,M,36.996,M,4.4,2107*71
$PMSBATV,042626.40,2,2,4.30768,1.50938,139.07796,-0.000,-0.000,-0.000,175.77712,0.000*6B
$GPGGA,042626.50,3542.293977880,N,13943.287670093,E,5,02,99.90,23.604,M,36.996,M,4.5,2107*72
$PMSBATV,042626.50,2,2,4.30579,1.50897,139.07613,0.000,-0.000,-0.000,175.77712,0.000*4D
$GPGGA,042626.60,3542.293977878,N,13943.287670100,E,5,02,99.90,23.604,M,36.996,M,4.6,2107*7E
$PMSBATV,042626.60,2,2,4.30926,1.50868,139.07430,0.000,0.000,0.000,175.77712,0.000*4B
$GPGGA,042626.70,3542.293977873,N,13943.287670101,E,5,02,99.90,23.604,M,36.996,M,4.7,2107*74
$PMSBATV,042626.70,2,2,4.30260,1.50611,139.07394,-0.000,0.000,-0.000,175.77712,0.000*4A
$GPGGA,042626.80,3542.293977872,N,13943.287670105,E,5,02,99.90,23.604,M,36.996,M,4.8,2107*71
$PMSBATV,042626.80,2,2,4.30108,1.50471,139.07252,0.000,-0.000,-0.000,175.77712,0.000*47
$GPGGA,042626.90,3542.293977867,N,13943.287670104,E,5,02,99.90,23.604,M,36.996,M,4.9,2107*74
$PMSBATV,042626.90,2,2,4.29871,1.50824,139.07460,0.000,0.000,0.000,175.77712,0.000*42
$GPGGA,042627.00,3542.293977865,N,13943.287670105,E,5,02,99.90,23.604,M,36.996,M,5.0,2107*77
$PMSBATV,042627.00,2,2,4.29973,1.50668,139.07301,0.000,0.000,-0.000,175.77712,0.000*62
$GPGGA,042627.10,3542.293977861,N,13943.287670112,E,5,02,99.90,23.604,M,36.996,M,5.1,2107*75
$PMSBATV,042627.10,2,2,4.29916,1.50933,139.07056,0.000,-0.000,-0.000,175.77712,0.000*4D
$GPGGA,042627.20,3542.293977859,N,13943.287670113,E,5,02,99.90,23.604,M,36.996,M,5.2,2107*7F
$PMSBATV,042627.20,2,2,4.29582,1.51138,139.07064,0.000,-0.000,0.000,175.77712,0.000*61
$GPGGA,042627.30,3542.293977862,N,13943.287670118,E,5,02,99.90,23.604,M,36.996,M,5.3,2107*7C
$PMSBATV,042627.30,2,2,4.29602,1.51169,139.07205,0.000,-0.000,0.000,175.77712,0.000*6A
$GPGGA,042627.40,3542.293977864,N,13943.287670120,E,5,02,99.90,23.604,M,36.996,M,5.4,2107*71
$PMSBATV,042627.40,2,2,4.29364,1.50530,139.07288,0.000,-0.000,-0.000,175.77712,0.000*49
$GPGGA,042627.50,3542.293977868,N,13943.287670126,E,5,02,99.90,23.604,M,36.996,M,5.5,2107*7B
$PMSBATV,042627.50,2,2,4.30095,1.50384,139.07122,-0.000,-0.000,-0.000,175.77712,0.000*6A
$GPGGA,042627.60,3542.293977868,N,13943.287670131,E,5,02,99.90,23.604,M,36.996,M,5.6,2107*7D
$PMSBATV,042627.60,2,2,4.30217,1.50919,139.07562,0.000,0.000,-0.000,175.77712,0.000*6F
$GPGGA,042627.70,3542.293977866,N,13943.287670132,E,5,02,99.90,23.604,M,36.996,M,5.7,2107*70
$PMSBATV,042627.70,2,2,4.29772,1.51070,139.07582,0.000,0.000,-0.000,175.77712,0.000*69
$GPGGA,042627.80,3542.293977868,N,13943.287670139,E,5,02,99.90,23.604,M,36.996,M,5.8,2107*75
$PMSBATV,042627.80,2,2,4.30663,1.51118,139.07272,0.000,-0.000,0.000,175.77712,0.000*68
$GPGGA,042627.90,3542.293977872,N,13943.287670146,E,5,02,99.90,23.604,M,36.996,M,5.9,2107*76
$PMSBATV,042627.90,2,2,4.31099,1.51165,139.07321,0.000,-0.000,0.000,175.77712,0.000*66
$GPGGA,042628.00,3542.293977870,N,13943.287670147,E,5,02,99.90,23.604,M,36.996,M,6.0,2107*79
$PMSBATV,042628.00,2,2,4.30824,1.51102,139.07364,0.000,0.000,-0.000,175.77712,0.000*6F
$GPGGA,042628.10,3542.293977872,N,13943.287670146,E,5,02,99.90,23.604,M,36.996,M,1.1,2107*7D
$PMSBATV,042628.10,2,2,4.30467,1.50797,139.07821,-0.000,0.000,0.000,175.77712,0.000*64
$GPGGA,042628.20,3542.293977877,N,13943.287670149,E,5,02,99.90,23.604,M,36.996,M,1.2,2107*77
$PMSBATV,042628.20,2,2,4.30368,1.50538,139.07726,-0.000,-0.000,0.000,175.77712,0.000*4D
$GPGGA,042628.30,3542.293977872,N,13943.287670155,E,5,02,99.90,23.604,M,36.996,M,1.3,2107*7F
$PMSBATV,042628.30,2,2,4.30312,1.51275,139.07812,0.000,0.000,0.000,175.77712,0.000*46
$GPGGA,042628.40,3542.293977868,N,13943.287670156,E,5,02,99.90,23.604,M,36.996,M,1.4,2107*77
$PMSBATV,042628.40,2,2,4.30864,1.51124,139.07498,0.000,0.000,-0.000,175.77712,0.000*6F
$GPGGA,042628.50,3542.293977869,N,13943.287670163,E,5,02,99.90,23.604,M,36.996,M,1.5,2107*70
$PMSBATV,042628.50,2,2,4.31112,1.51572,139.07532,0.000,-0.000,-0.000,175.77712,0.000*4C
$GPGGA,042628.60,3542.293977870,N,13943.287670165,E,5,02,99.90,23.604,M,36.996,M,1.6,2107*7E
$PMSBATV,042628.60,2,2,4.31658,1.51586,139.07770,0.000,0.000,-0.000,175.77712,0.000*64
$GPGGA,042628.70,3542.293977867,N,13943.287670165,E,5,02,99.90,23.604,M,36.996,M,1.7,2107*78
$PMSBATV,042628.70,2,2,4.31678,1.51525,139.07771,0.000,-0.000,0.000,175.77712,0.000*6F
$GPGGA,042628.80,3542.293977868,N,13943.287670166,E,5,02,99.90,23.604,M,36.996,M,1.8,2107*74
$PMSBATV,042628.80,2,2,4.31622,1.51657,139.07982,-0.000,0.000,0.000,175.77712,0.000*6B
$GPGGA,042628.90,3542.293977863,N,13943.287670167,E,5,02,99.90,23.604,M,36.996,M,1.9,2107*7E
$PMSBATV,042628.90,2,2,4.31464,1.51923,139.08191,-0.000,0.000,-0.000,175.77712,0.000*4E
$GPGGA,042629.00,3542.293977862,N,13943.287670170,E,5,02,99.90,23.604,M,36.996,M,2.0,2107*7B
$PMSBATV,042629.00,2,2,4.31894,1.51735,139.08120,0.000,0.000,-0.000,175.77712,0.000*6B
$GPGGA,042629.10,3542.293977862,N,13943.287670169,E,5,02,99.90,23.604,M,36.996,M,2.1,2107*73
$PMSBATV,042629.10,2,2,4.31640,1.51599,139.08139,0.000,-0.000,-0.000,175.77712,0.000*4C
$GPGGA,042629.20,3542.293977861,N,13943.287670174,E,5,02,99.90,23.604,M,36.996,M,2.2,2107*7C
$PMSBATV,042629.20,2,2,4.31540,1.51929,139.08327,0.000,0.000,0.000,175.77712,0.000*46
$GPGGA,042629.30,3542.293977857,N,13943.287670182,E,5,02,99.90,23.604,M,36.996,M,2.3,2107*70
$PMSBATV,042629.30,2,2,4.31937,1.52632,139.08313,0.000,0.000,0.000,175.77712,0.000*4A
$GPGGA,042629.40,3542.293977861,N,13943.287670182,E,5,02,99.90,23.604,M,36.996,M,2.4,2107*75
$PMSBATV,042629.40,2,2,4.32155,1.53031,139.08019,-0.000,-0.000,0.000,175.77712,0.000*4F
$GPGGA,042629.50,3542.293977861,N,13943.287670184,E,5,02,99.90,23.604,M,36.996,M,2.5,2107*73
$PMSBATV,042629.50,2,2,4.32254,1.53223,139.07828,0.000,0.000,-0.000,175.77712,0.000*65
$GPGGA,042629.60,3542.293977858,N,13943.287670186,E,5,02,99.90,23.604,M,36.996,M,2.6,2107*7B
$PMSBATV,042629.60,2,2,4.32259,1.53365,139.08364,0.000,0.000,-0.000,175.77712,0.000*64
$GPGGA,042629.70,3542.293977857,N,13943.287670183,E,5,02,99.90,23.604,M,36.996,M,2.7,2107*71
$PMSBATV,042629.70,2,2,4.32571,1.53235,139.08617,-0.000,0.000,-0.000,175.77712,0.000*40
$GPGGA,042629.80,3542.293977856,N,13943.287670178,E,5,02,99.90,23.604,M,36.996,M,2.8,2107*74
$PMSBATV,042629.80,2,2,4.31871,1.53005,139.08889,-0.000,0.000,-0.000,175.77712,0.000*49
$GPGGA,042629.90,3542.293977850,N,13943.287670177,E,5,02,99.90,23.604,M,36.996,M,2.9,2107*7D
$PMSBATV,042629.90,2,2,4.31854,1.53286,139.08798,0.000,0.000,-0.000,175.77712,0.000*64
$GPGGA,042630.00,3542.293977845,N,13943.287670175,E,5,02,99.90,23.604,M,36.996,M,3.0,2107*72
$PMSBATV,042630.00,2,2,4.31152,1.53395,139.08657,0.000,0.000,-0.000,175.77712,0.000*6B
$GPGGA,042630.10,3542.293977845,N,13943.287670172,E,5,02,99.90,23.604,M,36.996,M,3.1,2107*75
$PMSBATV,042630.10,2,2,4.31121,1.53478,139.08580,-0.000,0.000,0.000,175.77712,0.000*63
$GPGGA,042630.20,3542.293977847,N,13943.287670171,E,5,02,99.90,23.604,M,36.996,M,3.2,2107*74
$PMSBATV,042630.20,2,2,4.31153,1.53237,139.08533,-0.000,-0.000,-0.000,175.77712,0.000*60
$GPGGA,042630.30,3542.293977848,N,13943.287670169,E,5,02,99.90,23.604,M,36.996,M,3.3,2107*72
$PMSBATV,042630.30,2,2,4.31321,1.53477,139.08729,0.000,-0.000,-0.000,175.77712,0.000*40
$GPGGA,042630.40,3542.293977847,N,13943.287670173,E,5,02,99.90,23.604,M,36.996,M,3.4,2107*76
$PMSBATV,042630.40,2,2,4.31428,1.53591,139.08653,0.000,-0.000,-0.000,175.77712,0.000*4C
$GPGGA,042630.50,3542.293977848,N,13943.287670180,E,5,02,99.90,23.604,M,36.996,M,3.5,2107*75
$PMSBATV,042630.50,2,2,4.31441,1.53283,139.08350,0.000,0.000,0.000,175.77712,0.000*40
$GPGGA,042630.60,3542.293977850,N,13943.287670182,E,5,02,99.90,23.604,M,36.996,M,3.6,2107*7E
$PMSBATV,042630.60,2,2,4.31675,1.53081,139.08453,-0.000,-0.000,-0.000,175.77712,0.000*6F
$GPGGA,042630.70,3542.293977849,N,13943.287670180,E,5,02,99.90,23.604,M,36.996,M,3.7,2107*74
$PMSBATV,042630.70,2,2,4.31675,1.53139,139.08072,-0.000,0.000,0.000,175.77712,0.000*6B
$GPGGA,042630.80,3542.293977844,N,13943.287670176,E,5,02,99.90,23.604,M,36.996,M,3.8,2107*70
$PMSBATV,042630.80,2,2,4.31103,1.53378,139.07864,0.000,0.000,0.000,175.77712,0.000*48
$GPGGA,042630.90,3542.293977851,N,13943.287670175,E,5,02,99.90,23.604,M,36.996,M,3.9,2107*77
$PMSBATV,042630.90,2,2,4.30938,1.53100,139.08084,-0.000,-0.000,0.000,175.77712,0.000*4C
$GPGGA,042631.00,3542.293977848,N,13943.287670174,E,5,02,99.90,23.604,M,36.996,M,4.0,2107*78
$PMSBATV,042631.00,2,2,4.30909,1.53141,139.08160,0.000,0.000,-0.000,175.77712,0.000*65
$GPGGA,042631.10,3542.293977844,N,13943.287670175,E,5,02,99.90,23.604,M,36.996,M,4.1,2107*75
$PMSBATV,042631.10,2,2,4.30968,1.53097,139.08200,0.000,0.000,-0.000,175.77712,0.000*6C
$GPGGA,042631.20,3542.293977852,N,13943.287670172,E,5,02,99.90,23.604,M,36.996,M,4.2,2107*75
$PMSBATV,042631.20,2,2,4.31643,1.52471,139.07859,-0.000,0.000,0.000,175.77712,0.000*6C
$GPGGA,042631.30,3542.293977850,N,13943.287670177,E,5,02,99.90,23.604,M,36.996,M,4.3,2107*72
$PMSBATV,042631.30,2,2,4.32709,1.52159,139.07504,0.000,-0.000,0.000,175.77712,0.000*6B
$GPGGA,042631.40,3542.293977853,N,13943.287670178,E,5,02,99.90,23.604,M,36.996,M,4.4,2107*7E
$PMSBATV,042631.40,2,2,4.33897,1.52072,139.07148,-0.000,-0.000,-0.000,175.77712,0.000*61
$GPGGA,042631.50,3542.293977860,N,13943.287670177,E,5,02,99.90,23.604,M,36.996,M,4.5,2107*71
$PMSBATV,042631.50,2,2,4.33862,1.51944,139.07669,-0.000,0.000,0.000,175.77712,0.000*61
$GPGGA,042631.60,3542.293977856,N,13943.287670183,E,5,02,99.90,23.604,M,36.996,M,4.6,2107*7F
$PMSBATV,042631.60,2,2,4.34137,1.52042,139.07522,0.000,-0.000,-0.000,175.77712,0.000*41
$GPGGA,042631.70,3542.293977849,N,13943.287670187,E,5,02,99.90,23.604,M,36.996,M,4.7,2107*75
$PMSBATV,042631.70,2,2,4.34350,1.52310,139.07648,0.000,-0.000,-0.000,175.77712,0.000*48
$GPGGA,042631.80,3542.293977855,N,13943.287670183,E,5,02,99.90,23.604,M,36.996,M,4.8,2107*7C
$PMSBATV,042631.80,2,2,4.33650,1.52114,139.07539,-0.000,0.000,-0.000,175.77712,0.000*46
$GPGGA,042631.90,3542.293977851,N,13943.287670189,E,5,02,99.90,23.604,M,36.996,M,4.9,2107*72
$PMSBATV,042631.90,2,2,4.33800,1.52250,139.07666,0.000,0.000,0.000,175.77712,0.000*46
$GPGGA,042632.00,3542.293977853,N,13943.287670191,E,5,02,99.90,23.604,M,36.996,M,5.0,2107*7B
$PMSBATV,042632.00,2,2,4.34320,1.52165,139.07553,-0.000,-0.000,-0.000,175.77712,0.000*6F
$GPGGA,042632.10,3542.293977854,N,13943.287670189,E,5,02,99.90,23.604,M,36.996,M,5.1,2107*75
$PMSBATV,042632.10,2,2,4.33795,1.52239,139.07614,-0.000,0.000,0.000,175.77712,0.000*69
$GPGGA,042632.20,3542.293977854,N,13943.287670190,E,5,02,99.90,23.604,M,36.996,M,5.2,2107*7D
$PMSBATV,042632.20,2,2,4.34052,1.52487,139.07761,-0.000,-0.000,-0.000,175.77712,0.000*61
$GPGGA,042632.30,3542.293977848,N,13943.287670200,E,5,02,99.90,23.604,M,36.996,M,5.3,2107*7A
$PMSBATV,042632.30,2,2,4.34337,1.52553,139.07894,0.000,-0.000,-0.000,175.77712,0.000*40
$GPGGA,042632.40,3542.293977853,N,13943.287670191,E,5,02,99.90,23.604,M,36.996,M,5.4,2107*7B
$PMSBATV,042632.40,2,2,4.33550,1.52195,139.07760,-0.000,0.000,-0.000,175.77712,0.000*4D
$GPGGA,042632.50,3542.293977849,N,13943.287670194,E,5,02,99.90,23.604,M,36.996,M,5.5,2107*75
$PMSBATV,042632.50,2,2,4.33474,1.52035,139.07549,0.000,0.000,-0.000,175.77712,0.000*64
$GPGGA,042632.60,3542.293977849,N,13943.287670200,E,5,02,99.90,23.604,M,36.996,M,5.6,2107*7B
$PMSBATV,042632.60,2,2,4.33363,1.51809,139.07691,0.000,-0.000,-0.000,175.77712,0.000*49
$GPGGA,042632.70,3542.293977844,N,13943.287670198,E,5,02,99.90,23.604,M,36.996,M,5.7,2107*74
$PMSBATV,042632.70,2,2,4.32974,1.52270,139.07691,-0.000,0.000,-0.000,175.77712,0.000*42
$GPGGA,042632.80,3542.293977843,N,13943.287670199,E,5,02,99.90,23.604,M,36.996,M,5.8,2107*72
$PMSBATV,042632.80,2,2,4.33006,1.52750,139.07731,0.000,0.000,0.000,175.77712,0.000*4C
$GPGGA,042632.90,3542.293977843,N,13943.287670205,E,5,02,99.90,23.604,M,36.996,M,5.9,2107*74
$PMSBATV,042632.90,2,2,4.32885,1.52897,139.07709,0.000,0.000,0.000,175.77712,0.000*40
$GPGGA,042633.00,3542.293977845,N,13943.287670200,E,5,02,99.90,23.604,M,36.996,M,6.0,2107*75
$PMSBATV,042633.00,2,2,4.32286,1.52744,139.07742,-0.000,0.000,-0.000,175.77712,0.000*4F
$GPGGA,042633.10,3542.293977839,N,13943.287670208,E,5,02,99.90,23.604,M,36.996,M,1.1,2107*71
$PMSBATV,042633.10,2,2,4.32228,1.52859,139.08024,0.000,-0.000,-0.000,175.77712,0.000*41
$GPGGA,042633.20,3542.293977844,N,13943.287670208,E,5,02,99.90,23.604,M,36.996,M,1.2,2107*7B
$PMSBATV,042633.20,2,2,4.32797,1.52825,139.07830,-0.000,-0.000,0.000,175.77712,0.000*4A
$GPGGA,042633.30,3542.293977843,N,13943.287670208,E,5,02,99.90,23.604,M,36.996,M,1.3,2107*7C
$PMSBATV,042633.30,2,2,4.32918,1.52611,139.07923,0.000,0.000,-0.000,175.77712,0.000*65
$GPGGA,042633.40,3542.293977834,N,13943.287670210,E,5,02,99.90,23.604,M,36.996,M,1.4,2107*75
$PMSBATV,042633.40,2,2,4.31951,1.53191,139.07403,0.000,0.000,0.000,175.77712,0.000*40
$GPGGA,042633.50,3542.293977835,N,13943.287670208,E,5,02,99.90,23.604,M,36.996,M,1.5,2107*7D
$PMSBATV,042633.50,2,2,4.32005,1.52679,139.07415,-0.000,-0.000,0.000,175.77712,0.000*4D
$GPGGA,042633.60,3542.293977837,N,13943.287670213,E,5,02,99.90,23.604,M,36.996,M,1.6,2107*75
$PMSBATV,042633.60,2,2,4.32573,1.52965,139.07150,-0.000,0.000,-0.000,175.77712,0.000*4C
$GPGGA,042633.70,3542.293977830,N,13943.287670219,E,5,02,99.90,23.604,M,36.996,M,1.7,2107*78
$PMSBATV,042633.70,2,2,4.32355,1.53031,139.07294,0.000,0.000,-0.000,175.77712,0.000*60
$GPGGA,042633.80,3542.293977832,N,13943.287670218,E,5,02,99.90,23.604,M,36.996,M,1.8,2107*7B
$PMSBATV,042633.80,2,2,4.32540,1.52489,139.07054,-0.000,0.000,-0.000,175.77712,0.000*48
$GPGGA,042633.90,3542.293977840,N,13943.287670221,E,5,02,99.90,23.604,M,36.996,M,1.9,2107*74
$PMSBATV,042633.90,2,2,4.33385,1.52276,139.07068,-0.000,-0.000,-0.000,175.77712,0.000*63
$GPGGA,042634.00,3542.293977835,N,13943.287670223,E,5,02,99.90,23.604,M,36.996,M,2.0,2107*70
$PMSBATV,042634.00,2,2,4.32873,1.52323,139.07475,0.000,0.000,-0.000,175.77712,0.000*67
$GPGGA,042634.10,3542.293977835,N,13943.287670221,E,5,02,99.90,23.604,M,36.996,M,2.1,2107*72
$PMSBATV,042634.10,2,2,4.33161,1.51805,139.07776,-0.000,0.000,-0.000,175.77712,0.000*4C
$GPGGA,042634.20,3542.293977839,N,13943.287670220,E,5,02,99.90,23.604,M,36.996,M,2.2,2107*7F
$PMSBATV,042634.20,2,2,4.33228,1.51664,139.07660,-0.000,-0.000,-0.000,175.77712,0.000*63
$GPGGA,042634.30,3542.293977838,N,13943.287670217,E,5,02,99.90,23.604,M,36.996,M,2.3,2107*7A
$PMSBATV,042634.30,2,2,4.33052,1.51459,139.07281,-0.000,0.000,0.000,175.77712,0.000*6A
$GPGGA,042634.40,3542.293977834,N,13943.287670224,E,5,02,99.90,23.604,M,36.996,M,2.4,2107*76
$PMSBATV,042634.40,2,2,4.33497,1.51826,139.07422,0.000,-0.000,-0.000,175.77712,0.000*46
$GPGGA,042634.50,3542.293977832,N,13943.287670231,E,5,02,99.90,23.604,M,36.996,M,2.5,2107*74
$PMSBATV,042634.50,2,2,4.33402,1.52443,139.07534,0.000,-0.000,-0.000,175.77712,0.000*41
$GPGGA,042634.60,3542.293977832,N,13943.287670227,E,5,02,99.90,23.604,M,36.996,M,2.6,2107*73
$PMSBATV,042634.60,2,2,4.32396,1.52343,139.07589,-0.000,-0.000,0.000,175.77712,0.000*48
$GPGGA,042634.70,3542.293977832,N,13943.287670229,E,5,02,99.90,23.604,M,36.996,M,2.7,2107*7D
$PMSBATV,042634.70,2,2,4.32513,1.52036,139.07592,0.000,-0.000,-0.000,175.77712,0.000*49
$GPGGA,042634.80,3542.293977839,N,13943.287670230,E,5,02,99.90,23.604,M,36.996,M,2.8,2107*7E
$PMSBATV,042634.80,2,2,4.33017,1.51996,139.07760,-0.000,-0.000,0.000,175.77712,0.000*49
$GPGGA,042634.90,3542.293977841,N,13943.287670233,E,5,02,99.90,23.604,M,36.996,M,2.9,2107*72
$PMSBATV,042634.90,2,2,4.32993,1.52351,139.07503,0.000,-0.000,-0.000,175.77712,0.000*49
$GPGGA,042635.00,3542.293977838,N,13943.287670237,E,5,02,99.90,23.604,M,36.996,M,3.0,2107*78
$PMSBATV,042635.00,2,2,4.33497,1.52242,139.07560,0.000,0.000,-0.000,175.77712,0.000*62
$GPGGA,042635.10,3542.293977839,N,13943.287670237,E,5,02,99.90,23.604,M,36.996,M,3.1,2107*79
$PMSBATV,042635.10,2,2,4.33081,1.52501,139.07683,-0.000,-0.000,-0.000,175.77712,0.000*6E
$GPGGA,042635.20,3542.293977834,N,13943.287670241,E,5,02,99.90,23.604,M,36.996,M,3.2,2107*75
$PMSBATV,042635.20,2,2,4.32876,1.52983,139.07959,-0.000,0.000,0.000,175.77712,0.000*62
$GPGGA,042635.30,3542.293977836,N,13943.287670245,E,5,02,99.90,23.604,M,36.996,M,3.3,2107*73
$PMSBATV,042635.30,2,2,4.32705,1.53252,139.07613,0.000,-0.000,0.000,175.77712,0.000*6F
