$GPGGA,033234.50,3542.294902697,N,13943.288639139,E,5,09,1.15,24.399,M,36.996,M,2.5,2107*4A
$PMSBATV,033234.50,2,2,4.80555,0.25854,-135.22362,0.000,0.000,-0.000,-134.22812,0.000*6A
$GPGGA,033234.60,3542.294902607,N,13943.288639216,E,4,10,1.07,24.399,M,36.996,M,2.6,2107*47
$PMSBATV,033234.60,2,2,4.81100,0.26029,-135.22429,0.000,-0.000,-0.000,-134.22812,0.000*48
$GPGGA,033234.70,3542.294902501,N,13943.288639452,E,5,09,1.15,24.399,M,36.996,M,2.7,2107*4E
$PMSBATV,033234.70,2,2,4.80689,0.26139,-135.23101,-0.000,0.000,0.000,-134.22812,0.000*6D
$GPGGA,033234.80,3542.294902571,N,13943.288639616,E,4,10,1.07,24.399,M,36.996,M,2.8,2107*41
$PMSBATV,033234.80,2,2,4.80407,0.25648,-135.23556,-0.000,0.000,-0.000,-134.22812,0.000*4F
$GPGGA,033234.90,3542.294902717,N,13943.288639665,E,4,10,1.07,24.399,M,36.996,M,2.9,2107*47
$PMSBATV,033234.90,2,2,4.79952,0.25417,-135.23612,0.000,0.000,0.000,-134.22812,0.000*4E
$GPGGA,033235.00,3542.294902629,N,13943.288639886,E,4,10,1.07,24.399,M,36.996,M,3.0,2107*48
$PMSBATV,033235.00,2,2,4.79859,0.25215,-135.23425,0.000,0.000,-0.000,-134.22812,0.000*63
$GPGGA,033235.10,3542.294902632,N,13943.288639901,E,4,10,1.07,24.399,M,36.996,M,3.1,2107*4C
$PMSBATV,033235.10,2,2,4.79806,0.25465,-135.22982,-0.000,-0.000,0.000,-134.22812,0.000*45
$GPGGA,033235.20,3542.294902751,N,13943.288640023,E,4,10,1.07,24.399,M,36.996,M,3.2,2107*4F
$PMSBATV,033235.20,2,2,4.79730,0.25671,-135.22850,0.000,0.000,-0.000,-134.22812,0.000*68
$GPGGA,033235.30,3542.294902685,N,13943.288640024,E,4,10,1.07,24.399,M,36.996,M,3.3,2107*40
$PMSBATV,033235.30,2,2,4.79856,0.25441,-135.22991,-0.000,0.000,-0.000,-134.22812,0.000*46
$GPGGA,033235.40,3542.294902660,N,13943.288640187,E,4,10,1.07,24.399,M,36.996,M,3.4,2107*43
$PMSBATV,033235.40,2,2,4.80152,0.25171,-135.22707,0.000,-0.000,-0.000,-134.22812,0.000*4D
$GPGGA,033235.50,3542.294902520,N,13943.288640202,E,4,10,1.07,24.399,M,36.996,M,3.5,2107*4A
$PMSBATV,033235.50,2,2,4.79592,0.25867,-135.22713,-0.000,0.000,-0.000,-134.22812,0.000*49
$GPGGA,033235.60,3542.294902454,N,13943.288640323,E,4,10,1.07,24.399,M,36.996,M,3.6,2107*4A
$PMSBATV,033235.60,2,2,4.79492,0.26115,-135.22767,-0.000,-0.000,0.000,-134.22812,0.000*47
$GPGGA,033235.70,3542.294902338,N,13943.288640656,E,4,10,1.07,24.399,M,36.996,M,3.7,2107*40
$PMSBATV,033235.70,2,2,4.79819,0.26240,-135.22935,-0.000,-0.000,-0.000,-134.22812,0.000*6E
$GPGGA,033235.80,3542.294902313,N,13943.288640735,E,4,10,1.07,24.399,M,36.996,M,3.8,2107*4D
$PMSBATV,033235.80,2,2,4.80477,0.26218,-135.22494,0.000,-0.000,0.000,-134.22812,0.000*68
$GPGGA,033235.90,3542.294902297,N,13943.288640711,E,4,10,1.07,24.399,M,36.996,M,3.9,2107*46
$PMSBATV,033235.90,2,2,4.80471,0.25951,-135.22164,0.000,0.000,-0.000,-134.22812,0.000*60
$GPGGA,033236.00,3542.294902314,N,13943.288640661,E,4,10,1.07,24.399,M,36.996,M,4.0,2107*4E
$PMSBATV,033236.00,2,2,4.80951,0.26580,-135.21891,-0.000,0.000,-0.000,-134.22812,0.000*4B
$GPGGA,033236.10,3542.294902249,N,13943.288640931,E,4,10,1.07,24.398,M,36.996,M,4.1,2107*4C
$PMSBATV,033236.10,2,2,4.81170,0.26376,-135.21649,0.000,0.000,-0.000,-134.22812,0.000*69
$GPGGA,033236.20,3542.294902235,N,13943.288641038,E,4,10,1.07,24.399,M,36.996,M,4.2,2107*47
$PMSBATV,033236.20,2,2,4.81315,0.26257,-135.21724,-0.000,0.000,-0.000,-134.22812,0.000*4E
$GPGGA,033236.30,3542.294902199,N,13943.288641153,E,4,10,1.07,24.399,M,36.996,M,4.3,2107*4E
$PMSBATV,033236.30,2,2,4.80854,0.26639,-135.22098,0.000,0.000,-0.000,-134.22812,0.000*62
$GPGGA,033236.40,3542.294902239,N,13943.288641371,E,4,10,1.07,24.399,M,36.996,M,4.4,2107*45
$PMSBATV,033236.40,2,2,4.80613,0.26874,-135.22001,0.000,0.000,-0.000,-134.22812,0.000*6F
$GPGGA,033236.50,3542.294902091,N,13943.288641272,E,4,10,1.07,24.398,M,36.996,M,4.5,2107*46
$PMSBATV,033236.50,2,2,4.80271,0.26606,-135.21471,-0.000,0.000,-0.000,-134.22812,0.000*48
$GPGGA,033236.60,3542.294902108,N,13943.288641364,E,4,10,1.07,24.398,M,36.996,M,4.6,2107*41
$PMSBATV,033236.60,2,2,4.79690,0.26514,-135.21600,0.000,0.000,-0.000,-134.22812,0.000*6F
$GPGGA,033236.70,3542.294902074,N,13943.288641479,E,4,10,1.07,24.398,M,36.996,M,4.7,2107*40
$PMSBATV,033236.70,2,2,4.79973,0.26449,-135.21127,-0.000,0.000,0.000,-134.22812,0.000*67
$GPGGA,033236.80,3542.294901990,N,13943.288641656,E,5,09,1.15,24.398,M,36.996,M,4.8,2107*45
$PMSBATV,033236.80,2,2,4.79667,0.25951,-135.21635,-0.000,0.000,-0.000,-134.22812,0.000*4C
$GPGGA,033236.90,3542.294901980,N,13943.288641634,E,4,10,1.07,24.398,M,36.996,M,4.9,2107*4A
$PMSBATV,033236.90,2,2,4.79571,0.26184,-135.21546,-0.000,0.000,-0.000,-134.22812,0.000*4D
$GPGGA,033237.00,3542.294902031,N,13943.288641849,E,4,10,1.07,24.398,M,36.996,M,5.0,2107*4E
$PMSBATV,033237.00,2,2,4.79641,0.26916,-135.21926,-0.000,-0.000,-0.000,-134.22812,0.000*61
$GPGGA,033237.10,3542.294902184,N,13943.288642081,E,4,10,1.07,24.399,M,36.996,M,5.1,2107*4F
$PMSBATV,033237.10,2,2,4.80385,0.26115,-135.22298,-0.000,0.000,0.000,-134.22812,0.000*6D
$GPGGA,033237.20,3542.294902180,N,13943.288642280,E,4,10,1.07,24.398,M,36.996,M,5.2,2107*49
$PMSBATV,033237.20,2,2,4.81560,0.26387,-135.22550,-0.000,-0.000,-0.000,-134.22812,0.000*68
$GPGGA,033237.30,3542.294902282,N,13943.288642599,E,4,10,1.07,24.399,M,36.996,M,5.3,2107*46
$PMSBATV,033237.30,2,2,4.82195,0.26487,-135.22336,0.000,0.000,-0.000,-134.22812,0.000*65
$GPGGA,033237.40,3542.294902241,N,13943.288642698,E,4,10,1.07,24.399,M,36.996,M,5.4,2107*4B
$PMSBATV,033237.40,2,2,4.81451,0.26293,-135.22598,0.000,0.000,0.000,-134.22812,0.000*40
$GPGGA,033237.50,3542.294902160,N,13943.288642960,E,4,10,1.07,24.399,M,36.996,M,5.5,2107*43
$PMSBATV,033237.50,2,2,4.81548,0.25933,-135.22704,-0.000,-0.000,-0.000,-134.22812,0.000*60
$GPGGA,033237.60,3542.294902199,N,13943.288643297,E,4,10,1.07,24.399,M,36.996,M,5.6,2107*47
$PMSBATV,033237.60,2,2,4.80957,0.25440,-135.22906,0.000,0.000,-0.000,-134.22812,0.000*65
$GPGGA,033237.70,3542.294902099,N,13943.288643215,E,4,10,1.07,24.398,M,36.996,M,5.7,2107*4D
$PMSBATV,033237.70,2,2,4.81000,0.25550,-135.22763,-0.000,0.000,0.000,-134.22812,0.000*63
$GPGGA,033237.80,3542.294902275,N,13943.288643319,E,4,10,1.07,24.398,M,36.996,M,5.8,2107*40
$PMSBATV,033237.80,2,2,4.80894,0.25667,-135.22763,-0.000,-0.000,-0.000,-134.22812,0.000*6F
$GPGGA,033237.90,3542.294902196,N,13943.288643656,E,4,10,1.07,24.398,M,36.996,M,5.9,2107*40
$PMSBATV,033237.90,2,2,4.80842,0.25143,-135.23074,0.000,-0.000,-0.000,-134.22812,0.000*49
$GPGGA,033238.00,3542.294902071,N,13943.288643693,E,4,10,1.07,24.398,M,36.996,M,6.0,2107*4D
$PMSBATV,033238.00,2,2,4.80711,0.25031,-135.22354,-0.000,0.000,-0.000,-134.22812,0.000*42
$GPGGA,033238.10,3542.294901973,N,13943.288644340,E,4,10,1.07,24.398,M,36.996,M,1.1,2107*4E
$PMSBATV,033238.10,2,2,4.81070,0.24782,-135.22392,0.000,-0.000,-0.000,-134.22812,0.000*46
$GPGGA,033238.20,3542.294901969,N,13943.288644441,E,4,10,1.07,24.398,M,36.996,M,1.2,2107*43
$PMSBATV,033238.20,2,2,4.80618,0.24652,-135.22452,0.000,0.000,-0.000,-134.22812,0.000*66
$GPGGA,033238.30,3542.294901786,N,13943.288644393,E,4,10,1.07,24.398,M,36.996,M,1.3,2107*44
$PMSBATV,033238.30,2,2,4.80958,0.24586,-135.22440,0.000,-0.000,0.000,-134.22812,0.000*65
$GPGGA,033238.40,3542.294901759,N,13943.288644495,E,4,10,1.07,24.398,M,36.996,M,1.4,2107*47
$PMSBATV,033238.40,2,2,4.81267,0.24785,-135.22471,-0.000,-0.000,-0.000,-134.22812,0.000*67
$GPGGA,033238.50,3542.294901825,N,13943.288644742,E,4,10,1.07,24.398,M,36.996,M,1.5,2107*4A
$PMSBATV,033238.50,2,2,4.81318,0.24993,-135.22126,0.000,0.000,-0.000,-134.22812,0.000*61
$GPGGA,033238.60,3542.294901802,N,13943.288644708,E,4,10,1.07,24.398,M,36.996,M,1.6,2107*41
$PMSBATV,033238.60,2,2,4.81080,0.25185,-135.21756,-0.000,0.000,0.000,-134.22812,0.000*6C
$GPGGA,033238.70,3542.294901726,N,13943.288644764,E,4,10,1.07,24.398,M,36.996,M,1.7,2107*42
$PMSBATV,033238.70,2,2,4.80831,0.25467,-135.21485,-0.000,0.000,-0.000,-134.22812,0.000*47
$GPGGA,033238.80,3542.294901747,N,13943.288644743,E,4,10,1.07,24.398,M,36.996,M,1.8,2107*40
$PMSBATV,033238.80,2,2,4.81144,0.25489,-135.22115,0.000,-0.000,0.000,-134.22812,0.000*60
$GPGGA,033238.90,3542.294901670,N,13943.288644819,E,4,10,1.07,24.398,M,36.996,M,1.9,2107*45
$PMSBATV,033238.90,2,2,4.81369,0.25763,-135.22203,-0.000,0.000,-0.000,-134.22812,0.000*42
$GPGGA,033239.00,3542.294901570,N,13943.288645001,E,4,10,1.07,24.398,M,36.996,M,2.0,2107*44
$PMSBATV,033239.00,2,2,4.81222,0.25880,-135.22468,-0.000,-0.000,-0.000,-134.22812,0.000*60
$GPGGA,033239.10,3542.294901644,N,13943.288645113,E,4,10,1.07,24.398,M,36.996,M,2.1,2107*42
$PMSBATV,033239.10,2,2,4.81198,0.26019,-135.22361,0.000,-0.000,-0.000,-134.22812,0.000*4B
$GPGGA,033239.20,3542.294901549,N,13943.288645272,E,4,10,1.07,24.398,M,36.996,M,2.2,2107*48
$PMSBATV,033239.20,2,2,4.81006,0.26300,-135.22175,-0.000,0.000,-0.000,-134.22812,0.000*42
$GPGGA,033239.30,3542.294901413,N,13943.288645287,E,4,10,1.07,24.398,M,36.996,M,2.3,2107*4C
$PMSBATV,033239.30,2,2,4.80575,0.26590,-135.21978,0.000,0.000,-0.000,-134.22812,0.000*67
$GPGGA,033239.40,3542.294901368,N,13943.288645457,E,4,10,1.07,24.398,M,36.996,M,2.4,2107*4C
$PMSBATV,033239.40,2,2,4.80211,0.26237,-135.21796,-0.000,0.000,-0.000,-134.22812,0.000*4C
$GPGGA,033239.50,3542.294901317,N,13943.288645617,E,4,10,1.07,24.397,M,36.996,M,2.5,2107*4D
$PMSBATV,033239.50,2,2,4.80357,0.26480,-135.21665,0.000,-0.000,-0.000,-134.22812,0.000*49
$GPGGA,033239.60,3542.294901219,N,13943.288645703,E,4,10,1.07,24.398,M,36.996,M,2.6,2107*49
$PMSBATV,033239.60,2,2,4.80421,0.26212,-135.22039,-0.000,0.000,-0.000,-134.22812,0.000*4D
$GPGGA,033239.70,3542.294901123,N,13943.288645707,E,4,10,1.07,24.397,M,36.996,M,2.7,2107*48
$PMSBATV,033239.70,2,2,4.80546,0.26406,-135.22075,-0.000,-0.000,-0.000,-134.22812,0.000*6A
$GPGGA,033239.80,3542.294901245,N,13943.288645785,E,4,10,1.07,24.398,M,36.996,M,2.8,2107*4E
$PMSBATV,033239.80,2,2,4.80580,0.25750,-135.22295,-0.000,0.000,0.000,-134.22812,0.000*60
$GPGGA,033239.90,3542.294901034,N,13943.288645967,E,4,10,1.07,24.397,M,36.996,M,2.9,2107*47
$PMSBATV,033239.90,2,2,4.80492,0.25296,-135.22378,-0.000,0.000,-0.000,-134.22812,0.000*43
$GPGGA,033240.00,3542.294900986,N,13943.288645937,E,4,10,1.07,24.398,M,36.996,M,3.0,2107*43
$PMSBATV,033240.00,2,2,4.81042,0.25023,-135.22416,0.000,-0.000,-0.000,-134.22812,0.000*4F
$GPGGA,033240.10,3542.294900902,N,13943.288646250,E,4,10,1.07,24.398,M,36.996,M,3.1,2107*46
$PMSBATV,033240.10,2,2,4.80446,0.25513,-135.22767,-0.000,0.000,0.000,-134.22812,0.000*61
$GPGGA,033240.20,3542.294901014,N,13943.288646629,E,4,10,1.07,24.398,M,36.996,M,3.2,2107*43
$PMSBATV,033240.20,2,2,4.80579,0.25492,-135.23280,-0.000,0.000,-0.000,-134.22812,0.000*47
$GPGGA,033240.30,3542.294900869,N,13943.288646753,E,4,10,1.07,24.398,M,36.996,M,3.3,2107*4C
$PMSBATV,033240.30,2,2,4.80453,0.25419,-135.23454,-0.000,0.000,0.000,-134.22812,0.000*6E
$GPGGA,033240.40,3542.294901138,N,13943.288646914,E,4,10,1.07,24.398,M,36.996,M,3.4,2107*4D
$PMSBATV,033240.40,2,2,4.80580,0.25654,-135.23873,-0.000,-0.000,-0.000,-134.22812,0.000*64
$GPGGA,033240.50,3542.294901048,N,13943.288646986,E,4,10,1.07,24.398,M,36.996,M,3.5,2107*40
$PMSBATV,033240.50,2,2,4.80906,0.24974,-135.23773,-0.000,-0.000,0.000,-134.22812,0.000*49
$GPGGA,033240.60,3542.294900962,N,13943.288646937,E,4,10,1.07,24.398,M,36.996,M,3.6,2107*4A
$PMSBATV,033240.60,2,2,4.80743,0.25168,-135.23874,0.000,-0.000,-0.000,-134.22812,0.000*49
$GPGGA,033240.70,3542.294900925,N,13943.288647141,E,4,10,1.07,24.398,M,36.996,M,3.7,2107*41
$PMSBATV,033240.70,2,2,4.81469,0.25504,-135.24091,0.000,-0.000,0.000,-134.22812,0.000*65
$GPGGA,033240.80,3542.294900726,N,13943.288647238,E,4,10,1.07,24.398,M,36.996,M,3.8,2107*41
$PMSBATV,033240.80,2,2,4.81259,0.25393,-135.23971,0.000,-0.000,-0.000,-134.22812,0.000*4A
$GPGGA,033240.90,3542.294900692,N,13943.288647195,E,4,10,1.07,24.398,M,36.996,M,3.9,2107*4B
$PMSBATV,033240.90,2,2,4.80750,0.25162,-135.24190,0.000,0.000,-0.000,-134.22812,0.000*67
$GPGGA,033241.00,3542.294900684,N,13943.288647446,E,4,10,1.07,24.398,M,36.996,M,4.0,2107*41
$PMSBATV,033241.00,2,2,4.80510,0.25179,-135.23917,-0.000,0.000,0.000,-134.22812,0.000*63
$GPGGA,033241.10,3542.294900578,N,13943.288647514,E,4,10,1.07,24.398,M,36.996,M,4.1,2107*47
$PMSBATV,033241.10,2,2,4.80742,0.25148,-135.23430,-0.000,-0.000,-0.000,-134.22812,0.000*6D
$GPGGA,033241.20,3542.294900540,N,13943.288647868,E,4,10,1.07,24.398,M,36.996,M,4.2,2107*4A
$PMSBATV,033241.20,2,2,4.80840,0.25118,-135.23251,-0.000,0.000,0.000,-134.22812,0.000*67
$GPGGA,033241.30,3542.294900613,N,13943.288648254,E,4,10,1.07,24.398,M,36.996,M,4.3,2107*45
$PMSBATV,033241.30,2,2,4.80474,0.24849,-135.23393,0.000,-0.000,-0.000,-134.22812,0.000*43
$GPGGA,033241.40,3542.294900412,N,13943.288648258,E,4,10,1.07,24.398,M,36.996,M,4.4,2107*4A
$PMSBATV,033241.40,2,2,4.80735,0.25212,-135.23498,-0.000,-0.000,-0.000,-134.22812,0.000*66
$GPGGA,033241.50,3542.294900547,N,13943.288648579,E,4,10,1.07,24.398,M,36.996,M,4.5,2107*4F
$PMSBATV,033241.50,2,2,4.80828,0.25042,-135.23680,0.000,-0.000,0.000,-134.22812,0.000*68
$GPGGA,033241.60,3542.294900411,N,13943.288648641,E,4,10,1.07,24.398,M,36.996,M,4.6,2107*45
$PMSBATV,033241.60,2,2,4.80922,0.25399,-135.23988,0.000,-0.000,0.000,-134.22812,0.000*62
$GPGGA,033241.70,3542.294900367,N,13943.288648612,E,4,10,1.07,24.398,M,36.996,M,4.7,2107*45
$PMSBATV,033241.70,2,2,4.81327,0.25359,-135.23878,0.000,0.000,-0.000,-134.22812,0.000*6F
$GPGGA,033241.80,3542.294900228,N,13943.288648759,E,4,10,1.07,24.398,M,36.996,M,4.8,2107*41
$PMSBATV,033241.80,2,2,4.81622,0.25373,-135.23983,-0.000,-0.000,0.000,-134.22812,0.000*40
$GPGGA,033241.90,3542.294900236,N,13943.288648980,E,4,10,1.07,24.398,M,36.996,M,4.9,2107*44
$PMSBATV,033241.90,2,2,4.81369,0.25448,-135.23330,0.000,-0.000,-0.000,-134.22812,0.000*46
$GPGGA,033242.00,3542.294900123,N,13943.288648799,E,4,10,1.07,24.397,M,36.996,M,5.0,2107*48
$PMSBATV,033242.00,2,2,4.81255,0.25127,-135.23572,0.000,-0.000,-0.000,-134.22812,0.000*4E
$GPGGA,033242.10,3542.294899926,N,13943.288649000,E,4,10,1.07,24.397,M,36.996,M,5.1,2107*42
$PMSBATV,033242.10,2,2,4.81354,0.25052,-135.23738,-0.000,-0.000,-0.000,-134.22812,0.000*6D
$GPGGA,033242.20,3542.294899705,N,13943.288649093,E,4,10,1.07,24.397,M,36.996,M,5.2,2107*47
$PMSBATV,033242.20,2,2,4.82119,0.25143,-135.23819,-0.000,-0.000,0.000,-134.22812,0.000*46
$GPGGA,033242.30,3542.294899792,N,13943.288649127,E,4,10,1.07,24.397,M,36.996,M,5.3,2107*47
$PMSBATV,033242.30,2,2,4.82543,0.25436,-135.23374,0.000,-0.000,-0.000,-134.22812,0.000*4B
$GPGGA,033242.40,3542.294899629,N,13943.288649201,E,4,10,1.07,24.397,M,36.996,M,5.4,2107*41
$PMSBATV,033242.40,2,2,4.82902,0.25115,-135.23124,-0.000,-0.000,0.000,-134.22812,0.000*46
$GPGGA,033242.50,3542.294899505,N,13943.288649255,E,4,10,1.07,24.397,M,36.996,M,5.5,2107*4D
$PMSBATV,033242.50,2,2,4.82572,0.24996,-135.23170,0.000,-0.000,0.000,-134.22812,0.000*62
$GPGGA,033242.60,3542.294899457,N,13943.288649413,E,4,10,1.07,24.397,M,36.996,M,5.6,2107*4F
$PMSBATV,033242.60,2,2,4.82211,0.25064,-135.23320,-0.000,-0.000,0.000,-134.22812,0.000*4C
$GPGGA,033242.70,3542.294899336,N,13943.288649689,E,4,10,1.07,24.397,M,36.996,M,5.7,2107*4E
$PMSBATV,033242.70,2,2,4.81737,0.24886,-135.23336,-0.000,-0.000,0.000,-134.22812,0.000*4D
$GPGGA,033242.80,3542.294899162,N,13943.288649672,E,4,10,1.07,24.396,M,36.996,M,5.8,2107*48
$PMSBATV,033242.80,2,2,4.81373,0.25144,-135.23759,-0.000,0.000,-0.000,-134.22812,0.000*4D
$GPGGA,033242.90,3542.294899271,N,13943.288649786,E,4,10,1.07,24.397,M,36.996,M,5.9,2107*42
$PMSBATV,033242.90,2,2,4.81798,0.25120,-135.24298,-0.000,-0.000,0.000,-134.22812,0.000*40
$GPGGA,033243.00,3542.294899083,N,13943.288650177,E,4,10,1.07,24.397,M,36.996,M,6.0,2107*4F
$PMSBATV,033243.00,2,2,4.81708,0.24483,-135.24223,0.000,-0.000,-0.000,-134.22812,0.000*4C
$GPGGA,033243.10,3542.294899133,N,13943.288650280,E,4,10,1.07,24.397,M,36.996,M,6.1,2107*4E
$PMSBATV,033243.10,2,2,4.82048,0.24327,-135.24319,-0.000,-0.000,-0.000,-134.22812,0.000*61
$GPGGA,033243.20,3542.294899208,N,13943.288650455,E,4,10,1.07,24.397,M,36.996,M,6.2,2107*4B
$PMSBATV,033243.20,2,2,4.82662,0.24763,-135.24396,0.000,-0.000,-0.000,-134.22812,0.000*42
$GPGGA,033243.30,3542.294899117,N,13943.288650497,E,4,10,1.07,24.397,M,36.996,M,6.3,2107*48
$PMSBATV,033243.30,2,2,4.82585,0.24700,-135.23778,0.000,-0.000,0.000,-134.22812,0.000*62
$GPGGA,033243.40,3542.294898986,N,13943.288650818,E,4,10,1.07,24.397,M,36.996,M,6.4,2107*42
$PMSBATV,033243.40,2,2,4.82430,0.25016,-135.23696,-0.000,0.000,0.000,-134.22812,0.000*6A
$GPGGA,033243.50,3542.294898940,N,13943.288650990,E,4,10,1.07,24.397,M,36.996,M,6.5,2107*49
$PMSBATV,033243.50,2,2,4.81990,0.25068,-135.23483,0.000,0.000,-0.000,-134.22812,0.000*60
$GPGGA,033243.60,3542.294898694,N,13943.288651001,E,4,10,1.07,24.397,M,36.996,M,6.6,2107*4F
$PMSBATV,033243.60,2,2,4.82016,0.25100,-135.23084,0.000,0.000,-0.000,-134.22812,0.000*6B
$GPGGA,033243.70,3542.294898791,N,13943.288651205,E,4,10,1.07,24.397,M,36.996,M,6.7,2107*4D
$PMSBATV,033243.70,2,2,4.81769,0.25162,-135.23134,-0.000,0.000,-0.000,-134.22812,0.000*45
$GPGGA,033243.80,3542.294898813,N,13943.288651296,E,4,10,1.07,24.397,M,36.996,M,6.8,2107*42
$PMSBATV,033243.80,2,2,4.81366,0.25309,-135.22829,0.000,-0.000,-0.000,-134.22812,0.000*4A
$GPGGA,033243.90,3542.294898808,N,13943.288651391,E,4,10,1.07,24.398,M,36.996,M,6.9,2107*41
$PMSBATV,033243.90,2,2,4.80789,0.25836,-135.23022,-0.000,0.000,0.000,-134.22812,0.000*67
$GPGGA,033244.00,3542.294898824,N,13943.288651491,E,4,10,1.07,24.397,M,36.996,M,7.0,2107*41
$PMSBATV,033244.00,2,2,4.81027,0.26152,-135.23168,-0.000,0.000,-0.000,-134.22812,0.000*41
$GPGGA,033244.10,3542.294898742,N,13943.288651551,E,4,10,1.07,24.398,M,36.996,M,2.1,2107*49
$PMSBATV,033244.10,2,2,4.81213,0.25711,-135.23388,-0.000,0.000,-0.000,-134.22812,0.000*4B
$GPGGA,033244.20,3542.294898793,N,13943.288651632,E,4,10,1.07,24.398,M,36.996,M,2.2,2107*43
$PMSBATV,033244.20,2,2,4.81206,0.25019,-135.23602,-0.000,0.000,0.000,-134.22812,0.000*69
$GPGGA,033244.30,3542.294898716,N,13943.288651727,E,4,10,1.07,24.398,M,36.996,M,2.3,2107*4B
$PMSBATV,033244.30,2,2,4.80642,0.25107,-135.23357,0.000,0.000,0.000,-134.22812,0.000*4B
$GPGGA,033244.40,3542.294898660,N,13943.288651832,E,4,10,1.07,24.398,M,36.996,M,2.4,2107*40
$PMSBATV,033244.40,2,2,4.80341,0.24942,-135.23157,0.000,0.000,-0.000,-134.22812,0.000*6D
$GPGGA,033244.50,3542.294898682,N,13943.288651953,E,4,10,1.07,24.398,M,36.996,M,2.5,2107*4A
$PMSBATV,033244.50,2,2,4.79895,0.24572,-135.23371,-0.000,-0.000,0.000,-134.22812,0.000*4C
$GPGGA,033244.60,3542.294898652,N,13943.288652019,E,4,10,1.07,24.398,M,36.996,M,2.6,2107*43
$PMSBATV,033244.60,2,2,4.79983,0.24548,-135.23856,0.000,0.000,-0.000,-134.22812,0.000*63
$GPGGA,033244.70,3542.294898534,N,13943.288652105,E,4,10,1.07,24.398,M,36.996,M,2.7,2107*4C
$PMSBATV,033244.70,2,2,4.80336,0.24532,-135.23879,0.000,-0.000,-0.000,-134.22812,0.000*4D
$GPGGA,033244.80,3542.294898579,N,13943.288652251,E,4,10,1.07,24.398,M,36.996,M,2.8,2107*47
$PMSBATV,033244.80,2,2,4.80329,0.24145,-135.24210,0.000,0.000,-0.000,-134.22812,0.000*67
$GPGGA,033244.90,3542.294898603,N,13943.288652404,E,4,10,1.07,24.398,M,36.996,M,2.9,2107*4F
$PMSBATV,033244.90,2,2,4.79992,0.24362,-135.24092,-0.000,-0.000,-0.000,-134.22812,0.000*65
$GPGGA,033245.00,3542.294898592,N,13943.288652575,E,4,10,1.07,24.398,M,36.996,M,3.0,2107*43
$PMSBATV,033245.00,2,2,4.79681,0.24436,-135.23998,0.000,0.000,0.000,-134.22812,0.000*4F
$GPGGA,033245.10,3542.294898468,N,13943.288652773,E,4,10,1.07,24.398,M,36.996,M,3.1,2107*43
$PMSBATV,033245.10,2,2,4.80007,0.24625,-135.23761,-0.000,-0.000,-0.000,-134.22812,0.000*65
$GPGGA,033245.20,3542.294898411,N,13943.288652993,E,4,10,1.07,24.398,M,36.996,M,3.2,2107*4D
$PMSBATV,033245.20,2,2,4.79357,0.24927,-135.23294,0.000,0.000,-0.000,-134.22812,0.000*64
$GPGGA,033245.30,3542.294898438,N,13943.288653256,E,4,10,1.07,24.398,M,36.996,M,3.3,2107*45
$PMSBATV,033245.30,2,2,4.79382,0.24651,-135.22871,-0.000,0.000,-0.000,-134.22812,0.000*4E
$GPGGA,033245.40,3542.294898419,N,13943.288653356,E,4,10,1.07,24.398,M,36.996,M,3.4,2107*47
$PMSBATV,033245.40,2,2,4.79312,0.24108,-135.22758,-0.000,-0.000,-0.000,-134.22812,0.000*62
$GPGGA,033245.50,3542.294898373,N,13943.288653295,E,4,10,1.07,24.398,M,36.996,M,3.5,2107*42
$PMSBATV,033245.50,2,2,4.78951,0.24322,-135.22831,0.000,-0.000,0.000,-134.22812,0.000*65
$GPGGA,033245.60,3542.294898316,N,13943.288653391,E,4,10,1.07,24.398,M,36.996,M,3.6,2107*44
$PMSBATV,033245.60,2,2,4.79840,0.24890,-135.22391,0.000,-0.000,0.000,-134.22812,0.000*65
$GPGGA,033245.70,3542.294898183,N,13943.288653550,E,4,10,1.07,24.398,M,36.996,M,3.7,2107*41
$PMSBATV,033245.70,2,2,4.80417,0.25189,-135.22737,-0.000,-0.000,-0.000,-134.22812,0.000*64
$GPGGA,033245.80,3542.294898201,N,13943.288653572,E,4,10,1.07,24.398,M,36.996,M,3.8,2107*48
$PMSBATV,033245.80,2,2,4.79946,0.25135,-135.22879,-0.000,0.000,-0.000,-134.22812,0.000*4B
$GPGGA,033245.90,3542.294898134,N,13943.288653610,E,4,10,1.07,24.398,M,36.996,M,3.9,2107*4A
$PMSBATV,033245.90,2,2,4.80183,0.25497,-135.22558,-0.000,-0.000,-0.000,-134.22812,0.000*63
$GPGGA,033246.00,3542.294898157,N,13943.288653806,E,4,10,1.07,24.398,M,36.996,M,4.0,2107*42
$PMSBATV,033246.00,2,2,4.80309,0.25382,-135.22837,0.000,0.000,0.000,-134.22812,0.000*43
$GPGGA,033246.10,3542.294898208,N,13943.288653978,E,4,10,1.07,24.399,M,36.996,M,4.1,2107*42
$PMSBATV,033246.10,2,2,4.80020,0.25117,-135.22864,-0.000,0.000,-0.000,-134.22812,0.000*42
$GPGGA,033246.20,3542.294898136,N,13943.288654115,E,4,10,1.07,24.399,M,36.996,M,4.2,2107*48
$PMSBATV,033246.20,2,2,4.80091,0.25577,-135.22874,-0.000,-0.000,0.000,-134.22812,0.000*48
$GPGGA,033246.30,3542.294898194,N,13943.288654173,E,4,10,1.07,24.399,M,36.996,M,4.3,2107*40
$PMSBATV,033246.30,2,2,4.80071,0.25293,-135.22901,0.000,0.000,-0.000,-134.22812,0.000*64
$GPGGA,033246.40,3542.294898045,N,13943.288654225,E,4,10,1.07,24.399,M,36.996,M,4.4,2107*4D
$PMSBATV,033246.40,2,2,4.80375,0.25272,-135.22958,0.000,-0.000,0.000,-134.22812,0.000*67
$GPGGA,033246.50,3542.294897864,N,13943.288654324,E,4,10,1.07,24.399,M,36.996,M,4.5,2107*49
$PMSBATV,033246.50,2,2,4.80516,0.25497,-135.23368,0.000,-0.000,-0.000,-134.22812,0.000*4D
$GPGGA,033246.60,3542.294897769,N,13943.288654383,E,4,10,1.07,24.399,M,36.996,M,4.6,2107*46
$PMSBATV,033246.60,2,2,4.80287,0.25421,-135.23419,-0.000,-0.000,0.000,-134.22812,0.000*4D
$GPGGA,033246.70,3542.294897796,N,13943.288654611,E,4,10,1.07,24.398,M,36.996,M,4.7,2107*49
$PMSBATV,033246.70,2,2,4.80466,0.25564,-135.23226,0.000,-0.000,0.000,-134.22812,0.000*62
$GPGGA,033246.80,3542.294897661,N,13943.288654704,E,4,10,1.07,24.398,M,36.996,M,4.8,2107*45
$PMSBATV,033246.80,2,2,4.80816,0.25779,-135.23075,0.000,0.000,0.000,-134.22812,0.000*41
$GPGGA,033246.90,3542.294897689,N,13943.288654713,E,4,10,1.07,24.399,M,36.996,M,4.9,2107*44
$PMSBATV,033246.90,2,2,4.80804,0.25441,-135.22997,-0.000,-0.000,0.000,-134.22812,0.000*4F
$GPGGA,033247.00,3542.294897710,N,13943.288654772,E,4,10,1.07,24.399,M,36.996,M,5.0,2107*42
$PMSBATV,033247.00,2,2,4.80440,0.25764,-135.22591,-0.000,0.000,-0.000,-134.22812,0.000*45
$GPGGA,033247.10,3542.294897712,N,13943.288654975,E,4,10,1.07,24.399,M,36.996,M,5.1,2107*49
$PMSBATV,033247.10,2,2,4.80638,0.25368,-135.22666,-0.000,-0.000,-0.000,-134.22812,0.000*67
$GPGGA,033247.20,3542.294897693,N,13943.288654950,E,4,10,1.07,24.399,M,36.996,M,5.2,2107*46
$PMSBATV,033247.20,2,2,4.80383,0.25873,-135.22635,0.000,-0.000,0.000,-134.22812,0.000*66
$GPGGA,033247.30,3542.294897525,N,13943.288655292,E,4,10,1.07,24.399,M,36.996,M,5.3,2107*4C
$PMSBATV,033247.30,2,2,4.80432,0.26421,-135.22319,0.000,0.000,-0.000,-134.22812,0.000*69
$GPGGA,033247.40,3542.294897465,N,13943.288655359,E,4,10,1.07,24.399,M,36.996,M,5.4,2107*4F
$PMSBATV,033247.40,2,2,4.80421,0.26112,-135.22717,-0.000,-0.000,-0.000,-134.22812,0.000*63
$GPGGA,033247.50,3542.294897323,N,13943.288655422,E,4,10,1.07,24.399,M,36.996,M,5.5,2107*41
$PMSBATV,033247.50,2,2,4.80523,0.26586,-135.23289,-0.000,-0.000,-0.000,-134.22812,0.000*6B
$GPGGA,033247.60,3542.294897230,N,13943.288655541,E,4,09,1.31,24.399,M,36.996,M,5.6,2107*4B
$PMSBATV,033247.60,2,2,4.81003,0.26765,-135.23551,-0.000,-0.000,-0.000,-134.22812,0.000*63
$GPGGA,033247.70,3542.294897414,N,13943.288655832,E,4,10,1.07,24.400,M,36.996,M,5.7,2107*48
$PMSBATV,033247.70,2,2,4.80958,0.26451,-135.23732,-0.000,-0.000,-0.000,-134.22812,0.000*67
$GPGGA,033247.80,3542.294897355,N,13943.288656022,E,4,10,1.07,24.400,M,36.996,M,5.8,2107*40
$PMSBATV,033247.80,2,2,4.81662,0.26372,-135.24279,-0.000,0.000,-0.000,-134.22812,0.000*49
$GPGGA,033247.90,3542.294897348,N,13943.288656083,E,4,10,1.07,24.400,M,36.996,M,5.9,2107*47
$PMSBATV,033247.90,2,2,4.81730,0.26873,-135.24604,-0.000,-0.000,-0.000,-134.22812,0.000*67
$GPGGA,033248.00,3542.294897280,N,13943.288656385,E,4,10,1.07,24.400,M,36.996,M,6.0,2107*4B
$PMSBATV,033248.00,2,2,4.81388,0.26582,-135.24469,0.000,0.000,-0.000,-134.22812,0.000*6C
$GPGGA,033248.10,3542.294897233,N,13943.288656419,E,4,10,1.07,24.400,M,36.996,M,1.1,2107*46
$PMSBATV,033248.10,2,2,4.81277,0.26565,-135.23999,-0.000,0.000,0.000,-134.22812,0.000*60
$GPGGA,033248.20,3542.294897041,N,13943.288656439,E,4,10,1.07,24.400,M,36.996,M,1.2,2107*43
$PMSBATV,033248.20,2,2,4.81475,0.27211,-135.24048,0.000,-0.000,-0.000,-134.22812,0.000*4D
$GPGGA,033248.30,3542.294897066,N,13943.288656415,E,4,10,1.07,24.400,M,36.996,M,1.3,2107*48
$PMSBATV,033248.30,2,2,4.81260,0.26724,-135.24364,-0.000,0.000,0.000,-134.22812,0.000*6C
$GPGGA,033248.40,3542.294896864,N,13943.288656397,E,4,10,1.07,24.400,M,36.996,M,1.4,2107*4E
$PMSBATV,033248.40,2,2,4.80913,0.26908,-135.24398,-0.000,-0.000,-0.000,-134.22812,0.000*66
$GPGGA,033248.50,3542.294896784,N,13943.288656518,E,4,10,1.07,24.400,M,36.996,M,1.5,2107*4E
$PMSBATV,033248.50,2,2,4.81077,0.26961,-135.24282,0.000,-0.000,-0.000,-134.22812,0.000*45
$GPGGA,033248.60,3542.294896573,N,13943.288656486,E,4,10,1.07,24.400,M,36.996,M,1.6,2107*42
$PMSBATV,033248.60,2,2,4.80710,0.27442,-135.24278,0.000,0.000,-0.000,-134.22812,0.000*64
$GPGGA,033248.70,3542.294896314,N,13943.288656468,E,4,10,1.07,24.399,M,36.996,M,1.7,2107*42
$PMSBATV,033248.70,2,2,4.80614,0.27477,-135.23803,-0.000,0.000,-0.000,-134.22812,0.000*4A
$GPGGA,033248.80,3542.294896214,N,13943.288656554,E,4,10,1.07,24.399,M,36.996,M,1.8,2107*4D
$PMSBATV,033248.80,2,2,4.81521,0.27636,-135.23945,-0.000,-0.000,0.000,-134.22812,0.000*45
$GPGGA,033248.90,3542.294896125,N,13943.288656755,E,4,10,1.07,24.399,M,36.996,M,1.9,2107*4F
$PMSBATV,033248.90,2,2,4.81830,0.27790,-135.23797,0.000,-0.000,-0.000,-134.22812,0.000*45
$GPGGA,033249.00,3542.294895975,N,13943.288656782,E,4,10,1.07,24.399,M,36.996,M,2.0,2107*49
$PMSBATV,033249.00,2,2,4.82071,0.27552,-135.23894,-0.000,0.000,-0.000,-134.22812,0.000*43
$GPGGA,033249.10,3542.294895740,N,13943.288656980,E,4,10,1.07,24.399,M,36.996,M,2.1,2107*4D
$PMSBATV,033249.10,2,2,4.81523,0.27733,-135.23525,-0.000,0.000,-0.000,-134.22812,0.000*41
$GPGGA,033249.20,3542.294895651,N,13943.288656930,E,4,10,1.07,24.399,M,36.996,M,2.2,2107*47
$PMSBATV,033249.20,2,2,4.81100,0.28227,-135.23872,0.000,0.000,-0.000,-134.22812,0.000*6A
$GPGGA,033249.30,3542.294895536,N,13943.288656967,E,4,10,1.07,24.399,M,36.996,M,2.3,2107*47
$PMSBATV,033249.30,2,2,4.80846,0.28555,-135.23457,-0.000,0.000,-0.000,-134.22812,0.000*45
$GPGGA,033249.40,3542.294895445,N,13943.288657024,E,4,10,1.07,24.399,M,36.996,M,2.4,2107*4D
$PMSBATV,033249.40,2,2,4.81536,0.28261,-135.23352,0.000,-0.000,-0.000,-134.22812,0.000*4B
$GPGGA,033249.50,3542.294895199,N,13943.288657064,E,4,10,1.07,24.398,M,36.996,M,2.5,2107*4C
$PMSBATV,033249.50,2,2,4.81023,0.28002,-135.23321,-0.000,0.000,-0.000,-134.22812,0.000*48
$GPGGA,033249.60,3542.294895231,N,13943.288657158,E,4,10,1.07,24.398,M,36.996,M,2.6,2107*43
$PMSBATV,033249.60,2,2,4.80944,0.28242,-135.23234,0.000,0.000,-0.000,-134.22812,0.000*6C
$GPGGA,033249.70,3542.294894941,N,13943.288657109,E,4,10,1.07,24.398,M,36.996,M,2.7,2107*4A
$PMSBATV,033249.70,2,2,4.81500,0.28384,-135.23197,-0.000,0.000,-0.000,-134.22812,0.000*4C
$GPGGA,033249.80,3542.294894903,N,13943.288657162,E,4,10,1.07,24.398,M,36.996,M,2.8,2107*41
$PMSBATV,033249.80,2,2,4.80753,0.28895,-135.23148,0.000,-0.000,-0.000,-134.22812,0.000*4F
$GPGGA,033249.90,3542.294894835,N,13943.288657275,E,4,10,1.07,24.399,M,36.996,M,2.9,2107*41
$PMSBATV,033249.90,2,2,4.80672,0.29056,-135.23456,0.000,0.000,-0.000,-134.22812,0.000*6D
$GPGGA,033250.00,3542.294894667,N,13943.288657416,E,4,10,1.07,24.398,M,36.996,M,3.0,2107*43
$PMSBATV,033250.00,2,2,4.81094,0.28183,-135.23199,-0.000,-0.000,-0.000,-134.22812,0.000*6D
$GPGGA,033250.10,3542.294894650,N,13943.288657632,E,4,10,1.07,24.398,M,36.996,M,3.1,2107*43
$PMSBATV,033250.10,2,2,4.80878,0.28721,-135.22593,0.000,-0.000,-0.000,-134.22812,0.000*4B
$GPGGA,033250.20,3542.294894637,N,13943.288657909,E,4,10,1.07,24.398,M,36.996,M,3.2,2107*45
$PMSBATV,033250.20,2,2,4.79977,0.28255,-135.22600,-0.000,0.000,0.000,-134.22812,0.000*62
$GPGGA,033250.30,3542.294894443,N,13943.288658104,E,4,10,1.07,24.398,M,36.996,M,3.3,2107*4E
$PMSBATV,033250.30,2,2,4.81377,0.27537,-135.23105,-0.000,-0.000,-0.000,-134.22812,0.000*61
$GPGGA,033250.40,3542.294894344,N,13943.288658245,E,4,10,1.07,24.398,M,36.996,M,3.4,2107*48
$PMSBATV,033250.40,2,2,4.81413,0.28011,-135.22576,0.000,-0.000,0.000,-134.22812,0.000*6C
$GPGGA,033250.50,3542.294894268,N,13943.288658505,E,4,10,1.07,24.398,M,36.996,M,3.5,2107*44
$PMSBATV,033250.50,2,2,4.80962,0.27517,-135.22454,-0.000,0.000,-0.000,-134.22812,0.000*47
$GPGGA,033250.60,3542.294894170,N,13943.288658580,E,4,10,1.07,24.398,M,36.996,M,3.6,2107*43
$PMSBATV,033250.60,2,2,4.81555,0.27203,-135.21985,-0.000,-0.000,-0.000,-134.22812,0.000*60
$GPGGA,033250.70,3542.294894076,N,13943.288658750,E,4,10,1.07,24.397,M,36.996,M,3.7,2107*44
$PMSBATV,033250.70,2,2,4.81261,0.26688,-135.22140,-0.000,-0.000,-0.000,-134.22812,0.000*65
$GPGGA,033250.80,3542.294894010,N,13943.288658886,E,4,10,1.07,24.397,M,36.996,M,3.8,2107*40
$PMSBATV,033250.80,2,2,4.80474,0.26617,-135.21813,0.000,0.000,-0.000,-134.22812,0.000*63
$GPGGA,033250.90,3542.294893914,N,13943.288658911,E,4,10,1.07,24.397,M,36.996,M,3.9,2107*45
$PMSBATV,033250.90,2,2,4.81666,0.27087,-135.21931,-0.001,-0.000,-0.000,-134.22812,0.000*6C
$GPGGA,033251.00,3542.294893937,N,13943.288659270,E,4,10,1.07,24.397,M,36.996,M,4.0,2107*4F
$PMSBATV,033251.00,2,2,4.81121,0.27093,-135.21917,0.000,0.000,-0.000,-134.22812,0.000*60
$GPGGA,033251.10,3542.294893858,N,13943.288659522,E,4,10,1.07,24.397,M,36.996,M,4.1,2107*47
$PMSBATV,033251.10,2,2,4.80287,0.27668,-135.22143,0.000,0.000,-0.000,-134.22812,0.000*67
$GPGGA,033251.20,3542.294893681,N,13943.288659469,E,4,10,1.07,24.397,M,36.996,M,4.2,2107*43
$PMSBATV,033251.20,2,2,4.81080,0.27445,-135.22601,-0.000,-0.000,-0.000,-134.22812,0.000*6C
$GPGGA,033251.30,3542.294893564,N,13943.288659673,E,4,10,1.07,24.397,M,36.996,M,4.3,2107*42
$PMSBATV,033251.30,2,2,4.81062,0.27747,-135.23030,0.000,-0.000,0.000,-134.22812,0.000*65
$GPGGA,033251.40,3542.294893449,N,13943.288659782,E,4,10,1.07,24.397,M,36.996,M,4.4,2107*43
$PMSBATV,033251.40,2,2,4.81556,0.27626,-135.22683,0.000,0.000,0.000,-134.22812,0.000*44
$GPGGA,033251.50,3542.294893318,N,13943.288659959,E,4,10,1.07,24.397,M,36.996,M,4.5,2107*48
$PMSBATV,033251.50,2,2,4.82411,0.27561,-135.22944,0.000,-0.000,-0.000,-134.22812,0.000*40
$GPGGA,033251.60,3542.294893244,N,13943.288660167,E,4,10,1.07,24.397,M,36.996,M,4.6,2107*4F
$PMSBATV,033251.60,2,2,4.82098,0.27760,-135.22441,-0.000,0.000,0.000,-134.22812,0.000*60
$GPGGA,033251.70,3542.294893193,N,13943.288660374,E,4,10,1.07,24.397,M,36.996,M,4.7,2107*46
$PMSBATV,033251.70,2,2,4.81520,0.27754,-135.22094,-0.000,0.000,-0.000,-134.22812,0.000*42
$GPGGA,033251.80,3542.294893204,N,13943.288660569,E,4,10,1.07,24.397,M,36.996,M,4.8,2107*41
$PMSBATV,033251.80,2,2,4.81807,0.27614,-135.21999,0.000,0.000,-0.000,-134.22812,0.000*6A
$GPGGA,033251.90,3542.294893030,N,13943.288660713,E,4,10,1.07,24.397,M,36.996,M,4.9,2107*4B
$PMSBATV,033251.90,2,2,4.82185,0.27464,-135.22408,-0.000,0.000,-0.000,-134.22812,0.000*45
$GPGGA,033252.00,3542.294893013,N,13943.288660872,E,4,10,1.07,24.397,M,36.996,M,5.0,2107*40
$PMSBATV,033252.00,2,2,4.82706,0.27224,-135.22688,-0.000,-0.000,-0.000,-134.22812,0.000*67
$GPGGA,033252.10,3542.294892833,N,13943.288660969,E,4,10,1.07,24.397,M,36.996,M,5.1,2107*40
$PMSBATV,033252.10,2,2,4.82429,0.27180,-135.22667,-0.000,0.000,0.000,-134.22812,0.000*64
$GPGGA,033252.20,3542.294892861,N,13943.288661188,E,4,10,1.07,24.397,M,36.996,M,5.2,2107*41
$PMSBATV,033252.20,2,2,4.82238,0.26977,-135.22817,-0.000,-0.000,0.000,-134.22812,0.000*44
$GPGGA,033252.30,3542.294892761,N,13943.288661393,E,4,10,1.07,24.397,M,36.996,M,5.3,2107*46
$PMSBATV,033252.30,2,2,4.82105,0.26663,-135.22896,0.000,0.000,-0.000,-134.22812,0.000*66
$GPGGA,033252.40,3542.294892500,N,13943.288661376,E,4,10,1.07,24.397,M,36.996,M,5.4,2107*48
$PMSBATV,033252.40,2,2,4.81969,0.26614,-135.23139,0.000,0.000,-0.000,-134.22812,0.000*6D
$GPGGA,033252.50,3542.294892363,N,13943.288661598,E,4,10,1.07,24.397,M,36.996,M,5.5,2107*4D
$PMSBATV,033252.50,2,2,4.81659,0.25807,-135.23334,-0.000,0.000,-0.000,-134.22812,0.000*4D
$GPGGA,033252.60,3542.294892372,N,13943.288661913,E,4,10,1.07,24.397,M,36.996,M,5.6,2107*42
$PMSBATV,033252.60,2,2,4.81277,0.25178,-135.23287,-0.000,0.000,-0.000,-134.22812,0.000*4E
$GPGGA,033252.70,3542.294892160,N,13943.288661942,E,4,10,1.07,24.397,M,36.996,M,5.7,2107*47
$PMSBATV,033252.70,2,2,4.80594,0.25511,-135.22926,0.000,0.000,-0.000,-134.22812,0.000*63
$GPGGA,033252.80,3542.294891944,N,13943.288661927,E,4,10,1.07,24.397,M,36.996,M,5.8,2107*49
$PMSBATV,033252.80,2,2,4.81076,0.25799,-135.22471,-0.000,0.000,-0.000,-134.22812,0.000*44
$GPGGA,033252.90,3542.294891884,N,13943.288662312,E,4,10,1.07,24.397,M,36.996,M,5.9,2107*4B
$PMSBATV,033252.90,2,2,4.81585,0.25625,-135.22608,-0.000,-0.000,-0.000,-134.22812,0.000*6B
$GPGGA,033253.00,3542.294891924,N,13943.288662571,E,4,10,1.07,24.397,M,36.996,M,6.0,2107*41
$PMSBATV,033253.00,2,2,4.82064,0.26133,-135.23049,-0.000,-0.000,0.000,-134.22812,0.000*46
$GPGGA,033253.10,3542.294891728,N,13943.288662687,E,4,10,1.07,24.397,M,36.996,M,1.1,2107*4E
$PMSBATV,033253.10,2,2,4.81100,0.27010,-135.23149,0.000,0.000,-0.000,-134.22812,0.000*6A
$GPGGA,033253.20,3542.294891608,N,13943.288662933,E,4,10,1.07,24.397,M,36.996,M,1.2,2107*4D
$PMSBATV,033253.20,2,2,4.81489,0.27270,-135.23046,0.000,-0.000,-0.000,-134.22812,0.000*4A
$GPGGA,033253.30,3542.294891581,N,13943.288663035,E,4,10,1.07,24.397,M,36.996,M,1.3,2107*41
$PMSBATV,033253.30,2,2,4.81286,0.26855,-135.22847,-0.000,0.000,-0.000,-134.22812,0.000*46
$GPGGA,033253.40,3542.294891514,N,13943.288663188,E,4,10,1.07,24.397,M,36.996,M,1.4,2107*4A
$PMSBATV,033253.40,2,2,4.81538,0.27208,-135.22967,0.000,-0.000,-0.000,-134.22812,0.000*43
$GPGGA,033253.50,3542.294891397,N,13943.288663209,E,4,10,1.07,24.397,M,36.996,M,1.5,2107*4D
$PMSBATV,033253.50,2,2,4.81921,0.26769,-135.23298,-0.001,-0.000,-0.000,-134.22812,0.000*63
$GPGGA,033253.60,3542.294891398,N,13943.288663784,E,4,10,1.07,24.397,M,36.996,M,1.6,2107*42
$PMSBATV,033253.60,2,2,4.81200,0.26256,-135.23535,-0.000,-0.000,-0.000,-134.22812,0.000*60
$GPGGA,033253.70,3542.294891306,N,13943.288663924,E,4,10,1.07,24.397,M,36.996,M,1.7,2107*41
$PMSBATV,033253.70,2,2,4.81450,0.26534,-135.23440,-0.000,-0.000,-0.000,-134.22812,0.000*62
$GPGGA,033253.80,3542.294891362,N,13943.288664127,E,4,10,1.07,24.397,M,36.996,M,1.8,2107*4F
$PMSBATV,033253.80,2,2,4.81984,0.27183,-135.23163,0.000,-0.000,-0.000,-134.22812,0.000*49
$GPGGA,033253.90,3542.294891248,N,13943.288664200,E,4,10,1.07,24.397,M,36.996,M,1.9,2107*40
$PMSBATV,033253.90,2,2,4.81620,0.26535,-135.22778,-0.000,-0.000,-0.000,-134.22812,0.000*61
$GPGGA,033254.00,3542.294891297,N,13943.288664393,E,4,10,1.07,24.397,M,36.996,M,2.0,2107*4D
$PMSBATV,033254.00,2,2,4.81548,0.26580,-135.22650,0.000,0.000,0.000,-134.22812,0.000*4A
$GPGGA,033254.10,3542.294891149,N,13943.288664466,E,4,10,1.07,24.397,M,36.996,M,2.1,2107*40
$PMSBATV,033254.10,2,2,4.81944,0.26860,-135.22878,0.000,-0.000,-0.000,-134.22812,0.000*4C
$GPGGA,033254.20,3542.294891082,N,13943.288664576,E,4,10,1.07,24.397,M,36.996,M,2.2,2107*46
$PMSBATV,033254.20,2,2,4.81592,0.26595,-135.22833,-0.000,0.000,0.000,-134.22812,0.000*6D
$GPGGA,033254.30,3542.294891033,N,13943.288664762,E,4,10,1.07,24.397,M,36.996,M,2.3,2107*4B
$PMSBATV,033254.30,2,2,4.81032,0.26250,-135.22507,-0.000,-0.000,-0.000,-134.22812,0.000*67
$GPGGA,033254.40,3542.294890864,N,13943.288664855,E,4,10,1.07,24.397,M,36.996,M,2.4,2107*4B
$PMSBATV,033254.40,2,2,4.81455,0.26399,-135.22431,0.000,-0.000,-0.000,-134.22812,0.000*48
$GPGGA,033254.50,3542.294890807,N,13943.288664889,E,4,10,1.07,24.397,M,36.996,M,2.5,2107*4F
$PMSBATV,033254.50,2,2,4.81282,0.25952,-135.22384,0.000,-0.000,-0.000,-134.22812,0.000*42
$GPGGA,033254.60,3542.294890802,N,13943.288664895,E,4,10,1.07,24.397,M,36.996,M,2.6,2107*47
$PMSBATV,033254.60,2,2,4.81674,0.25679,-135.22455,-0.001,0.000,-0.000,-134.22812,0.000*40
$GPGGA,033254.70,3542.294890668,N,13943.288664975,E,4,10,1.07,24.397,M,36.996,M,2.7,2107*4A
$PMSBATV,033254.70,2,2,4.81138,0.26367,-135.22271,0.001,0.000,-0.000,-134.22812,0.000*6A
$GPGGA,033254.80,3542.294890517,N,13943.288665018,E,4,10,1.07,24.397,M,36.996,M,2.8,2107*42
$PMSBATV,033254.80,2,2,4.81007,0.26879,-135.22267,0.000,0.000,0.000,-134.22812,0.000*47
$GPGGA,033254.90,3542.294890355,N,13943.288665070,E,4,10,1.07,24.396,M,36.996,M,2.9,2107*4D
$PMSBATV,033254.90,2,2,4.80710,0.27062,-135.22413,-0.001,-0.000,-0.000,-134.22812,0.000*6C
$GPGGA,033255.00,3542.294890314,N,13943.288665089,E,4,10,1.07,24.396,M,36.996,M,3.0,2107*4E
$PMSBATV,033255.00,2,2,4.80310,0.27288,-135.22166,0.000,0.000,0.000,-134.22812,0.000*4D
$GPGGA,033255.10,3542.294890232,N,13943.288665099,E,4,10,1.07,24.396,M,36.996,M,3.1,2107*4A
$PMSBATV,033255.10,2,2,4.80365,0.27697,-135.22676,0.000,0.000,-0.000,-134.22812,0.000*6F
$GPGGA,033255.20,3542.294890243,N,13943.288665375,E,4,10,1.07,24.396,M,36.996,M,3.2,2107*4D
$PMSBATV,033255.20,2,2,4.80791,0.26821,-135.22559,-0.000,0.000,-0.000,-134.22812,0.000*42
$GPGGA,033255.30,3542.294890232,N,13943.288665364,E,4,10,1.07,24.396,M,36.996,M,3.3,2107*4B
$PMSBATV,033255.30,2,2,4.80969,0.26671,-135.22312,0.000,0.000,-0.000,-134.22812,0.000*65
$GPGGA,033255.40,3542.294889937,N,13943.288665473,E,4,10,1.07,24.396,M,36.996,M,3.4,2107*4C
$PMSBATV,033255.40,2,2,4.81286,0.27192,-135.22483,0.000,0.000,-0.000,-134.22812,0.000*6D
$GPGGA,033255.50,3542.294889853,N,13943.288665710,E,4,10,1.07,24.396,M,36.996,M,3.5,2107*49
$PMSBATV,033255.50,2,2,4.81797,0.26576,-135.22142,0.000,-0.000,-0.000,-134.22812,0.000*43
$GPGGA,033255.60,3542.294889767,N,13943.288665857,E,4,10,1.07,24.396,M,36.996,M,3.6,2107*4D
$PMSBATV,033255.60,2,2,4.81763,0.26097,-135.22214,-0.001,-0.000,0.000,-134.22812,0.000*40
$GPGGA,033255.70,3542.294889735,N,13943.288665963,E,4,10,1.07,24.396,M,36.996,M,3.7,2107*4C
$PMSBATV,033255.70,2,2,4.81645,0.26698,-135.22625,0.001,0.000,-0.000,-134.22812,0.000*66
$GPGGA,033255.80,3542.294889711,N,13943.288665941,E,4,10,1.07,24.396,M,36.996,M,3.8,2107*4A
$PMSBATV,033255.80,2,2,4.81981,0.27459,-135.22462,0.000,0.000,0.000,-134.22812,0.000*4D
$GPGGA,033255.90,3542.294889699,N,13943.288665934,E,4,10,1.07,24.396,M,36.996,M,3.9,2107*49
$PMSBATV,033255.90,2,2,4.82049,0.26749,-135.21763,-0.000,-0.000,0.000,-134.22812,0.000*40
$GPGGA,033256.00,3542.294889833,N,13943.288666178,E,4,10,1.07,24.397,M,36.996,M,4.0,2107*41
$PMSBATV,033256.00,2,2,4.82389,0.26701,-135.22291,0.000,-0.000,-0.000,-134.22812,0.000*42
$GPGGA,033256.10,3542.294889681,N,13943.288666240,E,4,10,1.07,24.397,M,36.996,M,4.1,2107*4E
$PMSBATV,033256.10,2,2,4.82212,0.26868,-135.22659,0.000,0.000,0.000,-134.22812,0.000*40
$GPGGA,033256.20,3542.294889673,N,13943.288666229,E,4,10,1.07,24.397,M,36.996,M,4.2,2107*4C
$PMSBATV,033256.20,2,2,4.81140,0.26740,-135.22447,-0.000,0.000,0.000,-134.22812,0.000*61
$GPGGA,033256.30,3542.294889595,N,13943.288666373,E,4,10,1.07,24.397,M,36.996,M,4.3,2107*49
$PMSBATV,033256.30,2,2,4.80781,0.26706,-135.22904,0.000,0.000,-0.000,-134.22812,0.000*62
$GPGGA,033256.40,3542.294889435,N,13943.288666477,E,4,10,1.07,24.397,M,36.996,M,4.4,2107*41
$PMSBATV,033256.40,2,2,4.81179,0.26617,-135.23305,0.000,-0.000,-0.000,-134.22812,0.000*43
$GPGGA,033256.50,3542.294889335,N,13943.288666594,E,4,10,1.07,24.397,M,36.996,M,4.5,2107*4A
$PMSBATV,033256.50,2,2,4.80339,0.26041,-135.23139,-0.000,-0.000,0.000,-134.22812,0.000*4D
$GPGGA,033256.60,3542.294889149,N,13943.288666642,E,4,10,1.07,24.397,M,36.996,M,4.6,2107*4B
$PMSBATV,033256.60,2,2,4.80569,0.26109,-135.23009,0.000,-0.000,-0.000,-134.22812,0.000*42
$GPGGA,033256.70,3542.294889073,N,13943.288666865,E,4,10,1.07,24.397,M,36.996,M,4.7,2107*48
$PMSBATV,033256.70,2,2,4.81774,0.25951,-135.23041,-0.000,-0.000,-0.000,-134.22812,0.000*6B
$GPGGA,033256.80,3542.294888996,N,13943.288666898,E,4,10,1.07,24.397,M,36.996,M,4.8,2107*49
$PMSBATV,033256.80,2,2,4.81008,0.25715,-135.23134,-0.000,0.000,-0.000,-134.22812,0.000*48
$GPGGA,033256.90,3542.294888995,N,13943.288667080,E,4,10,1.07,24.397,M,36.996,M,4.9,2107*4A
$PMSBATV,033256.90,2,2,4.80341,0.26059,-135.22974,0.000,0.000,0.000,-134.22812,0.000*47
$GPGGA,033257.00,3542.294888976,N,13943.288667067,E,4,10,1.07,24.397,M,36.996,M,5.0,2107*4E
$PMSBATV,033257.00,2,2,4.80965,0.26022,-135.23179,-0.000,-0.000,-0.000,-134.22812,0.000*66
$GPGGA,033257.10,3542.294888906,N,13943.288667235,E,4,10,1.07,24.397,M,36.996,M,5.1,2107*4C
$PMSBATV,033257.10,2,2,4.80338,0.26116,-135.22589,0.000,-0.000,0.000,-134.22812,0.000*69
$GPGGA,033257.20,3542.294888744,N,13943.288667370,E,4,10,1.07,24.397,M,36.996,M,5.2,2107*44
$PMSBATV,033257.20,2,2,4.80361,0.25710,-135.22480,0.000,0.000,-0.000,-134.22812,0.000*6D
$GPGGA,033257.30,3542.294888588,N,13943.288667457,E,4,10,1.07,24.397,M,36.996,M,5.3,2107*44
$PMSBATV,033257.30,2,2,4.80632,0.25214,-135.22214,-0.000,-0.000,-0.000,-134.22812,0.000*65
$GPGGA,033257.40,3542.294888460,N,13943.288667677,E,4,10,1.07,24.397,M,36.996,M,5.4,2107*43
$PMSBATV,033257.40,2,2,4.80566,0.25337,-135.22106,-0.000,-0.000,0.000,-134.22812,0.000*4D
$GPGGA,033257.50,3542.294888462,N,13943.288667824,E,4,10,1.07,24.397,M,36.996,M,5.5,2107*49
$PMSBATV,033257.50,2,2,4.80789,0.25759,-135.21624,-0.000,0.000,0.000,-134.22812,0.000*6A
$GPGGA,033257.60,3542.294888408,N,13943.288667973,E,4,10,1.07,24.397,M,36.996,M,5.6,2107*46
$PMSBATV,033257.60,2,2,4.80888,0.25770,-135.21698,0.000,-0.000,-0.000,-134.22812,0.000*46
$GPGGA,033257.70,3542.294888267,N,13943.288668086,E,4,10,1.07,24.397,M,36.996,M,5.7,2107*45
$PMSBATV,033257.70,2,2,4.80327,0.26182,-135.21634,0.000,-0.000,-0.000,-134.22812,0.000*47
$GPGGA,033257.80,3542.294888184,N,13943.288668290,E,4,10,1.07,24.397,M,36.996,M,5.8,2107*4E
$PMSBATV,033257.80,2,2,4.80063,0.25878,-135.21736,-0.000,-0.000,-0.000,-134.22812,0.000*6A
$GPGGA,033257.90,3542.294888102,N,13943.288668458,E,4,10,1.07,24.397,M,36.996,M,5.9,2107*42
$PMSBATV,033257.90,2,2,4.80247,0.26149,-135.21440,0.000,0.000,-0.000,-134.22812,0.000*65
$GPGGA,033258.00,3542.294888008,N,13943.288668571,E,4,10,1.07,24.398,M,36.996,M,6.0,2107*40
$PMSBATV,033258.00,2,2,4.81295,0.26051,-135.22011,0.000,-0.000,-0.000,-134.22812,0.000*4B
$GPGGA,033258.10,3542.294887996,N,13943.288668559,E,4,10,1.07,24.398,M,36.996,M,1.1,2107*4C
$PMSBATV,033258.10,2,2,4.81292,0.26270,-135.21954,-0.000,0.000,0.000,-134.22812,0.000*6A
$GPGGA,033258.20,3542.294887983,N,13943.288668541,E,4,10,1.07,24.398,M,36.996,M,1.2,2107*41
$PMSBATV,033258.20,2,2,4.80718,0.26082,-135.21801,0.000,0.000,-0.000,-134.22812,0.000*61
$GPGGA,033258.30,3542.294887845,N,13943.288668613,E,4,10,1.07,24.398,M,36.996,M,1.3,2107*4E
$PMSBATV,033258.30,2,2,4.81100,0.26269,-135.21565,-0.000,-0.000,-0.000,-134.22812,0.000*66
$GPGGA,033258.40,3542.294887735,N,13943.288668681,E,4,10,1.07,24.398,M,36.996,M,1.4,2107*4D
$PMSBATV,033258.40,2,2,4.81614,0.25676,-135.22086,-0.000,-0.000,0.000,-134.22812,0.000*4C
$GPGGA,033258.50,3542.294887631,N,13943.288668798,E,4,10,1.07,24.398,M,36.996,M,1.5,2107*41
$PMSBATV,033258.50,2,2,4.81301,0.25982,-135.22192,0.000,-0.000,0.000,-134.22812,0.000*61
$GPGGA,033258.60,3542.294887496,N,13943.288668849,E,4,10,1.07,24.398,M,36.996,M,1.6,2107*4D
$PMSBATV,033258.60,2,2,4.82234,0.25955,-135.21634,0.000,-0.000,-0.000,-134.22812,0.000*49
$GPGGA,033258.70,3542.294887392,N,13943.288668812,E,4,10,1.07,24.398,M,36.996,M,1.7,2107*40
$PMSBATV,033258.70,2,2,4.82361,0.25503,-135.21564,-0.000,0.000,-0.000,-134.22812,0.000*40
$GPGGA,033258.80,3542.294887424,N,13943.288668941,E,4,10,1.07,24.398,M,36.996,M,1.8,2107*4D
$PMSBATV,033258.80,2,2,4.81349,0.25695,-135.21588,0.000,0.000,-0.000,-134.22812,0.000*65
$GPGGA,033258.90,3542.294887403,N,13943.288668918,E,4,10,1.07,24.398,M,36.996,M,1.9,2107*44
$PMSBATV,033258.90,2,2,4.81183,0.26193,-135.21561,0.000,-0.000,-0.000,-134.22812,0.000*48
$GPGGA,033259.00,3542.294887327,N,13943.288669023,E,4,10,1.07,24.398,M,36.996,M,2.0,2107*47
$PMSBATV,033259.00,2,2,4.81322,0.25821,-135.21593,-0.000,-0.000,0.000,-134.22812,0.000*47
$GPGGA,033259.10,3542.294887306,N,13943.288669166,E,4,10,1.07,24.398,M,36.996,M,2.1,2107*44
$PMSBATV,033259.10,2,2,4.81270,0.25865,-135.21442,-0.000,-0.000,0.000,-134.22812,0.000*4D
$GPGGA,033259.20,3542.294887210,N,13943.288669133,E,4,10,1.07,24.398,M,36.996,M,2.2,2107*42
$PMSBATV,033259.20,2,2,4.81142,0.26417,-135.21409,0.000,0.000,0.000,-134.22812,0.000*49
$GPGGA,033259.30,3542.294887106,N,13943.288669144,E,4,10,1.07,24.398,M,36.996,M,2.3,2107*46
$PMSBATV,033259.30,2,2,4.81831,0.26235,-135.21301,-0.000,-0.000,-0.000,-134.22812,0.000*61
$GPGGA,033259.40,3542.294887104,N,13943.288669202,E,4,10,1.07,24.398,M,36.996,M,2.4,2107*45
$PMSBATV,033259.40,2,2,4.81472,0.26025,-135.20814,-0.000,0.000,0.000,-134.22812,0.000*60
$GPGGA,033259.50,3542.294887085,N,13943.288669107,E,4,10,1.07,24.398,M,36.996,M,2.5,2107*4B
$PMSBATV,033259.50,2,2,4.80999,0.26330,-135.20686,0.000,-0.000,0.000,-134.22812,0.000*6A
$GPGGA,033259.60,3542.294886988,N,13943.288669184,E,4,10,1.07,24.398,M,36.996,M,2.6,2107*45
$PMSBATV,033259.60,2,2,4.80660,0.26425,-135.20734,-0.000,0.000,-0.000,-134.22812,0.000*46
$GPGGA,033259.70,3542.294887010,N,13943.288669266,E,4,10,1.07,24.398,M,36.996,M,2.7,2107*43
$PMSBATV,033259.70,2,2,4.80304,0.25969,-135.20734,-0.000,-0.000,0.000,-134.22812,0.000*46
$GPGGA,033259.80,3542.294886934,N,13943.288669392,E,4,10,1.07,24.398,M,36.996,M,2.8,2107*47
$PMSBATV,033259.80,2,2,4.80556,0.26023,-135.20676,-0.000,-0.000,-0.000,-134.22812,0.000*66
$GPGGA,033259.90,3542.294886915,N,13943.288669377,E,4,10,1.07,24.398,M,36.996,M,2.9,2107*4F
$PMSBATV,033259.90,2,2,4.80703,0.26021,-135.20726,0.000,-0.000,-0.000,-134.22812,0.000*4E
$GPGGA,033300.00,3542.294886900,N,13943.288669366,E,4,10,1.07,24.398,M,36.996,M,3.0,2107*47
$PMSBATV,033300.00,2,2,4.80818,0.26354,-135.21188,-0.000,0.000,0.000,-134.22812,0.000*60
$GPGGA,033300.10,3542.294886764,N,13943.288669458,E,4,10,1.07,24.398,M,36.996,M,3.1,2107*41
$PMSBATV,033300.10,2,2,4.80960,0.26923,-135.20859,0.000,0.000,-0.000,-134.22812,0.000*61
$GPGGA,033300.20,3542.294886740,N,13943.288669542,E,4,10,1.07,24.398,M,36.996,M,3.2,2107*4D
$PMSBATV,033300.20,2,2,4.81181,0.26841,-135.20809,-0.000,-0.000,-0.000,-134.22812,0.000*64
$GPGGA,033300.30,3542.294886761,N,13943.288669674,E,4,10,1.07,24.398,M,36.996,M,3.3,2107*48
$PMSBATV,033300.30,2,2,4.81179,0.26396,-135.21030,-0.000,-0.000,-0.000,-134.22812,0.000*60
$GPGGA,033300.40,3542.294886684,N,13943.288669843,E,4,10,1.07,24.398,M,36.996,M,3.4,2107*48
$PMSBATV,033300.40,2,2,4.81006,0.26374,-135.20995,0.000,0.000,-0.000,-134.22812,0.000*65
$GPGGA,033300.50,3542.294886634,N,13943.288670000,E,4,10,1.07,24.399,M,36.996,M,3.5,2107*45
$PMSBATV,033300.50,2,2,4.80864,0.25843,-135.21033,-0.000,0.000,0.000,-134.22812,0.000*61
$GPGGA,033300.60,3542.294886610,N,13943.288670068,E,4,10,1.07,24.399,M,36.996,M,3.6,2107*4D
$PMSBATV,033300.60,2,2,4.80635,0.25695,-135.21024,-0.000,-0.000,-0.000,-134.22812,0.000*6B
$GPGGA,033300.70,3542.294886614,N,13943.288670273,E,4,10,1.07,24.399,M,36.996,M,3.7,2107*41
$PMSBATV,033300.70,2,2,4.80228,0.25748,-135.21447,0.000,0.000,0.000,-134.22812,0.000*4F
$GPGGA,033300.80,3542.294886566,N,13943.288670266,E,4,10,1.07,24.399,M,36.996,M,3.8,2107*43
$PMSBATV,033300.80,2,2,4.80272,0.25420,-135.21940,-0.000,-0.000,-0.000,-134.22812,0.000*65
$GPGGA,033300.90,3542.294886439,N,13943.288670612,E,4,10,1.07,24.399,M,36.996,M,3.9,2107*4F
$PMSBATV,033300.90,2,2,4.80075,0.25437,-135.22520,0.000,0.000,0.000,-134.22812,0.000*43
$GPGGA,033301.00,3542.294886447,N,13943.288670575,E,4,10,1.07,24.399,M,36.996,M,4.0,2107*42
$PMSBATV,033301.00,2,2,4.80519,0.25768,-135.22067,0.000,-0.000,-0.000,-134.22812,0.000*4B
$GPGGA,033301.10,3542.294886388,N,13943.288670726,E,4,10,1.07,24.399,M,36.996,M,4.1,2107*42
$PMSBATV,033301.10,2,2,4.80199,0.25968,-135.22134,-0.000,0.000,-0.000,-134.22812,0.000*4F
$GPGGA,033301.20,3542.294886345,N,13943.288670880,E,4,10,1.07,24.399,M,36.996,M,4.2,2107*40
$PMSBATV,033301.20,2,2,4.80203,0.25711,-135.22616,-0.000,-0.000,-0.000,-134.22812,0.000*66
$GPGGA,033301.30,3542.294886227,N,13943.288671110,E,4,10,1.07,24.399,M,36.996,M,4.3,2107*44
$PMSBATV,033301.30,2,2,4.79926,0.25934,-135.21843,0.000,-0.000,-0.000,-134.22812,0.000*44
$GPGGA,033301.40,3542.294886202,N,13943.288671227,E,4,10,1.07,24.399,M,36.996,M,4.4,2107*44
$PMSBATV,033301.40,2,2,4.79921,0.25323,-135.21804,-0.000,-0.000,-0.000,-134.22812,0.000*66
$GPGGA,033301.50,3542.294886157,N,13943.288671356,E,4,10,1.07,24.399,M,36.996,M,4.5,2107*40
$PMSBATV,033301.50,2,2,4.79960,0.25148,-135.21888,-0.000,0.000,-0.000,-134.22812,0.000*44
$GPGGA,033301.60,3542.294886087,N,13943.288671417,E,4,10,1.07,24.399,M,36.996,M,4.6,2107*4E
$PMSBATV,033301.60,2,2,4.80377,0.25568,-135.21459,0.000,0.000,-0.000,-134.22812,0.000*66
$GPGGA,033301.70,3542.294885981,N,13943.288671719,E,4,10,1.07,24.399,M,36.996,M,4.7,2107*4F
$PMSBATV,033301.70,2,2,4.80796,0.25167,-135.21349,-0.000,0.000,0.000,-134.22812,0.000*61
$GPGGA,033301.80,3542.294885907,N,13943.288671911,E,4,10,1.07,24.399,M,36.996,M,4.8,2107*47
$PMSBATV,033301.80,2,2,4.81888,0.24705,-135.21195,0.000,-0.000,-0.000,-134.22812,0.000*42
$GPGGA,033301.90,3542.294885816,N,13943.288672015,E,4,10,1.07,24.399,M,36.996,M,4.9,2107*48
$PMSBATV,033301.90,2,2,4.81003,0.24880,-135.20909,0.000,0.000,0.000,-134.22812,0.000*46
$GPGGA,033302.00,3542.294885839,N,13943.288672315,E,4,10,1.07,24.399,M,36.996,M,5.0,2107*44
$PMSBATV,033302.00,2,2,4.81301,0.25295,-135.20532,0.000,0.000,-0.000,-134.22812,0.000*6B
$GPGGA,033302.10,3542.294885772,N,13943.288672511,E,4,10,1.07,24.399,M,36.996,M,5.1,2107*46
$PMSBATV,033302.10,2,2,4.81464,0.25666,-135.21043,0.000,-0.000,-0.000,-134.22812,0.000*49
$GPGGA,033302.20,3542.294885808,N,13943.288672715,E,4,10,1.07,24.399,M,36.996,M,5.2,2107*42
$PMSBATV,033302.20,2,2,4.81317,0.26204,-135.21012,-0.000,0.000,0.000,-134.22812,0.000*63
$GPGGA,033302.30,3542.294885788,N,13943.288672692,E,4,10,1.07,24.399,M,36.996,M,5.3,2107*4B
$PMSBATV,033302.30,2,2,4.81521,0.26608,-135.20837,0.000,0.000,-0.000,-134.22812,0.000*67
$GPGGA,033302.40,3542.294885727,N,13943.288672853,E,4,10,1.07,24.399,M,36.996,M,5.4,2107*4D
$PMSBATV,033302.40,2,2,4.81641,0.26671,-135.20644,-0.000,0.000,-0.000,-134.22812,0.000*4C
$GPGGA,033302.50,3542.294885675,N,13943.288673120,E,4,10,1.07,24.400,M,36.996,M,5.5,2107*40
$PMSBATV,033302.50,2,2,4.80845,0.26629,-135.20664,0.000,0.000,-0.000,-134.22812,0.000*64
$GPGGA,033302.60,3542.294885662,N,13943.288673400,E,4,10,1.07,24.400,M,36.996,M,5.6,2107*41
$PMSBATV,033302.60,2,2,4.80565,0.27044,-135.21388,0.000,-0.000,0.000,-134.22812,0.000*62
$GPGGA,033302.70,3542.294885645,N,13943.288673582,E,4,10,1.07,24.400,M,36.996,M,5.7,2107*4F
$PMSBATV,033302.70,2,2,4.80743,0.26741,-135.21773,-0.000,-0.000,-0.000,-134.22812,0.000*66
$GPGGA,033302.80,3542.294885645,N,13943.288673897,E,4,10,1.07,24.400,M,36.996,M,5.8,2107*46
$PMSBATV,033302.80,2,2,4.80552,0.27013,-135.21783,-0.000,0.000,-0.000,-134.22812,0.000*48
$GPGGA,033302.90,3542.294885697,N,13943.288674032,E,4,10,1.07,24.400,M,36.996,M,5.9,2107*49
$PMSBATV,033302.90,2,2,4.80421,0.27067,-135.21326,-0.000,-0.000,0.000,-134.22812,0.000*44
$GPGGA,033303.00,3542.294885647,N,13943.288674173,E,4,10,1.07,24.400,M,36.996,M,6.0,2107*42
$PMSBATV,033303.00,2,2,4.80360,0.26960,-135.21278,-0.000,-0.000,-0.000,-134.22812,0.000*66
$GPGGA,033303.10,3542.294885637,N,13943.288674300,E,4,10,1.07,24.400,M,36.996,M,1.1,2107*44
$PMSBATV,033303.10,2,2,4.80708,0.26628,-135.21241,-0.000,-0.000,-0.000,-134.22812,0.000*64
$GPGGA,033303.20,3542.294885588,N,13943.288674490,E,4,10,1.07,24.400,M,36.996,M,1.2,2107*4D
$PMSBATV,033303.20,2,2,4.80749,0.26525,-135.21066,-0.000,0.000,0.000,-134.22812,0.000*6B
$GPGGA,033303.30,3542.294885568,N,13943.288674645,E,4,10,1.07,24.400,M,36.996,M,1.3,2107*49
$PMSBATV,033303.30,2,2,4.80257,0.26339,-135.21312,-0.000,0.000,-0.000,-134.22812,0.000*46
$GPGGA,033303.40,3542.294885610,N,13943.288674758,E,4,10,1.07,24.400,M,36.996,M,1.4,2107*48
$PMSBATV,033303.40,2,2,4.80655,0.26510,-135.21548,0.000,-0.000,0.000,-134.22812,0.000*6E
$GPGGA,033303.50,3542.294885637,N,13943.288674780,E,4,10,1.07,24.400,M,36.996,M,1.5,2107*48
$PMSBATV,033303.50,2,2,4.80670,0.26980,-135.21591,0.000,-0.000,-0.000,-134.22812,0.000*44
$GPGGA,033303.60,3542.294885634,N,13943.288674952,E,4,10,1.07,24.400,M,36.996,M,1.6,2107*4A
$PMSBATV,033303.60,2,2,4.80135,0.26945,-135.21814,0.000,0.000,-0.000,-134.22812,0.000*65
$GPGGA,033303.70,3542.294885578,N,13943.288675031,E,4,10,1.07,24.400,M,36.996,M,1.7,2107*4C
$PMSBATV,033303.70,2,2,4.81010,0.26840,-135.21862,-0.000,-0.000,-0.000,-134.22812,0.000*66
$GPGGA,033303.80,3542.294885623,N,13943.288675062,E,4,10,1.07,24.400,M,36.996,M,1.8,2107*47
$PMSBATV,033303.80,2,2,4.81384,0.25915,-135.21789,-0.000,-0.000,-0.000,-134.22812,0.000*6F
$GPGGA,033303.90,3542.294885563,N,13943.288675149,E,4,10,1.07,24.400,M,36.996,M,1.9,2107*48
$PMSBATV,033303.90,2,2,4.81125,0.26643,-135.21519,0.000,0.000,0.000,-134.22812,0.000*4E
$GPGGA,033304.00,3542.294885561,N,13943.288675112,E,4,10,1.07,24.400,M,36.996,M,2.0,2107*40
$PMSBATV,033304.00,2,2,4.81358,0.26349,-135.21821,-0.000,0.000,-0.000,-134.22812,0.000*41
$GPGGA,033304.10,3542.294885552,N,13943.288675054,E,4,10,1.07,24.400,M,36.996,M,2.1,2107*43
$PMSBATV,033304.10,2,2,4.81595,0.25609,-135.21884,-0.000,-0.000,-0.000,-134.22812,0.000*67
$GPGGA,033304.20,3542.294885533,N,13943.288675288,E,4,10,1.07,24.400,M,36.996,M,2.2,2107*47
$PMSBATV,033304.20,2,2,4.80551,0.25372,-135.21860,0.000,0.000,0.000,-134.22812,0.000*43
$GPGGA,033304.30,3542.294885523,N,13943.288675170,E,4,10,1.07,24.400,M,36.996,M,2.3,2107*42
$PMSBATV,033304.30,2,2,4.81203,0.25310,-135.22210,-0.000,0.000,-0.000,-134.22812,0.000*49
$GPGGA,033304.40,3542.294885509,N,13943.288675187,E,4,10,1.07,24.400,M,36.996,M,2.4,2107*42
$PMSBATV,033304.40,2,2,4.80568,0.24903,-135.22388,-0.000,0.000,0.000,-134.22812,0.000*61
$GPGGA,033304.50,3542.294885501,N,13943.288675267,E,4,10,1.07,24.400,M,36.996,M,2.5,2107*47
$PMSBATV,033304.50,2,2,4.80533,0.25402,-135.22513,0.000,-0.000,0.000,-134.22812,0.000*67
$GPGGA,033304.60,3542.294885503,N,13943.288675174,E,4,10,1.07,24.400,M,36.996,M,2.6,2107*44
$PMSBATV,033304.60,2,2,4.80668,0.25685,-135.22320,-0.000,-0.000,0.000,-134.22812,0.000*4F
$GPGGA,033304.70,3542.294885519,N,13943.288675335,E,4,10,1.07,24.400,M,36.996,M,2.7,2107*48
$PMSBATV,033304.70,2,2,4.80469,0.24956,-135.22736,-0.001,-0.000,0.000,-134.22812,0.000*4F
$GPGGA,033304.80,3542.294885525,N,13943.288675259,E,4,10,1.07,24.400,M,36.996,M,2.8,2107*4C
$PMSBATV,033304.80,2,2,4.80723,0.24968,-135.22473,0.000,-0.000,-0.000,-134.22812,0.000*43
$GPGGA,033304.90,3542.294885486,N,13943.288675286,E,4,10,1.07,24.400,M,36.996,M,2.9,2107*46
$PMSBATV,033304.90,2,2,4.81331,0.24947,-135.23016,0.000,0.000,-0.000,-134.22812,0.000*62
$GPGGA,033305.00,3542.294885369,N,13943.288675403,E,4,10,1.07,24.400,M,36.996,M,3.0,2107*4B
$PMSBATV,033305.00,2,2,4.80838,0.24917,-135.22707,-0.000,0.000,-0.000,-134.22812,0.000*47
$GPGGA,033305.10,3542.294885376,N,13943.288675356,E,4,10,1.07,24.400,M,36.996,M,3.1,2107*42
$PMSBATV,033305.10,2,2,4.81336,0.25038,-135.22609,0.000,-0.000,-0.000,-134.22812,0.000*48
$GPGGA,033305.20,3542.294885375,N,13943.288675212,E,4,10,1.07,24.400,M,36.996,M,3.2,2107*40
$PMSBATV,033305.20,2,2,4.81178,0.25305,-135.22296,0.000,0.000,-0.000,-134.22812,0.000*61
$GPGGA,033305.30,3542.294885290,N,13943.288675267,E,4,10,1.07,24.400,M,36.996,M,3.3,2107*48
$PMSBATV,033305.30,2,2,4.81087,0.25375,-135.22275,-0.000,0.000,0.000,-134.22812,0.000*6B
$GPGGA,033305.40,3542.294885380,N,13943.288675455,E,4,10,1.07,24.400,M,36.996,M,3.4,2107*4F
$PMSBATV,033305.40,2,2,4.80895,0.25995,-135.22245,0.000,0.000,-0.000,-134.22812,0.000*61
$GPGGA,033305.50,3542.294885360,N,13943.288675437,E,4,10,1.07,24.400,M,36.996,M,3.5,2107*45
$PMSBATV,033305.50,2,2,4.80557,0.26392,-135.22829,0.000,0.000,-0.000,-134.22812,0.000*6D
$GPGGA,033305.60,3542.294885341,N,13943.288675423,E,4,10,1.07,24.400,M,36.996,M,3.6,2107*43
$PMSBATV,033305.60,2,2,4.80407,0.26097,-135.22663,0.000,0.000,-0.000,-134.22812,0.000*6C
$GPGGA,033305.70,3542.294885336,N,13943.288675487,E,4,10,1.07,24.400,M,36.996,M,3.7,2107*4D
$PMSBATV,033305.70,2,2,4.80069,0.26032,-135.23163,-0.000,0.000,0.000,-134.22812,0.000*68
$GPGGA,033305.80,3542.294885402,N,13943.288675422,E,4,10,1.07,24.400,M,36.996,M,3.8,2107*42
$PMSBATV,033305.80,2,2,4.79718,0.25780,-135.22611,-0.000,0.000,-0.000,-134.22812,0.000*43
$GPGGA,033305.90,3542.294885337,N,13943.288675535,E,4,10,1.07,24.400,M,36.996,M,3.9,2107*44
$PMSBATV,033305.90,2,2,4.79708,0.25480,-135.22534,-0.000,-0.000,-0.000,-134.22812,0.000*69
$GPGGA,033306.00,3542.294885405,N,13943.288675514,E,4,10,1.07,24.400,M,36.996,M,4.0,2107*45
$PMSBATV,033306.00,2,2,4.80024,0.26267,-135.22348,0.000,-0.000,-0.000,-134.22812,0.000*40
$GPGGA,033306.10,3542.294885395,N,13943.288675551,E,4,10,1.07,24.400,M,36.996,M,4.1,2107*4A
$PMSBATV,033306.10,2,2,4.80582,0.26395,-135.22738,-0.000,-0.000,-0.000,-134.22812,0.000*6A
$GPGGA,033306.20,3542.294885439,N,13943.288675591,E,4,10,1.07,24.400,M,36.996,M,4.2,2107*47
$PMSBATV,033306.20,2,2,4.80642,0.26082,-135.22212,-0.000,-0.000,-0.000,-134.22812,0.000*6E
$GPGGA,033306.30,3542.294885357,N,13943.288675636,E,4,10,1.07,24.400,M,36.996,M,4.3,2107*46
$PMSBATV,033306.30,2,2,4.80980,0.25746,-135.22210,-0.001,-0.000,-0.000,-134.22812,0.000*61
$GPGGA,033306.40,3542.294885364,N,13943.288675805,E,4,10,1.07,24.400,M,36.996,M,4.4,2107*48
$PMSBATV,033306.40,2,2,4.81308,0.25676,-135.21842,0.000,-0.000,0.000,-134.22812,0.000*60
$GPGGA,033306.50,3542.294885368,N,13943.288675768,E,4,10,1.07,24.400,M,36.996,M,4.5,2107*40
$PMSBATV,033306.50,2,2,4.81290,0.25475,-135.22053,0.000,-0.000,-0.000,-134.22812,0.000*46
$GPGGA,033306.60,3542.294885367,N,13943.288675769,E,4,10,1.07,24.400,M,36.996,M,4.6,2107*4E
$PMSBATV,033306.60,2,2,4.81582,0.24958,-135.21932,-0.000,-0.000,-0.000,-134.22812,0.000*62
$GPGGA,033306.70,3542.294885358,N,13943.288675816,E,4,10,1.07,24.400,M,36.996,M,4.7,2107*45
$PMSBATV,033306.70,2,2,4.81511,0.24875,-135.22047,-0.000,-0.000,0.000,-134.22812,0.000*42
$GPGGA,033306.80,3542.294885399,N,13943.288675785,E,4,10,1.07,24.400,M,36.996,M,4.8,2107*4D
$PMSBATV,033306.80,2,2,4.80849,0.24802,-135.21772,0.000,-0.000,-0.000,-134.22812,0.000*4E
$GPGGA,033306.90,3542.294885345,N,13943.288675685,E,4,10,1.07,24.400,M,36.996,M,4.9,2107*4D
$PMSBATV,033306.90,2,2,4.80927,0.24998,-135.21897,0.000,0.000,-0.000,-134.22812,0.000*6D
$GPGGA,033307.00,3542.294885327,N,13943.288675667,E,4,10,1.07,24.400,M,36.996,M,5.0,2107*45
$PMSBATV,033307.00,2,2,4.80858,0.25299,-135.21277,0.000,-0.000,-0.000,-134.22812,0.000*4E
$GPGGA,033307.10,3542.294885356,N,13943.288675829,E,4,10,1.07,24.400,M,36.996,M,5.1,2107*47
$PMSBATV,033307.10,2,2,4.81183,0.25214,-135.21318,-0.000,0.000,-0.000,-134.22812,0.000*4C
$GPGGA,033307.20,3542.294885320,N,13943.288675871,E,4,10,1.07,24.400,M,36.996,M,5.2,2107*4B
$PMSBATV,033307.20,2,2,4.81271,0.25073,-135.21697,-0.000,-0.000,0.000,-134.22812,0.000*40
$GPGGA,033307.30,3542.294885303,N,13943.288675888,E,4,10,1.07,24.400,M,36.996,M,5.3,2107*4C
$PMSBATV,033307.30,2,2,4.81500,0.25364,-135.21894,0.000,-0.000,0.000,-134.22812,0.000*65
$GPGGA,033307.40,3542.294885273,N,13943.288675934,E,4,10,1.07,24.400,M,36.996,M,5.4,2107*4C
$PMSBATV,033307.40,2,2,4.82042,0.25435,-135.21911,-0.000,-0.000,-0.000,-134.22812,0.000*6D
