$GPGGA,014914.50,3427.666845573,N,13630.983058669,E,4,14,0.85,103.574,M,39.209,M,2.5,2006*78
$PMSBATV,014914.50,2,2,0.40028,0.28486,36.68780,-0.000,0.001,-0.000,-146.58736,0.000*5B
$GPGGA,014914.60,3427.666845598,N,13630.983058436,E,4,14,0.85,103.574,M,39.209,M,2.6,2006*75
$PMSBATV,014914.60,2,2,0.36077,0.28121,36.68188,0.000,0.000,-0.002,-146.58736,0.000*7B
$GPGGA,014914.70,3427.666845387,N,13630.983058944,E,4,14,0.85,103.574,M,39.209,M,2.7,2006*75
$PMSBATV,014914.70,2,2,0.41066,0.27490,36.68864,0.000,0.001,0.001,-146.58736,0.000*5E
$GPGGA,014914.80,3427.666845743,N,13630.983058340,E,4,14,0.85,103.574,M,39.209,M,2.8,2006*77
$PMSBATV,014914.80,2,2,0.37671,0.27779,36.68467,0.000,0.000,0.001,-146.58736,0.000*5A
$GPGGA,014914.90,3427.666845528,N,13630.983058714,E,4,14,0.85,103.575,M,39.209,M,2.9,2006*7C
$PMSBATV,014914.90,2,2,0.34962,0.24978,36.68162,0.000,0.001,-0.001,-146.58736,0.000*75
$GPGGA,014915.00,3427.666844937,N,13630.983058805,E,4,14,0.85,103.575,M,39.209,M,3.0,2006*70
$PMSBATV,014915.00,2,2,0.33530,0.21780,36.67797,0.000,0.000,-0.002,-146.58736,0.000*7C
$GPGGA,014915.10,3427.666844564,N,13630.983058673,E,4,14,0.85,103.576,M,39.209,M,3.1,2006*76
$PMSBATV,014915.10,2,2,0.34366,0.22053,36.68141,0.001,-0.000,0.001,-146.58736,0.000*75
$GPGGA,014915.20,3427.666844744,N,13630.983058606,E,4,14,0.85,103.576,M,39.209,M,3.2,2006*74
$PMSBATV,014915.20,2,2,0.34214,0.22014,36.68045,0.000,0.001,0.000,-146.58736,0.000*58
$GPGGA,014915.30,3427.666844718,N,13630.983058620,E,4,14,0.85,103.576,M,39.209,M,3.3,2006*79
$PMSBATV,014915.30,2,2,0.38911,0.19437,36.68467,0.000,0.000,0.001,-146.58736,0.000*52
$GPGGA,014915.40,3427.666844863,N,13630.983057887,E,4,14,0.85,103.576,M,39.209,M,3.4,2006*76
$PMSBATV,014915.40,2,2,0.36500,0.16431,36.68374,0.000,0.001,-0.001,-146.58736,0.000*77
$GPGGA,014915.50,3427.666844254,N,13630.983057801,E,4,14,0.85,103.577,M,39.209,M,3.5,2006*77
$PMSBATV,014915.50,2,2,0.39262,0.17504,36.68421,0.000,0.001,-0.001,-146.58736,0.000*7B
$GPGGA,014915.60,3427.666844737,N,13630.983057554,E,4,14,0.85,103.577,M,39.209,M,3.6,2006*7A
$PMSBATV,014915.60,2,2,0.37764,0.19142,36.68298,0.000,0.001,-0.000,-146.58736,0.000*78
$GPGGA,014915.70,3427.666844679,N,13630.983057925,E,4,14,0.85,103.577,M,39.209,M,3.7,2006*7B
$PMSBATV,014915.70,2,2,0.38368,0.16807,36.68392,0.000,0.000,0.002,-146.58736,0.000*5C
$GPGGA,014915.80,3427.666844582,N,13630.983057718,E,4,14,0.85,103.578,M,39.209,M,3.8,2006*73
$PMSBATV,014915.80,2,2,0.38278,0.18115,36.68170,0.000,0.001,0.000,-146.58736,0.000*5A
$GPGGA,014915.90,3427.666844784,N,13630.983057725,E,4,14,0.85,103.577,M,39.209,M,3.9,2006*76
$PMSBATV,014915.90,2,2,0.35746,0.17977,36.68157,0.001,-0.000,0.000,-146.58736,0.000*75
$GPGGA,014916.00,3427.666844486,N,13630.983058049,E,4,14,0.85,103.577,M,39.209,M,4.0,2006*71
$PMSBATV,014916.00,2,2,0.34997,0.20473,36.68117,0.000,0.000,0.001,-146.58736,0.000*58
$GPGGA,014916.10,3427.666844688,N,13630.983058311,E,4,14,0.85,103.577,M,39.209,M,4.1,2006*73
$PMSBATV,014916.10,2,2,0.36366,0.19892,36.68404,0.001,-0.000,-0.001,-146.58736,0.000*50
$GPGGA,014916.20,3427.666844918,N,13630.983058098,E,4,14,0.85,103.577,M,39.209,M,4.2,2006*77
$PMSBATV,014916.20,2,2,0.38646,0.19325,36.68198,-0.000,0.001,-0.000,-146.58736,0.000*5C
$GPGGA,014916.30,3427.666844885,N,13630.983057923,E,4,14,0.85,103.577,M,39.209,M,4.3,2006*74
$PMSBATV,014916.30,2,2,0.32465,0.18941,36.67311,0.000,0.000,0.002,-146.58736,0.000*52
$GPGGA,014916.40,3427.666844337,N,13630.983058679,E,4,14,0.85,103.577,M,39.209,M,4.4,2006*79
$PMSBATV,014916.40,2,2,0.33402,0.17365,36.67398,0.000,0.000,0.000,-146.58736,0.000*55
$GPGGA,014916.50,3427.666844221,N,13630.983058267,E,4,14,0.85,103.578,M,39.209,M,4.5,2006*7B
$PMSBATV,014916.50,2,2,0.31534,0.18133,36.67282,0.001,-0.000,0.000,-146.58736,0.000*7A
$GPGGA,014916.60,3427.666844136,N,13630.983058569,E,4,14,0.85,103.577,M,39.209,M,4.6,2006*78
$PMSBATV,014916.60,2,2,0.28073,0.18639,36.66931,0.001,-0.000,-0.000,-146.58736,0.000*55
$GPGGA,014916.70,3427.666843976,N,13630.983059033,E,4,14,0.85,103.577,M,39.209,M,4.7,2006*78
$PMSBATV,014916.70,2,2,0.32102,0.20898,36.67367,0.000,0.000,0.000,-146.58736,0.000*5F
$GPGGA,014916.80,3427.666844556,N,13630.983058720,E,4,14,0.85,103.577,M,39.209,M,4.8,2006*75
$PMSBATV,014916.80,2,2,0.27502,0.20462,36.66779,0.000,0.001,0.000,-146.58736,0.000*52
$GPGGA,014916.90,3427.666843982,N,13630.983059273,E,4,14,0.85,103.577,M,39.209,M,4.9,2006*75
$PMSBATV,014916.90,2,2,0.31720,0.21986,36.67199,0.000,-0.000,-0.001,-146.58736,0.000*59
$GPGGA,014917.00,3427.666844514,N,13630.983058890,E,4,14,0.85,103.577,M,39.209,M,5.0,2006*77
$PMSBATV,014917.00,2,2,0.31468,0.18412,36.67002,-0.000,0.001,0.000,-146.58736,0.000*7A
$GPGGA,014917.10,3427.666844042,N,13630.983058540,E,4,14,0.85,103.577,M,39.209,M,5.1,2006*71
$PMSBATV,014917.10,2,2,0.31549,0.18169,36.67208,0.001,-0.001,0.000,-146.58736,0.000*79
$GPGGA,014917.20,3427.666844043,N,13630.983058389,E,4,14,0.85,103.578,M,39.209,M,5.2,2006*7C
$PMSBATV,014917.20,2,2,0.33883,0.16443,36.67680,0.001,-0.001,-0.001,-146.58736,0.000*58
$GPGGA,014917.30,3427.666844205,N,13630.983057966,E,4,14,0.85,103.578,M,39.209,M,5.3,2006*78
$PMSBATV,014917.30,2,2,0.31230,0.18653,36.67595,0.001,-0.000,0.001,-146.58736,0.000*7F
$GPGGA,014917.40,3427.666844214,N,13630.983058478,E,4,14,0.85,103.577,M,39.209,M,5.4,2006*7A
$PMSBATV,014917.40,2,2,0.33685,0.17193,36.67876,0.001,-0.000,-0.000,-146.58736,0.000*58
$GPGGA,014917.50,3427.666844239,N,13630.983057916,E,4,14,0.85,103.578,M,39.209,M,5.5,2006*70
$PMSBATV,014917.50,2,2,0.31572,0.14018,36.68050,0.001,-0.001,-0.000,-146.58736,0.000*53
$GPGGA,014917.60,3427.666843789,N,13630.983057857,E,4,14,0.85,103.579,M,39.209,M,5.6,2006*7C
$PMSBATV,014917.60,2,2,0.34778,0.16071,36.67855,-0.000,0.002,-0.002,-146.58736,0.000*52
$GPGGA,014917.70,3427.666844208,N,13630.983057823,E,4,14,0.85,103.578,M,39.209,M,5.7,2006*75
$PMSBATV,014917.70,2,2,0.34372,0.17054,36.67863,0.000,0.000,0.001,-146.58736,0.000*5F
$GPGGA,014917.80,3427.666844369,N,13630.983057925,E,4,14,0.85,103.578,M,39.209,M,5.8,2006*74
$PMSBATV,014917.80,2,2,0.29720,0.14622,36.67328,0.000,0.001,0.002,-146.58736,0.000*5D
$GPGGA,014917.90,3427.666843685,N,13630.983058342,E,4,14,0.85,103.578,M,39.209,M,5.9,2006*70
$PMSBATV,014917.90,2,2,0.33311,0.16460,36.67652,0.001,-0.000,0.000,-146.58736,0.000*70
$GPGGA,014918.00,3427.666844181,N,13630.983057973,E,4,14,0.85,103.578,M,39.209,M,6.0,2006*7F
$PMSBATV,014918.00,2,2,0.34405,0.17623,36.67776,0.000,0.000,0.000,-146.58736,0.000*5C
$GPGGA,014918.10,3427.666844361,N,13630.983057905,E,4,14,0.85,103.578,M,39.209,M,1.1,2006*75
$PMSBATV,014918.10,2,2,0.30997,0.15785,36.67500,0.000,0.000,0.001,-146.58736,0.000*52
$GPGGA,014918.20,3427.666843757,N,13630.983058158,E,4,14,0.85,103.578,M,39.209,M,1.2,2006*7C
$PMSBATV,014918.20,2,2,0.34253,0.16112,36.67577,0.000,0.000,0.000,-146.58736,0.000*5C
$GPGGA,014918.30,3427.666843978,N,13630.983057753,E,4,14,0.85,103.578,M,39.209,M,1.3,2006*7D
$PMSBATV,014918.30,2,2,0.34078,0.15036,36.67599,0.001,-0.000,0.000,-146.58736,0.000*7E
$GPGGA,014918.40,3427.666843833,N,13630.983057694,E,4,14,0.85,103.578,M,39.209,M,1.4,2006*79
$PMSBATV,014918.40,2,2,0.29606,0.13704,36.67055,0.000,-0.000,-0.001,-146.58736,0.000*52
$GPGGA,014918.50,3427.666843314,N,13630.983058058,E,4,14,0.85,103.579,M,39.209,M,1.5,2006*7F
$PMSBATV,014918.50,2,2,0.32072,0.10413,36.67190,0.001,-0.000,0.001,-146.58736,0.000*7E
$GPGGA,014918.60,3427.666843130,N,13630.983057454,E,4,14,0.85,103.579,M,39.209,M,1.6,2006*7C
$PMSBATV,014918.60,2,2,0.32709,0.12131,36.67684,0.001,-0.001,0.000,-146.58736,0.000*73
$GPGGA,014918.70,3427.666843391,N,13630.983057433,E,4,14,0.85,103.579,M,39.209,M,1.7,2006*74
$PMSBATV,014918.70,2,2,0.28053,0.12248,36.67002,0.001,0.000,-0.000,-146.58736,0.000*75
$GPGGA,014918.80,3427.666842906,N,13630.983058050,E,4,14,0.85,103.579,M,39.209,M,1.8,2006*7F
$PMSBATV,014918.80,2,2,0.29375,0.12770,36.66954,0.000,0.001,0.001,-146.58736,0.000*55
$GPGGA,014918.90,3427.666842951,N,13630.983057930,E,4,14,0.85,103.579,M,39.209,M,1.9,2006*7D
$PMSBATV,014918.90,2,2,0.30569,0.14516,36.66891,0.000,0.001,0.001,-146.58736,0.000*5B
$GPGGA,014919.00,3427.666843217,N,13630.983057904,E,4,14,0.85,103.579,M,39.209,M,2.0,2006*70
$PMSBATV,014919.00,2,2,0.30360,0.13143,36.66968,0.001,0.001,-0.001,-146.58736,0.000*74
$GPGGA,014919.10,3427.666842999,N,13630.983057728,E,4,14,0.85,103.579,M,39.209,M,2.1,2006*7C
$PMSBATV,014919.10,2,2,0.34039,0.12544,36.67329,0.001,0.000,-0.001,-146.58736,0.000*73
$GPGGA,014919.20,3427.666843163,N,13630.983057343,E,4,14,0.85,103.579,M,39.209,M,2.2,2006*79
$PMSBATV,014919.20,2,2,0.37500,0.09835,36.67478,0.000,0.000,0.001,-146.58736,0.000*52
$GPGGA,014919.30,3427.666843142,N,13630.983056578,E,4,14,0.85,103.580,M,39.209,M,2.3,2006*73
$PMSBATV,014919.30,2,2,0.33192,0.09771,36.66786,0.000,0.001,0.000,-146.58736,0.000*54
$GPGGA,014919.40,3427.666842725,N,13630.983057157,E,4,14,0.85,103.580,M,39.209,M,2.4,2006*7D
$PMSBATV,014919.40,2,2,0.36441,0.09711,36.67447,0.001,-0.000,0.001,-146.58736,0.000*78
$GPGGA,014919.50,3427.666842844,N,13630.983056697,E,4,14,0.85,103.580,M,39.209,M,2.5,2006*7F
$PMSBATV,014919.50,2,2,0.34057,0.07399,36.66961,0.001,0.000,0.001,-146.58736,0.000*57
$GPGGA,014919.60,3427.666842392,N,13630.983056781,E,4,14,0.85,103.580,M,39.209,M,2.6,2006*79
$PMSBATV,014919.60,2,2,0.37888,0.04955,36.67186,0.001,0.001,0.000,-146.58736,0.000*54
$GPGGA,014919.70,3427.666842368,N,13630.983056032,E,4,14,0.85,103.580,M,39.209,M,2.7,2006*73
$PMSBATV,014919.70,2,2,0.41890,0.06623,36.67659,0.001,0.000,-0.000,-146.58736,0.000*78
$GPGGA,014919.80,3427.666842883,N,13630.983055619,E,4,14,0.85,103.580,M,39.209,M,2.8,2006*71
$PMSBATV,014919.80,2,2,0.37262,0.07944,36.67522,0.001,0.001,0.001,-146.58736,0.000*5C
$GPGGA,014919.90,3427.666842560,N,13630.983056219,E,4,14,0.85,103.580,M,39.209,M,2.9,2006*76
$PMSBATV,014919.90,2,2,0.33224,0.12157,36.67123,0.001,0.000,-0.000,-146.58736,0.000*7D
$GPGGA,014920.00,3427.666842679,N,13630.983057112,E,4,14,0.85,103.579,M,39.209,M,3.0,2006*79
$PMSBATV,014920.00,2,2,0.40488,0.10442,36.67876,0.001,0.000,-0.000,-146.58736,0.000*70
$GPGGA,014920.10,3427.666842981,N,13630.983056056,E,4,14,0.85,103.579,M,39.209,M,3.1,2006*71
$PMSBATV,014920.10,2,2,0.38779,0.10243,36.67416,0.000,0.001,0.001,-146.58736,0.000*52
$GPGGA,014920.20,3427.666842841,N,13630.983056203,E,4,14,0.85,103.579,M,39.209,M,3.2,2006*7E
$PMSBATV,014920.20,2,2,0.37113,0.11545,36.67639,0.001,-0.000,-0.002,-146.58736,0.000*58
$GPGGA,014920.30,3427.666842877,N,13630.983056455,E,4,14,0.85,103.579,M,39.209,M,3.3,2006*7E
$PMSBATV,014920.30,2,2,0.38359,0.10619,36.67615,0.001,0.000,-0.000,-146.58736,0.000*70
$GPGGA,014920.40,3427.666842732,N,13630.983056286,E,4,14,0.85,103.579,M,39.209,M,3.4,2006*78
$PMSBATV,014920.40,2,2,0.39765,0.12500,36.67856,0.001,0.000,0.001,-146.58736,0.000*51
$GPGGA,014920.50,3427.666843061,N,13630.983056160,E,4,14,0.85,103.579,M,39.209,M,3.5,2006*73
$PMSBATV,014920.50,2,2,0.35987,0.10853,36.67659,0.001,-0.000,-0.002,-146.58736,0.000*55
$GPGGA,014920.60,3427.666842648,N,13630.983056402,E,4,14,0.85,103.579,M,39.209,M,3.6,2006*7E
$PMSBATV,014920.60,2,2,0.36509,0.11505,36.67873,0.001,0.000,0.001,-146.58736,0.000*55
$GPGGA,014920.70,3427.666842676,N,13630.983056411,E,4,14,0.85,103.579,M,39.209,M,3.7,2006*71
$PMSBATV,014920.70,2,2,0.33060,0.15005,36.67378,0.000,0.000,-0.000,-146.58736,0.000*77
$GPGGA,014920.80,3427.666842768,N,13630.983057089,E,4,14,0.85,103.578,M,39.209,M,3.8,2006*7A
$PMSBATV,014920.80,2,2,0.33196,0.14748,36.67663,0.001,0.000,-0.001,-146.58736,0.000*70
$GPGGA,014920.90,3427.666842667,N,13630.983056920,E,4,14,0.85,103.578,M,39.209,M,3.9,2006*7F
$PMSBATV,014920.90,2,2,0.34218,0.15098,36.67493,0.000,0.001,-0.002,-146.58736,0.000*76
$GPGGA,014921.00,3427.666842739,N,13630.983056930,E,4,14,0.85,103.578,M,39.209,M,4.0,2006*72
$PMSBATV,014921.00,2,2,0.33661,0.13549,36.67698,0.001,-0.000,0.001,-146.58736,0.000*76
$GPGGA,014921.10,3427.666842544,N,13630.983056804,E,4,14,0.85,103.579,M,39.209,M,4.1,2006*7D
$PMSBATV,014921.10,2,2,0.32135,0.14390,36.67376,0.000,0.001,-0.000,-146.58736,0.000*71
$GPGGA,014921.20,3427.666842465,N,13630.983057046,E,4,14,0.85,103.578,M,39.209,M,4.2,2006*71
$PMSBATV,014921.20,2,2,0.37832,0.11676,36.68005,0.001,-0.000,-0.000,-146.58736,0.000*54
$GPGGA,014921.30,3427.666842585,N,13630.983056038,E,4,14,0.85,103.579,M,39.209,M,4.3,2006*77
$PMSBATV,014921.30,2,2,0.41344,0.11893,36.68455,0.001,0.001,0.000,-146.58736,0.000*5B
$GPGGA,014921.40,3427.666842906,N,13630.983055571,E,4,14,0.85,103.579,M,39.209,M,4.4,2006*7B
$PMSBATV,014921.40,2,2,0.38420,0.11932,36.68539,0.001,-0.000,-0.001,-146.58736,0.000*56
$GPGGA,014921.50,3427.666842633,N,13630.983055909,E,4,14,0.85,103.579,M,39.209,M,4.5,2006*71
$PMSBATV,014921.50,2,2,0.43208,0.11445,36.68664,0.000,0.001,-0.000,-146.58736,0.000*7D
$GPGGA,014921.60,3427.666842973,N,13630.983055352,E,4,14,0.85,103.579,M,39.209,M,4.6,2006*7E
$PMSBATV,014921.60,2,2,0.37446,0.09988,36.68138,0.001,0.000,0.002,-146.58736,0.000*55
$GPGGA,014921.70,3427.666842372,N,13630.983055876,E,4,14,0.85,103.580,M,39.209,M,4.7,2006*7E
$PMSBATV,014921.70,2,2,0.34761,0.10241,36.67778,0.001,0.000,0.000,-146.58736,0.000*58
$GPGGA,014921.80,3427.666842113,N,13630.983056222,E,4,14,0.85,103.580,M,39.209,M,4.8,2006*73
$PMSBATV,014921.80,2,2,0.34203,0.09199,36.67678,0.001,-0.000,-0.000,-146.58736,0.000*59
$GPGGA,014921.90,3427.666841931,N,13630.983056189,E,4,14,0.85,103.580,M,39.209,M,4.9,2006*7A
$PMSBATV,014921.90,2,2,0.37524,0.09848,36.67926,0.001,-0.001,0.001,-146.58736,0.000*75
$GPGGA,014922.00,3427.666842269,N,13630.983055791,E,4,14,0.85,103.580,M,39.209,M,5.0,2006*71
$PMSBATV,014922.00,2,2,0.35426,0.10582,36.67884,0.001,-0.000,0.001,-146.58736,0.000*75
$GPGGA,014922.10,3427.666842106,N,13630.983056065,E,4,14,0.85,103.580,M,39.209,M,5.1,2006*74
$PMSBATV,014922.10,2,2,0.38722,0.11052,36.67991,0.000,0.001,0.000,-146.58736,0.000*5E
$GPGGA,014922.20,3427.666842504,N,13630.983055780,E,4,14,0.85,103.580,M,39.209,M,5.2,2006*7D
$PMSBATV,014922.20,2,2,0.35858,0.11721,36.68116,0.001,-0.001,0.000,-146.58736,0.000*75
$GPGGA,014922.30,3427.666842346,N,13630.983056086,E,4,14,0.85,103.579,M,39.209,M,5.3,2006*79
$PMSBATV,014922.30,2,2,0.33825,0.14676,36.67647,0.000,0.002,0.000,-146.58736,0.000*5D
$GPGGA,014922.40,3427.666842290,N,13630.983056652,E,4,14,0.85,103.579,M,39.209,M,5.4,2006*7C
$PMSBATV,014922.40,2,2,0.37028,0.13976,36.67912,0.000,0.001,-0.001,-146.58736,0.000*73
$GPGGA,014922.50,3427.666842553,N,13630.983056074,E,4,14,0.85,103.579,M,39.209,M,5.5,2006*76
$PMSBATV,014922.50,2,2,0.36492,0.14287,36.68072,0.000,0.000,0.001,-146.58736,0.000*58
$GPGGA,014922.60,3427.666842398,N,13630.983056107,E,4,14,0.85,103.578,M,39.209,M,5.6,2006*73
$PMSBATV,014922.60,2,2,0.38195,0.15950,36.68201,0.001,0.000,-0.002,-146.58736,0.000*7E
$GPGGA,014922.70,3427.666842721,N,13630.983056042,E,4,14,0.85,103.578,M,39.209,M,5.7,2006*75
$PMSBATV,014922.70,2,2,0.39829,0.15130,36.68497,0.001,0.000,0.001,-146.58736,0.000*59
$GPGGA,014922.80,3427.666842770,N,13630.983055673,E,4,14,0.85,103.578,M,39.209,M,5.8,2006*76
$PMSBATV,014922.80,2,2,0.41750,0.15186,36.68802,0.001,0.001,-0.001,-146.58736,0.000*79
$GPGGA,014922.90,3427.666842894,N,13630.983055358,E,4,14,0.85,103.578,M,39.209,M,5.9,2006*7F
$PMSBATV,014922.90,2,2,0.38329,0.15347,36.69020,0.001,-0.001,0.000,-146.58736,0.000*7B
$GPGGA,014923.00,3427.666842772,N,13630.983055760,E,4,14,0.85,103.578,M,39.209,M,6.0,2006*75
$PMSBATV,014923.00,2,2,0.36814,0.15524,36.68951,0.001,0.000,0.000,-146.58736,0.000*59
$GPGGA,014923.10,3427.666842535,N,13630.983055984,E,4,14,0.85,103.578,M,39.209,M,1.1,2006*77
$PMSBATV,014923.10,2,2,0.40665,0.17232,36.69145,0.000,0.000,-0.001,-146.58736,0.000*72
$GPGGA,014923.20,3427.666842999,N,13630.983055664,E,4,14,0.85,103.578,M,39.209,M,1.2,2006*7C
$PMSBATV,014923.20,2,2,0.41148,0.14440,36.68871,0.000,0.001,0.002,-146.58736,0.000*58
$GPGGA,014923.30,3427.666842677,N,13630.983055258,E,4,14,0.85,103.578,M,39.209,M,1.3,2006*78
$PMSBATV,014923.30,2,2,0.39883,0.11338,36.68843,0.001,0.000,0.000,-146.58736,0.000*56
$GPGGA,014923.40,3427.666842209,N,13630.983055093,E,4,14,0.85,103.579,M,39.209,M,1.4,2006*71
$PMSBATV,014923.40,2,2,0.39941,0.12770,36.68860,0.001,-0.000,0.002,-146.58736,0.000*7B
$GPGGA,014923.50,3427.666842313,N,13630.983055265,E,4,14,0.85,103.578,M,39.209,M,1.5,2006*71
$PMSBATV,014923.50,2,2,0.37653,0.16547,36.68373,0.000,0.001,0.001,-146.58736,0.000*5D
$GPGGA,014923.60,3427.666842495,N,13630.983055743,E,4,14,0.85,103.578,M,39.209,M,1.6,2006*79
$PMSBATV,014923.60,2,2,0.40899,0.15276,36.69131,0.001,-0.001,0.000,-146.58736,0.000*78
$GPGGA,014923.70,3427.666842545,N,13630.983055129,E,4,14,0.85,103.578,M,39.209,M,1.7,2006*7F
$PMSBATV,014923.70,2,2,0.38710,0.13470,36.68803,0.000,0.001,-0.001,-146.58736,0.000*77
$GPGGA,014923.80,3427.666842053,N,13630.983055271,E,4,14,0.85,103.578,M,39.209,M,1.8,2006*73
$PMSBATV,014923.80,2,2,0.38732,0.11471,36.68848,0.001,-0.000,0.000,-146.58736,0.000*75
$GPGGA,014923.90,3427.666841847,N,13630.983055106,E,4,14,0.85,103.578,M,39.209,M,1.9,2006*7E
$PMSBATV,014923.90,2,2,0.39294,0.13841,36.68444,0.000,0.001,-0.000,-146.58736,0.000*71
$GPGGA,014924.00,3427.666842125,N,13630.983055144,E,4,14,0.85,103.578,M,39.209,M,2.0,2006*72
$PMSBATV,014924.00,2,2,0.39653,0.14610,36.69069,0.001,-0.000,-0.001,-146.58736,0.000*5B
$GPGGA,014924.10,3427.666842107,N,13630.983055142,E,4,14,0.85,103.578,M,39.209,M,2.1,2006*74
$PMSBATV,014924.10,2,2,0.35647,0.16191,36.68446,0.000,0.000,-0.000,-146.58736,0.000*7A
$GPGGA,014924.20,3427.666841998,N,13630.983055666,E,4,14,0.85,103.577,M,39.209,M,2.2,2006*77
$PMSBATV,014924.20,2,2,0.42632,0.18355,36.69092,0.001,0.000,-0.002,-146.58736,0.000*70
$GPGGA,014924.30,3427.666842688,N,13630.983054961,E,4,14,0.85,103.577,M,39.209,M,2.3,2006*73
$PMSBATV,014924.30,2,2,0.41083,0.14975,36.69169,0.001,-0.001,-0.001,-146.58736,0.000*50
$GPGGA,014924.40,3427.666842218,N,13630.983054862,E,4,14,0.85,103.577,M,39.209,M,2.4,2006*7C
$PMSBATV,014924.40,2,2,0.40809,0.18947,36.69478,0.001,0.000,0.002,-146.58736,0.000*56
$GPGGA,014924.50,3427.666842653,N,13630.983055113,E,4,14,0.85,103.576,M,39.209,M,2.5,2006*78
$PMSBATV,014924.50,2,2,0.38463,0.20325,36.69275,0.000,0.001,-0.001,-146.58736,0.000*78
$GPGGA,014924.60,3427.666842621,N,13630.983055497,E,4,14,0.85,103.576,M,39.209,M,2.6,2006*74
$PMSBATV,014924.60,2,2,0.44351,0.17513,36.69991,0.001,-0.000,0.000,-146.58736,0.000*71
$GPGGA,014924.70,3427.666842703,N,13630.983054532,E,4,14,0.85,103.577,M,39.209,M,2.7,2006*7B
$PMSBATV,014924.70,2,2,0.47500,0.18148,36.70080,0.000,0.001,-0.002,-146.58736,0.000*77
$GPGGA,014924.80,3427.666843119,N,13630.983054066,E,4,14,0.85,103.577,M,39.209,M,2.8,2006*73
$PMSBATV,014924.80,2,2,0.46611,0.16246,36.70590,0.001,-0.000,0.000,-146.58736,0.000*7F
$GPGGA,014924.90,3427.666842760,N,13630.983053913,E,4,14,0.85,103.577,M,39.209,M,2.9,2006*76
$PMSBATV,014924.90,2,2,0.46812,0.13858,36.70415,0.000,0.001,-0.002,-146.58736,0.000*7D
$GPGGA,014925.00,3427.666842487,N,13630.983053672,E,4,14,0.85,103.577,M,39.209,M,3.0,2006*74
$PMSBATV,014925.00,2,2,0.48596,0.15868,36.70707,0.001,-0.000,-0.001,-146.58736,0.000*51
$GPGGA,014925.10,3427.666842839,N,13630.983053623,E,4,14,0.85,103.577,M,39.209,M,3.1,2006*79
$PMSBATV,014925.10,2,2,0.52582,0.17790,36.70984,0.000,0.000,-0.001,-146.58736,0.000*7D
$GPGGA,014925.20,3427.666843340,N,13630.983053197,E,4,14,0.85,103.577,M,39.209,M,3.2,2006*75
$PMSBATV,014925.20,2,2,0.50668,0.19594,36.71014,0.001,-0.000,-0.000,-146.58736,0.000*5F
$GPGGA,014925.30,3427.666843374,N,13630.983053641,E,4,14,0.85,103.576,M,39.209,M,3.3,2006*7F
$PMSBATV,014925.30,2,2,0.48727,0.20238,36.70870,0.000,-0.000,-0.001,-146.58736,0.000*5D
$GPGGA,014925.40,3427.666843212,N,13630.983053788,E,4,14,0.85,103.576,M,39.209,M,3.4,2006*7A
$PMSBATV,014925.40,2,2,0.50023,0.19530,36.71023,0.000,-0.000,-0.002,-146.58736,0.000*59
$GPGGA,014925.50,3427.666843278,N,13630.983053608,E,4,14,0.85,103.576,M,39.209,M,3.5,2006*7F
$PMSBATV,014925.50,2,2,0.52452,0.19340,36.71300,0.000,0.001,-0.001,-146.58736,0.000*74
$GPGGA,014925.60,3427.666843376,N,13630.983053237,E,4,14,0.85,103.576,M,39.209,M,3.6,2006*78
$PMSBATV,014925.60,2,2,0.49532,0.24198,36.70794,0.000,0.001,-0.000,-146.58736,0.000*7A
$GPGGA,014925.70,3427.666843730,N,13630.983054019,E,4,14,0.85,103.575,M,39.209,M,3.7,2006*74
$PMSBATV,014925.70,2,2,0.49830,0.23703,36.70638,0.000,0.000,-0.002,-146.58736,0.000*73
$GPGGA,014925.80,3427.666843704,N,13630.983053998,E,4,14,0.85,103.575,M,39.209,M,3.8,2006*74
$PMSBATV,014925.80,2,2,0.51046,0.25050,36.70658,0.000,0.001,0.002,-146.58736,0.000*51
$GPGGA,014925.90,3427.666843842,N,13630.983054033,E,4,14,0.85,103.575,M,39.209,M,3.9,2006*76
$PMSBATV,014925.90,2,2,0.50648,0.27381,36.70323,-0.000,0.001,-0.000,-146.58736,0.000*5F
$GPGGA,014926.00,3427.666844017,N,13630.983054190,E,4,14,0.85,103.575,M,39.209,M,4.0,2006*75
$PMSBATV,014926.00,2,2,0.50410,0.23125,36.70399,0.000,-0.000,-0.000,-146.58736,0.000*52
$GPGGA,014926.10,3427.666843664,N,13630.983053853,E,4,14,0.85,103.575,M,39.209,M,4.1,2006*71
$PMSBATV,014926.10,2,2,0.46266,0.28747,36.70114,0.000,-0.000,0.001,-146.58736,0.000*71
$GPGGA,014926.20,3427.666843827,N,13630.983054750,E,4,14,0.85,103.574,M,39.209,M,4.2,2006*72
$PMSBATV,014926.20,2,2,0.46321,0.35154,36.70357,0.000,0.000,-0.002,-146.58736,0.000*7E
$GPGGA,014926.30,3427.666844630,N,13630.983055285,E,4,14,0.85,103.573,M,39.209,M,4.3,2006*76
$PMSBATV,014926.30,2,2,0.43004,0.35930,36.70218,0.000,-0.000,-0.002,-146.58736,0.000*53
$GPGGA,014926.40,3427.666844510,N,13630.983055751,E,4,14,0.85,103.573,M,39.209,M,4.4,2006*7B
$PMSBATV,014926.40,2,2,0.32725,0.39731,36.69086,-0.000,0.001,-0.001,-146.58736,0.000*5A
$GPGGA,014926.50,3427.666844123,N,13630.983057444,E,4,14,0.85,103.572,M,39.209,M,4.5,2006*7B
$PMSBATV,014926.50,2,2,0.31258,0.41250,36.69200,0.000,-0.000,0.001,-146.58736,0.000*7A
$GPGGA,014926.60,3427.666844245,N,13630.983057689,E,4,14,0.85,103.572,M,39.209,M,4.6,2006*7B
$PMSBATV,014926.60,2,2,0.32009,0.43005,36.68957,-0.000,0.001,-0.000,-146.58736,0.000*59
$GPGGA,014926.70,3427.666844505,N,13630.983057744,E,4,14,0.85,103.572,M,39.209,M,4.7,2006*78
$PMSBATV,014926.70,2,2,0.26559,0.41729,36.68876,0.000,-0.001,0.002,-146.58736,0.000*7B
$GPGGA,014926.80,3427.666843982,N,13630.983058211,E,4,14,0.85,103.572,M,39.209,M,4.8,2006*76
$PMSBATV,014926.80,2,2,0.37321,0.39590,36.69531,-0.000,0.001,-0.001,-146.58736,0.000*53
$GPGGA,014926.90,3427.666844598,N,13630.983056777,E,4,14,0.85,103.572,M,39.209,M,4.9,2006*7D
$PMSBATV,014926.90,2,2,0.31728,0.41725,36.68815,-0.000,0.000,0.001,-146.58736,0.000*7C
$GPGGA,014927.00,3427.666844354,N,13630.983057609,E,4,14,0.85,103.572,M,39.209,M,5.0,2006*72
$PMSBATV,014927.00,2,2,0.34903,0.40556,36.69126,-0.000,0.001,-0.001,-146.58736,0.000*55
$GPGGA,014927.10,3427.666844549,N,13630.983057091,E,4,14,0.85,103.572,M,39.209,M,5.1,2006*7F
$PMSBATV,014927.10,2,2,0.33663,0.42822,36.69457,0.000,-0.001,-0.000,-146.58736,0.000*54
$GPGGA,014927.20,3427.666844713,N,13630.983057448,E,4,14,0.85,103.572,M,39.209,M,5.2,2006*72
$PMSBATV,014927.20,2,2,0.33638,0.45086,36.69221,-0.000,0.001,-0.000,-146.58736,0.000*5F
$GPGGA,014927.30,3427.666844933,N,13630.983057682,E,4,14,0.85,103.572,M,39.209,M,5.3,2006*7A
$PMSBATV,014927.30,2,2,0.35012,0.45775,36.69206,-0.000,-0.000,0.002,-146.58736,0.000*5B
$GPGGA,014927.40,3427.666845235,N,13630.983057575,E,4,14,0.85,103.571,M,39.209,M,5.4,2006*7E
$PMSBATV,014927.40,2,2,0.34206,0.45295,36.69142,-0.000,0.001,0.000,-146.58736,0.000*7C
$GPGGA,014927.50,3427.666845031,N,13630.983057667,E,4,14,0.85,103.572,M,39.209,M,5.5,2006*7B
$PMSBATV,014927.50,2,2,0.34338,0.42011,36.68962,-0.000,-0.000,-0.001,-146.58736,0.000*73
$GPGGA,014927.60,3427.666844839,N,13630.983057329,E,4,14,0.85,103.572,M,39.209,M,5.6,2006*75
$PMSBATV,014927.60,2,2,0.31849,0.42483,36.68930,0.000,0.000,0.001,-146.58736,0.000*5D
$GPGGA,014927.70,3427.666844683,N,13630.983057715,E,4,14,0.85,103.572,M,39.209,M,5.7,2006*71
$PMSBATV,014927.70,2,2,0.32616,0.41187,36.69154,0.000,-0.001,0.000,-146.58736,0.000*7F
$GPGGA,014927.80,3427.666844686,N,13630.983057414,E,4,14,0.85,103.572,M,39.209,M,5.8,2006*76
$PMSBATV,014927.80,2,2,0.29909,0.42823,36.69119,0.000,-0.000,0.000,-146.58736,0.000*77
$GPGGA,014927.90,3427.666844773,N,13630.983057808,E,4,14,0.85,103.572,M,39.209,M,5.9,2006*7C
$PMSBATV,014927.90,2,2,0.34088,0.42348,36.69734,-0.000,0.000,0.000,-146.58736,0.000*75
$GPGGA,014928.00,3427.666844970,N,13630.983057177,E,4,14,0.85,103.572,M,39.209,M,6.0,2006*7C
$PMSBATV,014928.00,2,2,0.33242,0.43953,36.69512,-0.000,0.001,-0.001,-146.58736,0.000*5A
$GPGGA,014928.10,3427.666845129,N,13630.983057473,E,4,14,0.85,103.572,M,39.209,M,1.1,2006*7F
$PMSBATV,014928.10,2,2,0.27629,0.39614,36.69095,-0.000,0.000,-0.000,-146.58736,0.000*5C
$GPGGA,014928.20,3427.666844218,N,13630.983057719,E,4,14,0.85,103.573,M,39.209,M,1.2,2006*71
$PMSBATV,014928.20,2,2,0.25296,0.35540,36.68832,0.000,-0.001,-0.001,-146.58736,0.000*57
$GPGGA,014928.30,3427.666843740,N,13630.983057620,E,4,14,0.85,103.574,M,39.209,M,1.3,2006*72
$PMSBATV,014928.30,2,2,0.25100,0.36997,36.68943,0.000,0.001,0.000,-146.58736,0.000*59
$GPGGA,014928.40,3427.666843848,N,13630.983057776,E,4,14,0.85,103.573,M,39.209,M,1.4,2006*70
$PMSBATV,014928.40,2,2,0.21875,0.35189,36.68584,0.000,-0.001,-0.001,-146.58736,0.000*53
$GPGGA,014928.50,3427.666843527,N,13630.983058061,E,4,14,0.85,103.574,M,39.209,M,1.5,2006*7D
$PMSBATV,014928.50,2,2,0.23921,0.34068,36.68624,0.000,0.000,0.001,-146.58736,0.000*57
$GPGGA,014928.60,3427.666843460,N,13630.983057651,E,4,14,0.85,103.574,M,39.209,M,1.6,2006*75
$PMSBATV,014928.60,2,2,0.25430,0.35060,36.68821,0.000,0.000,-0.001,-146.58736,0.000*70
$GPGGA,014928.70,3427.666843751,N,13630.983057595,E,4,14,0.85,103.574,M,39.209,M,1.7,2006*7F
$PMSBATV,014928.70,2,2,0.23506,0.32095,36.68847,0.000,-0.001,0.001,-146.58736,0.000*7F
$GPGGA,014928.80,3427.666843339,N,13630.983057506,E,4,14,0.85,103.574,M,39.209,M,1.8,2006*7F
$PMSBATV,014928.80,2,2,0.24274,0.30380,36.68739,0.000,0.000,0.001,-146.58736,0.000*5A
$GPGGA,014928.90,3427.666843141,N,13630.983057311,E,4,14,0.85,103.575,M,39.209,M,1.9,2006*73
$PMSBATV,014928.90,2,2,0.22181,0.31103,36.68073,-0.000,0.001,-0.000,-146.58736,0.000*55
$GPGGA,014929.00,3427.666843068,N,13630.983057648,E,4,14,0.85,103.575,M,39.209,M,2.0,2006*72
$PMSBATV,014929.00,2,2,0.22960,0.28008,36.68364,0.000,-0.000,-0.001,-146.58736,0.000*5D
$GPGGA,014929.10,3427.666842916,N,13630.983057208,E,4,14,0.85,103.575,M,39.209,M,2.1,2006*73
$PMSBATV,014929.10,2,2,0.22650,0.28826,36.68246,0.000,-0.000,-0.000,-146.58736,0.000*54
$GPGGA,014929.20,3427.666842940,N,13630.983057305,E,4,14,0.85,103.575,M,39.209,M,2.2,2006*7C
$PMSBATV,014929.20,2,2,0.23593,0.29431,36.68118,0.000,0.001,-0.001,-146.58736,0.000*74
$GPGGA,014929.30,3427.666843094,N,13630.983057373,E,4,14,0.85,103.576,M,39.209,M,2.3,2006*7F
$PMSBATV,014929.30,2,2,0.22935,0.30089,36.68120,0.000,-0.001,0.001,-146.58736,0.000*70
$GPGGA,014929.40,3427.666843147,N,13630.983057386,E,4,14,0.85,103.575,M,39.209,M,2.4,2006*79
$PMSBATV,014929.40,2,2,0.26740,0.25708,36.68520,0.000,-0.000,-0.000,-146.58736,0.000*5C
$GPGGA,014929.50,3427.666842981,N,13630.983056592,E,4,14,0.85,103.576,M,39.209,M,2.5,2006*7B
$PMSBATV,014929.50,2,2,0.23377,0.26869,36.67912,0.000,0.001,0.000,-146.58736,0.000*50
$GPGGA,014929.60,3427.666842820,N,13630.983057172,E,4,14,0.85,103.576,M,39.209,M,2.6,2006*7A
$PMSBATV,014929.60,2,2,0.27115,0.25543,36.68465,0.001,-0.001,-0.001,-146.58736,0.000*55
$GPGGA,014929.70,3427.666843055,N,13630.983056525,E,4,14,0.85,103.576,M,39.209,M,2.7,2006*76
$PMSBATV,014929.70,2,2,0.24468,0.27294,36.67949,0.000,0.001,0.001,-146.58736,0.000*5A
$GPGGA,014929.80,3427.666842938,N,13630.983057044,E,4,14,0.85,103.576,M,39.209,M,2.8,2006*76
$PMSBATV,014929.80,2,2,0.27588,0.27413,36.67880,-0.000,0.001,0.000,-146.58736,0.000*78
$GPGGA,014929.90,3427.666843190,N,13630.983056762,E,4,14,0.85,103.576,M,39.209,M,2.9,2006*7F
$PMSBATV,014929.90,2,2,0.24071,0.28158,36.67535,0.000,-0.000,-0.000,-146.58736,0.000*53
$GPGGA,014930.00,3427.666843025,N,13630.983057221,E,4,14,0.85,103.576,M,39.209,M,3.0,2006*7A
$PMSBATV,014930.00,2,2,0.25138,0.27390,36.67215,-0.000,0.001,0.001,-146.58736,0.000*7E
$GPGGA,014930.10,3427.666842968,N,13630.983057062,E,4,14,0.85,103.576,M,39.209,M,3.1,2006*7E
$PMSBATV,014930.10,2,2,0.21682,0.26069,36.67235,0.001,-0.001,-0.000,-146.58736,0.000*56
$GPGGA,014930.20,3427.666842635,N,13630.983057263,E,4,14,0.85,103.577,M,39.209,M,3.2,2006*7B
$PMSBATV,014930.20,2,2,0.21926,0.24317,36.66953,0.000,0.001,0.001,-146.58736,0.000*56
$GPGGA,014930.30,3427.666842423,N,13630.983057096,E,4,14,0.85,103.577,M,39.209,M,3.3,2006*76
$PMSBATV,014930.30,2,2,0.18350,0.26043,36.66968,0.001,-0.001,0.000,-146.58736,0.000*73
$GPGGA,014930.40,3427.666842428,N,13630.983057740,E,4,14,0.85,103.577,M,39.209,M,3.4,2006*71
$PMSBATV,014930.40,2,2,0.17572,0.23122,36.66566,0.000,0.000,0.000,-146.58736,0.000*51
$GPGGA,014930.50,3427.666841906,N,13630.983057570,E,4,14,0.85,103.577,M,39.209,M,3.5,2006*72
$PMSBATV,014930.50,2,2,0.19495,0.21878,36.66524,0.000,0.001,0.000,-146.58736,0.000*55
$GPGGA,014930.60,3427.666841846,N,13630.983057207,E,4,14,0.85,103.578,M,39.209,M,3.6,2006*7F
$PMSBATV,014930.60,2,2,0.20146,0.22445,36.66170,0.000,0.001,-0.001,-146.58736,0.000*7F
$GPGGA,014930.70,3427.666842009,N,13630.983057245,E,4,14,0.85,103.578,M,39.209,M,3.7,2006*79
$PMSBATV,014930.70,2,2,0.20621,0.18213,36.66357,0.000,0.000,0.001,-146.58736,0.000*5F
$GPGGA,014930.80,3427.666841470,N,13630.983056846,E,4,14,0.85,103.578,M,39.209,M,3.8,2006*78
$PMSBATV,014930.80,2,2,0.19890,0.19543,36.65878,0.000,0.001,0.001,-146.58736,0.000*59
$GPGGA,014930.90,3427.666841503,N,13630.983057045,E,4,14,0.85,103.578,M,39.209,M,3.9,2006*77
$PMSBATV,014930.90,2,2,0.20935,0.19727,36.65578,0.000,0.001,-0.000,-146.58736,0.000*7D
$GPGGA,014931.00,3427.666841565,N,13630.983057023,E,4,14,0.85,103.578,M,39.209,M,4.0,2006*71
$PMSBATV,014931.00,2,2,0.17681,0.20599,36.65125,0.000,0.000,0.001,-146.58736,0.000*5D
$GPGGA,014931.10,3427.666841314,N,13630.983057411,E,4,14,0.85,103.578,M,39.209,M,4.1,2006*74
$PMSBATV,014931.10,2,2,0.17054,0.21505,36.65447,0.001,-0.001,-0.000,-146.58736,0.000*56
$GPGGA,014931.20,3427.666841546,N,13630.983057458,E,4,14,0.85,103.578,M,39.209,M,4.2,2006*78
$PMSBATV,014931.20,2,2,0.17165,0.21291,36.65929,0.001,-0.002,-0.000,-146.58736,0.000*5A
$GPGGA,014931.30,3427.666841520,N,13630.983057357,E,4,14,0.85,103.578,M,39.209,M,4.3,2006*70
$PMSBATV,014931.30,2,2,0.17923,0.19819,36.65958,0.000,0.001,-0.001,-146.58736,0.000*78
$GPGGA,014931.40,3427.666841328,N,13630.983057194,E,4,14,0.85,103.578,M,39.209,M,4.4,2006*73
$PMSBATV,014931.40,2,2,0.18979,0.20807,36.66093,0.000,-0.000,-0.001,-146.58736,0.000*5B
$GPGGA,014931.50,3427.666841480,N,13630.983056978,E,4,14,0.85,103.578,M,39.209,M,4.5,2006*7D
$PMSBATV,014931.50,2,2,0.18530,0.22257,36.66084,0.001,-0.001,-0.001,-146.58736,0.000*50
$GPGGA,014931.60,3427.666841604,N,13630.983057202,E,4,14,0.85,103.578,M,39.209,M,4.6,2006*74
$PMSBATV,014931.60,2,2,0.23015,0.22824,36.66238,0.000,0.001,0.000,-146.58736,0.000*52
$GPGGA,014931.70,3427.666841975,N,13630.983056730,E,4,14,0.85,103.578,M,39.209,M,4.7,2006*78
$PMSBATV,014931.70,2,2,0.23218,0.21919,36.66446,0.001,-0.001,-0.000,-146.58736,0.000*5E
$GPGGA,014931.80,3427.666841849,N,13630.983056540,E,4,14,0.85,103.578,M,39.209,M,4.8,2006*73
$PMSBATV,014931.80,2,2,0.24132,0.23553,36.66495,0.000,0.001,-0.001,-146.58736,0.000*7E
$GPGGA,014931.90,3427.666842062,N,13630.983056651,E,4,14,0.85,103.577,M,39.209,M,4.9,2006*7D
$PMSBATV,014931.90,2,2,0.19953,0.23992,36.65953,0.000,-0.000,0.001,-146.58736,0.000*7A
$GPGGA,014932.00,3427.666841760,N,13630.983057097,E,4,14,0.85,103.577,M,39.209,M,5.0,2006*74
$PMSBATV,014932.00,2,2,0.24108,0.26197,36.66659,0.001,-0.000,0.002,-146.58736,0.000*74
$GPGGA,014932.10,3427.666842312,N,13630.983056736,E,4,14,0.85,103.577,M,39.209,M,5.1,2006*7B
$PMSBATV,014932.10,2,2,0.23775,0.26975,36.66163,-0.000,0.002,-0.001,-146.58736,0.000*59
$GPGGA,014932.20,3427.666842211,N,13630.983056768,E,4,14,0.85,103.577,M,39.209,M,5.2,2006*72
$PMSBATV,014932.20,2,2,0.28412,0.23075,36.66745,0.000,0.001,-0.002,-146.58736,0.000*70
$GPGGA,014932.30,3427.666842104,N,13630.983055927,E,4,14,0.85,103.578,M,39.209,M,5.3,2006*7C
$PMSBATV,014932.30,2,2,0.30192,0.22677,36.66918,0.001,-0.000,0.000,-146.58736,0.000*74
$GPGGA,014932.40,3427.666842320,N,13630.983055563,E,4,14,0.85,103.578,M,39.209,M,5.4,2006*74
$PMSBATV,014932.40,2,2,0.31077,0.20596,36.67250,0.001,0.000,-0.000,-146.58736,0.000*70
$GPGGA,014932.50,3427.666842164,N,13630.983055326,E,4,14,0.85,103.578,M,39.209,M,5.5,2006*71
$PMSBATV,014932.50,2,2,0.32863,0.19797,36.67833,0.001,-0.001,0.001,-146.58736,0.000*79
$GPGGA,014932.60,3427.666842328,N,13630.983055018,E,4,14,0.85,103.578,M,39.209,M,5.6,2006*75
$PMSBATV,014932.60,2,2,0.33992,0.19519,36.67739,0.000,0.001,-0.000,-146.58736,0.000*75
$GPGGA,014932.70,3427.666842417,N,13630.983054738,E,4,14,0.85,103.578,M,39.209,M,5.7,2006*7A
$PMSBATV,014932.70,2,2,0.32221,0.19989,36.67352,0.000,-0.000,-0.002,-146.58736,0.000*54
$GPGGA,014932.80,3427.666842199,N,13630.983055011,E,4,14,0.85,103.579,M,39.209,M,5.8,2006*75
$PMSBATV,014932.80,2,2,0.32732,0.17741,36.67350,0.000,0.000,0.001,-146.58736,0.000*59
$GPGGA,014932.90,3427.666841982,N,13630.983054868,E,4,14,0.85,103.579,M,39.209,M,5.9,2006*73
$PMSBATV,014932.90,2,2,0.33034,0.15075,36.67781,0.001,-0.001,0.000,-146.58736,0.000*7E
$GPGGA,014933.00,3427.666841842,N,13630.983054411,E,4,14,0.85,103.579,M,39.209,M,6.0,2006*7E
$PMSBATV,014933.00,2,2,0.31487,0.14527,36.67537,0.001,-0.000,-0.001,-146.58736,0.000*59
$GPGGA,014933.10,3427.666841645,N,13630.983054463,E,4,14,0.85,103.580,M,39.209,M,1.1,2006*73
$PMSBATV,014933.10,2,2,0.28543,0.13552,36.67272,0.001,0.000,0.001,-146.58736,0.000*5A
$GPGGA,014933.20,3427.666841214,N,13630.983054925,E,4,14,0.85,103.580,M,39.209,M,1.2,2006*7C
$PMSBATV,014933.20,2,2,0.32063,0.15921,36.67654,0.001,0.000,0.003,-146.58736,0.000*59
$GPGGA,014933.30,3427.666841739,N,13630.983054633,E,4,14,0.85,103.579,M,39.209,M,1.3,2006*78
$PMSBATV,014933.30,2,2,0.27837,0.19418,36.67114,0.000,0.001,-0.001,-146.58736,0.000*72
$GPGGA,014933.40,3427.666841730,N,13630.983055356,E,4,14,0.85,103.578,M,39.209,M,1.4,2006*77
$PMSBATV,014933.40,2,2,0.28912,0.18646,36.66717,0.000,0.001,0.001,-146.58736,0.000*5D
$GPGGA,014933.50,3427.666841578,N,13630.983055330,E,4,14,0.85,103.579,M,39.209,M,1.5,2006*78
$PMSBATV,014933.50,2,2,0.32149,0.20169,36.67178,0.001,0.001,0.001,-146.58736,0.000*5F
$GPGGA,014933.60,3427.666842031,N,13630.983054923,E,4,14,0.85,103.578,M,39.209,M,1.6,2006*7B
$PMSBATV,014933.60,2,2,0.27385,0.19539,36.67202,0.001,-0.000,0.000,-146.58736,0.000*72
$GPGGA,014933.70,3427.666841727,N,13630.983055446,E,4,14,0.85,103.578,M,39.209,M,1.7,2006*77
$PMSBATV,014933.70,2,2,0.23665,0.21248,36.66767,0.001,-0.000,0.001,-146.58736,0.000*70
$GPGGA,014933.80,3427.666841659,N,13630.983056014,E,4,14,0.85,103.578,M,39.209,M,1.8,2006*7F
$PMSBATV,014933.80,2,2,0.19186,0.22498,36.66393,0.001,-0.000,-0.001,-146.58736,0.000*56
$GPGGA,014933.90,3427.666841243,N,13630.983056642,E,4,14,0.85,103.578,M,39.209,M,1.9,2006*75
$PMSBATV,014933.90,2,2,0.24797,0.21140,36.66956,0.000,-0.000,-0.003,-146.58736,0.000*5C
$GPGGA,014934.00,3427.666841618,N,13630.983055735,E,4,14,0.85,103.578,M,39.209,M,2.0,2006*79
$PMSBATV,014934.00,2,2,0.21383,0.20309,36.66559,0.000,0.000,0.000,-146.58736,0.000*58
$GPGGA,014934.10,3427.666841276,N,13630.983056054,E,4,14,0.85,103.578,M,39.209,M,2.1,2006*76
$PMSBATV,014934.10,2,2,0.21680,0.18688,36.66253,0.000,0.001,-0.000,-146.58736,0.000*79
$GPGGA,014934.20,3427.666840969,N,13630.983056001,E,4,14,0.85,103.579,M,39.209,M,2.2,2006*73
$PMSBATV,014934.20,2,2,0.21820,0.21154,36.66541,0.001,-0.001,0.000,-146.58736,0.000*77
$GPGGA,014934.30,3427.666841285,N,13630.983056129,E,4,14,0.85,103.578,M,39.209,M,2.3,2006*71
$PMSBATV,014934.30,2,2,0.20259,0.23567,36.66335,0.000,0.000,0.002,-146.58736,0.000*5F
$GPGGA,014934.40,3427.666841341,N,13630.983056429,E,4,14,0.85,103.578,M,39.209,M,2.4,2006*7D
$PMSBATV,014934.40,2,2,0.24546,0.23038,36.66921,0.001,-0.000,0.000,-146.58736,0.000*7B
$GPGGA,014934.50,3427.666841629,N,13630.983055847,E,4,14,0.85,103.578,M,39.209,M,2.5,2006*71
$PMSBATV,014934.50,2,2,0.29233,0.27338,36.67351,0.000,0.000,-0.000,-146.58736,0.000*78
$GPGGA,014934.60,3427.666842446,N,13630.983055567,E,4,14,0.85,103.577,M,39.209,M,2.6,2006*79
$PMSBATV,014934.60,2,2,0.27655,0.29594,36.67305,0.000,0.000,-0.001,-146.58736,0.000*7F
$GPGGA,014934.70,3427.666842668,N,13630.983055846,E,4,14,0.85,103.576,M,39.209,M,2.7,2006*78
$PMSBATV,014934.70,2,2,0.30647,0.26660,36.67404,-0.000,0.001,-0.002,-146.58736,0.000*55
$GPGGA,014934.80,3427.666842637,N,13630.983055393,E,4,14,0.85,103.577,M,39.209,M,2.8,2006*70
$PMSBATV,014934.80,2,2,0.27409,0.27025,36.67361,0.000,0.000,-0.001,-146.58736,0.000*79
$GPGGA,014934.90,3427.666842363,N,13630.983055774,E,4,14,0.85,103.577,M,39.209,M,2.9,2006*79
$PMSBATV,014934.90,2,2,0.30036,0.24901,36.67164,-0.000,0.001,0.000,-146.58736,0.000*7D
$GPGGA,014935.00,3427.666842324,N,13630.983055321,E,4,14,0.85,103.578,M,39.209,M,3.0,2006*71
$PMSBATV,014935.00,2,2,0.29505,0.23639,36.67072,0.000,0.000,-0.001,-146.58736,0.000*7D
$GPGGA,014935.10,3427.666842189,N,13630.983055262,E,4,14,0.85,103.578,M,39.209,M,3.1,2006*72
$PMSBATV,014935.10,2,2,0.33884,0.26240,36.67469,0.000,0.001,-0.002,-146.58736,0.000*70
$GPGGA,014935.20,3427.666842758,N,13630.983055050,E,4,14,0.85,103.577,M,39.209,M,3.2,2006*74
$PMSBATV,014935.20,2,2,0.33819,0.24374,36.67361,0.000,0.000,0.000,-146.58736,0.000*52
$GPGGA,014935.30,3427.666842569,N,13630.983054728,E,4,14,0.85,103.578,M,39.209,M,3.3,2006*72
$PMSBATV,014935.30,2,2,0.30814,0.25974,36.66904,0.000,0.001,-0.001,-146.58736,0.000*73
$GPGGA,014935.40,3427.666842493,N,13630.983055235,E,4,14,0.85,103.578,M,39.209,M,3.4,2006*7E
$PMSBATV,014935.40,2,2,0.34766,0.25465,36.67562,0.000,-0.000,-0.002,-146.58736,0.000*55
$GPGGA,014935.50,3427.666842720,N,13630.983054790,E,4,14,0.85,103.578,M,39.209,M,3.5,2006*7E
$PMSBATV,014935.50,2,2,0.33210,0.22698,36.67738,0.000,0.000,0.001,-146.58736,0.000*5E
$GPGGA,014935.60,3427.666842351,N,13630.983054752,E,4,14,0.85,103.579,M,39.209,M,3.6,2006*73
$PMSBATV,014935.60,2,2,0.36550,0.21402,36.68053,0.000,0.000,0.000,-146.58736,0.000*5D
$GPGGA,014935.70,3427.666842736,N,13630.983053991,E,4,14,0.85,103.579,M,39.209,M,3.7,2006*70
$PMSBATV,014935.70,2,2,0.39115,0.19647,36.68635,0.001,-0.000,0.000,-146.58736,0.000*74
$GPGGA,014935.80,3427.666842761,N,13630.983053588,E,4,14,0.85,103.579,M,39.209,M,3.8,2006*76
$PMSBATV,014935.80,2,2,0.35029,0.22612,36.68155,0.000,0.001,0.001,-146.58736,0.000*5C
$GPGGA,014935.90,3427.666842694,N,13630.983054312,E,4,14,0.85,103.578,M,39.209,M,3.9,2006*7E
$PMSBATV,014935.90,2,2,0.34657,0.20233,36.68622,0.001,-0.001,0.000,-146.58736,0.000*7C
$GPGGA,014936.00,3427.666842488,N,13630.983053974,E,4,14,0.85,103.579,M,39.209,M,4.0,2006*79
$PMSBATV,014936.00,2,2,0.32255,0.21304,36.68589,0.001,-0.001,-0.002,-146.58736,0.000*5F
$GPGGA,014936.10,3427.666842514,N,13630.983054324,E,4,14,0.85,103.579,M,39.209,M,4.1,2006*75
$PMSBATV,014936.10,2,2,0.27553,0.20347,36.68159,0.000,0.000,-0.000,-146.58736,0.000*7B
$GPGGA,014936.20,3427.666841988,N,13630.983054906,E,4,14,0.85,103.579,M,39.209,M,4.2,2006*75
$PMSBATV,014936.20,2,2,0.28584,0.23187,36.68298,0.001,-0.000,-0.001,-146.58736,0.000*53
$GPGGA,014936.30,3427.666842406,N,13630.983054959,E,4,14,0.85,103.579,M,39.209,M,4.3,2006*77
$PMSBATV,014936.30,2,2,0.27448,0.23864,36.67875,0.000,0.001,0.000,-146.58736,0.000*5F
$GPGGA,014936.40,3427.666842413,N,13630.983055148,E,4,14,0.85,103.579,M,39.209,M,4.4,2006*7A
$PMSBATV,014936.40,2,2,0.25486,0.27969,36.67523,0.000,0.001,-0.000,-146.58736,0.000*73
$GPGGA,014936.50,3427.666842568,N,13630.983055827,E,4,14,0.85,103.578,M,39.209,M,4.5,2006*76
$PMSBATV,014936.50,2,2,0.30625,0.26738,36.68199,0.001,-0.001,-0.000,-146.58736,0.000*50
$GPGGA,014936.60,3427.666843008,N,13630.983054994,E,4,14,0.85,103.578,M,39.209,M,4.6,2006*7C
$PMSBATV,014936.60,2,2,0.33671,0.30891,36.68866,0.001,-0.000,0.002,-146.58736,0.000*7D
$GPGGA,014936.70,3427.666843723,N,13630.983054989,E,4,14,0.85,103.577,M,39.209,M,4.7,2006*71
$PMSBATV,014936.70,2,2,0.30791,0.30855,36.68640,0.000,0.000,0.002,-146.58736,0.000*5E
$GPGGA,014936.80,3427.666843467,N,13630.983055313,E,4,14,0.85,103.577,M,39.209,M,4.8,2006*7A
$PMSBATV,014936.80,2,2,0.33039,0.28532,36.68127,-0.001,0.002,-0.001,-146.58736,0.000*54
$GPGGA,014936.90,3427.666843309,N,13630.983054781,E,4,14,0.85,103.578,M,39.209,M,4.9,2006*74
$PMSBATV,014936.90,2,2,0.39130,0.27574,36.68601,0.000,0.000,-0.001,-146.58736,0.000*77
$GPGGA,014937.00,3427.666843700,N,13630.983054103,E,4,14,0.85,103.578,M,39.209,M,5.0,2006*75
$PMSBATV,014937.00,2,2,0.39337,0.29241,36.68941,0.000,0.000,0.001,-146.58736,0.000*53
$GPGGA,014937.10,3427.666844034,N,13630.983054117,E,4,14,0.85,103.578,M,39.209,M,5.1,2006*77
$PMSBATV,014937.10,2,2,0.36506,0.26136,36.69121,0.001,-0.002,0.000,-146.58736,0.000*75
$GPGGA,014937.20,3427.666843635,N,13630.983053934,E,4,14,0.85,103.578,M,39.209,M,5.2,2006*79
$PMSBATV,014937.20,2,2,0.38287,0.26669,36.69271,0.000,0.000,0.000,-146.58736,0.000*53
$GPGGA,014937.30,3427.666843651,N,13630.983053986,E,4,14,0.85,103.579,M,39.209,M,5.3,2006*73
$PMSBATV,014937.30,2,2,0.40178,0.26536,36.69539,0.000,-0.000,0.002,-146.58736,0.000*73
$GPGGA,014937.40,3427.666844006,N,13630.983053700,E,4,14,0.85,103.578,M,39.209,M,5.4,2006*71
$PMSBATV,014937.40,2,2,0.38734,0.27586,36.69423,0.000,0.001,0.001,-146.58736,0.000*5A
$GPGGA,014937.50,3427.666843914,N,13630.983053822,E,4,14,0.85,103.578,M,39.209,M,5.5,2006*73
$PMSBATV,014937.50,2,2,0.41694,0.26390,36.69694,0.000,0.001,-0.001,-146.58736,0.000*7D
$GPGGA,014937.60,3427.666843972,N,13630.983053464,E,4,14,0.85,103.579,M,39.209,M,5.6,2006*7C
$PMSBATV,014937.60,2,2,0.39159,0.27680,36.69238,0.000,0.001,-0.000,-146.58736,0.000*71
$GPGGA,014937.70,3427.666843897,N,13630.983053886,E,4,14,0.85,103.578,M,39.209,M,5.7,2006*77
$PMSBATV,014937.70,2,2,0.40132,0.27477,36.69125,-0.000,0.001,-0.000,-146.58736,0.000*5B
$GPGGA,014937.80,3427.666843973,N,13630.983053627,E,4,14,0.85,103.578,M,39.209,M,5.8,2006*79
$PMSBATV,014937.80,2,2,0.46449,0.28326,36.69917,0.000,-0.000,-0.001,-146.58736,0.000*5E
$GPGGA,014937.90,3427.666844581,N,13630.983052961,E,4,14,0.85,103.578,M,39.209,M,5.9,2006*73
$PMSBATV,014937.90,2,2,0.43387,0.29980,36.69744,0.000,0.000,0.001,-146.58736,0.000*50
$GPGGA,014938.00,3427.666844482,N,13630.983053522,E,4,14,0.85,103.578,M,39.209,M,6.0,2006*77
$PMSBATV,014938.00,2,2,0.41737,0.31911,36.69504,-0.000,0.001,-0.001,-146.58736,0.000*5D
$GPGGA,014938.10,3427.666844590,N,13630.983053845,E,4,14,0.85,103.578,M,39.209,M,1.1,2006*7E
$PMSBATV,014938.10,2,2,0.41748,0.32012,36.69323,-0.000,0.001,-0.000,-146.58736,0.000*5F
$GPGGA,014938.20,3427.666844592,N,13630.983053861,E,4,14,0.85,103.578,M,39.209,M,1.2,2006*7A
$PMSBATV,014938.20,2,2,0.39658,0.27945,36.69510,0.000,-0.000,0.000,-146.58736,0.000*76
$GPGGA,014938.30,3427.666843983,N,13630.983053723,E,4,14,0.85,103.578,M,39.209,M,1.3,2006*78
$PMSBATV,014938.30,2,2,0.37252,0.31142,36.69289,0.000,-0.001,0.000,-146.58736,0.000*79
$GPGGA,014938.40,3427.666844251,N,13630.983054150,E,4,14,0.85,103.578,M,39.209,M,1.4,2006*7E
$PMSBATV,014938.40,2,2,0.37139,0.29251,36.69406,0.000,0.001,0.002,-146.58736,0.000*56
$GPGGA,014938.50,3427.666843893,N,13630.983054031,E,4,14,0.85,103.578,M,39.209,M,1.5,2006*7B
$PMSBATV,014938.50,2,2,0.37773,0.31016,36.69493,0.000,0.000,0.002,-146.58736,0.000*5A
$GPGGA,014938.60,3427.666844158,N,13630.983054055,E,4,14,0.85,103.578,M,39.209,M,1.6,2006*70
$PMSBATV,014938.60,2,2,0.39145,0.31214,36.69644,0.000,0.000,0.000,-146.58736,0.000*5E
$GPGGA,014938.70,3427.666844287,N,13630.983053856,E,4,14,0.85,103.578,M,39.209,M,1.7,2006*7D
$PMSBATV,014938.70,2,2,0.36976,0.30923,36.69190,-0.000,0.000,-0.001,-146.58736,0.000*59
$GPGGA,014938.80,3427.666844052,N,13630.983054124,E,4,14,0.85,103.578,M,39.209,M,1.8,2006*7C
$PMSBATV,014938.80,2,2,0.36148,0.32572,36.68794,-0.000,0.000,-0.000,-146.58736,0.000*5B
$GPGGA,014938.90,3427.666844087,N,13630.983054247,E,4,14,0.85,103.577,M,39.209,M,1.9,2006*7D
$PMSBATV,014938.90,2,2,0.32426,0.31397,36.69063,0.000,0.000,-0.001,-146.58736,0.000*7F
$GPGGA,014939.00,3427.666843676,N,13630.983054642,E,4,14,0.85,103.578,M,39.209,M,2.0,2006*7E
$PMSBATV,014939.00,2,2,0.36661,0.33420,36.69186,-0.000,0.001,-0.001,-146.58736,0.000*5D
$GPGGA,014939.10,3427.666844354,N,13630.983054198,E,4,14,0.85,103.577,M,39.209,M,2.1,2006*73
$PMSBATV,014939.10,2,2,0.35773,0.32719,36.69451,0.000,0.000,0.000,-146.58736,0.000*5A
$GPGGA,014939.20,3427.666844216,N,13630.983054232,E,4,14,0.85,103.578,M,39.209,M,2.2,2006*78
$PMSBATV,014939.20,2,2,0.35770,0.33000,36.69447,0.000,0.000,0.002,-146.58736,0.000*51
$GPGGA,014939.30,3427.666844141,N,13630.983054313,E,4,14,0.85,103.577,M,39.209,M,2.3,2006*74
$PMSBATV,014939.30,2,2,0.36591,0.31361,36.69442,0.000,-0.000,0.001,-146.58736,0.000*73
$GPGGA,014939.40,3427.666844119,N,13630.983053955,E,4,14,0.85,103.578,M,39.209,M,2.4,2006*79
$PMSBATV,014939.40,2,2,0.38666,0.29445,36.69680,0.000,-0.000,0.000,-146.58736,0.000*74
$GPGGA,014939.50,3427.666843973,N,13630.983053469,E,4,14,0.85,103.578,M,39.209,M,2.5,2006*78
$PMSBATV,014939.50,2,2,0.36365,0.33630,36.69431,0.000,-0.000,-0.001,-146.58736,0.000*52
$GPGGA,014939.60,3427.666844218,N,13630.983054232,E,4,14,0.85,103.577,M,39.209,M,2.6,2006*79
$PMSBATV,014939.60,2,2,0.38795,0.34794,36.69276,-0.000,0.001,-0.000,-146.58736,0.000*59
$GPGGA,014939.70,3427.666844463,N,13630.983054038,E,4,13,0.99,103.577,M,39.209,M,2.7,2006*71
$PMSBATV,014939.70,2,2,0.38105,0.34143,36.69115,-0.000,0.001,0.001,-146.58736,0.000*71
$GPGGA,014939.80,3427.666844358,N,13630.983053967,E,4,13,0.99,103.577,M,39.209,M,2.8,2006*7A
$PMSBATV,014939.80,2,2,0.32448,0.34727,36.68511,-0.000,0.000,-0.001,-146.58736,0.000*51
$GPGGA,014939.90,3427.666843953,N,13630.983054749,E,4,13,0.99,103.577,M,39.209,M,2.9,2006*79
$PMSBATV,014939.90,2,2,0.37881,0.35077,36.69036,-0.000,0.001,0.001,-146.58736,0.000*72
$GPGGA,014940.00,3427.666844402,N,13630.983054142,E,4,13,0.99,103.577,M,39.209,M,3.0,2006*75
$PMSBATV,014940.00,2,2,0.41954,0.36197,36.69289,-0.000,0.000,-0.001,-146.58736,0.000*5B
$GPGGA,014940.10,3427.666844939,N,13630.983053742,E,4,13,0.99,103.576,M,39.209,M,3.1,2006*70
$PMSBATV,014940.10,2,2,0.35943,0.38847,36.68411,-0.000,0.001,0.000,-146.58736,0.000*7E
$GPGGA,014940.20,3427.666844566,N,13630.983054744,E,4,14,0.85,103.576,M,39.209,M,3.2,2006*7D
$PMSBATV,014940.20,2,2,0.33580,0.36416,36.68239,-0.000,0.000,0.000,-146.58736,0.000*73
$GPGGA,014940.30,3427.666844173,N,13630.983054839,E,4,14,0.85,103.576,M,39.209,M,3.3,2006*78
$PMSBATV,014940.30,2,2,0.40180,0.36177,36.68907,0.000,0.000,-0.000,-146.58736,0.000*76
$GPGGA,014940.40,3427.666844828,N,13630.983053915,E,4,14,0.85,103.577,M,39.209,M,3.4,2006*76
$PMSBATV,014940.40,2,2,0.41896,0.40226,36.69165,-0.000,0.000,0.000,-146.58736,0.000*75
$GPGGA,014940.50,3427.666845388,N,13630.983054023,E,4,14,0.85,103.576,M,39.209,M,3.5,2006*7C
$PMSBATV,014940.50,2,2,0.40642,0.38962,36.69125,-0.000,-0.000,-0.002,-146.58736,0.000*70
$GPGGA,014940.60,3427.666845178,N,13630.983054069,E,4,14,0.85,103.576,M,39.209,M,3.6,2006*7F
$PMSBATV,014940.60,2,2,0.36823,0.38396,36.68586,-0.001,0.002,0.000,-146.58736,0.000*77
$GPGGA,014940.70,3427.666844808,N,13630.983054585,E,4,14,0.85,103.576,M,39.209,M,3.7,2006*77
$PMSBATV,014940.70,2,2,0.34601,0.38216,36.68398,-0.000,0.001,0.002,-146.58736,0.000*7A
$GPGGA,014940.80,3427.666844623,N,13630.983054717,E,4,14,0.85,103.576,M,39.209,M,3.8,2006*79
$PMSBATV,014940.80,2,2,0.34730,0.40763,36.68897,0.000,-0.000,0.000,-146.58736,0.000*79
$GPGGA,014940.90,3427.666844991,N,13630.983054801,E,4,14,0.85,103.576,M,39.209,M,3.9,2006*77
$PMSBATV,014940.90,2,2,0.35444,0.40021,36.69064,-0.000,0.000,-0.001,-146.58736,0.000*51
$GPGGA,014941.00,3427.666845008,N,13630.983054610,E,4,14,0.85,103.576,M,39.209,M,4.0,2006*77
$PMSBATV,014941.00,2,2,0.33426,0.40111,36.69131,0.000,-0.001,0.001,-146.58736,0.000*74
$GPGGA,014941.10,3427.666845009,N,13630.983054863,E,4,14,0.85,103.576,M,39.209,M,4.1,2006*7C
$PMSBATV,014941.10,2,2,0.35429,0.40379,36.69363,0.000,0.000,0.002,-146.58736,0.000*5A
$GPGGA,014941.20,3427.666845156,N,13630.983054620,E,4,14,0.85,103.576,M,39.209,M,4.2,2006*7E
$PMSBATV,014941.20,2,2,0.35372,0.38714,36.69542,0.000,0.000,0.002,-146.58736,0.000*55
$GPGGA,014941.30,3427.666844950,N,13630.983054364,E,4,14,0.85,103.576,M,39.209,M,4.3,2006*74
$PMSBATV,014941.30,2,2,0.34773,0.39060,36.69252,-0.000,0.001,0.002,-146.58736,0.000*7F
$GPGGA,014941.40,3427.666844980,N,13630.983054557,E,4,14,0.85,103.576,M,39.209,M,4.4,2006*7F
$PMSBATV,014941.40,2,2,0.39568,0.42732,36.69680,-0.000,0.000,-0.000,-146.58736,0.000*54
$GPGGA,014941.50,3427.666845728,N,13630.983054271,E,4,14,0.85,103.575,M,39.209,M,4.5,2006*72
$PMSBATV,014941.50,2,2,0.39441,0.40714,36.69997,0.000,-0.000,-0.001,-146.58736,0.000*51
$GPGGA,014941.60,3427.666845547,N,13630.983054016,E,4,14,0.85,103.576,M,39.209,M,4.6,2006*79
$PMSBATV,014941.60,2,2,0.36105,0.42523,36.69201,-0.000,0.001,-0.000,-146.58736,0.000*58
$GPGGA,014941.70,3427.666845507,N,13630.983054660,E,4,14,0.85,103.575,M,39.209,M,4.7,2006*79
$PMSBATV,014941.70,2,2,0.29039,0.45773,36.68757,0.000,-0.001,0.000,-146.58736,0.000*73
$GPGGA,014941.80,3427.666845372,N,13630.983055744,E,4,14,0.85,103.575,M,39.209,M,4.8,2006*7B
$PMSBATV,014941.80,2,2,0.31344,0.45455,36.69057,-0.000,-0.000,-0.001,-146.58736,0.000*7D
$GPGGA,014941.90,3427.666845512,N,13630.983055524,E,4,14,0.85,103.574,M,39.209,M,4.9,2006*7E
$PMSBATV,014941.90,2,2,0.33760,0.43821,36.68783,-0.001,0.001,0.000,-146.58736,0.000*7B
$GPGGA,014942.00,3427.666845534,N,13630.983055076,E,4,14,0.85,103.575,M,39.209,M,5.0,2006*7B
$PMSBATV,014942.00,2,2,0.37769,0.46802,36.69402,-0.000,0.000,-0.000,-146.58736,0.000*5E
$GPGGA,014942.10,3427.666846240,N,13630.983054852,E,4,14,0.85,103.574,M,39.209,M,5.1,2006*72
$PMSBATV,014942.10,2,2,0.35425,0.45431,36.69238,-0.000,0.001,-0.001,-146.58736,0.000*56
$GPGGA,014942.20,3427.666845890,N,13630.983055007,E,4,14,0.85,103.575,M,39.209,M,5.2,2006*7E
$PMSBATV,014942.20,2,2,0.32180,0.45212,36.68701,-0.001,0.001,-0.002,-146.58736,0.000*53
$GPGGA,014942.30,3427.666845704,N,13630.983055447,E,4,14,0.85,103.575,M,39.209,M,5.3,2006*7C
$PMSBATV,014942.30,2,2,0.30950,0.46065,36.68411,-0.000,0.001,0.002,-146.58736,0.000*7A
$GPGGA,014942.40,3427.666845696,N,13630.983055700,E,4,14,0.85,103.574,M,39.209,M,5.4,2006*77
$PMSBATV,014942.40,2,2,0.33687,0.50253,36.68892,-0.000,0.000,0.001,-146.58736,0.000*7E
$GPGGA,014942.50,3427.666846415,N,13630.983055703,E,4,14,0.85,103.574,M,39.209,M,5.5,2006*7E
$PMSBATV,014942.50,2,2,0.31330,0.47900,36.68660,-0.000,0.000,0.000,-146.58736,0.000*7D
$GPGGA,014942.60,3427.666846019,N,13630.983055718,E,4,14,0.85,103.574,M,39.209,M,5.6,2006*7C
$PMSBATV,014942.60,2,2,0.33539,0.45685,36.68536,-0.001,0.001,-0.001,-146.58736,0.000*5F
$GPGGA,014942.70,3427.666845905,N,13630.983055385,E,4,14,0.85,103.575,M,39.209,M,5.7,2006*7A
$PMSBATV,014942.70,2,2,0.31536,0.42913,36.68124,-0.000,0.001,0.000,-146.58736,0.000*7E
$GPGGA,014942.80,3427.666845479,N,13630.983055386,E,4,14,0.85,103.575,M,39.209,M,5.8,2006*7F
$PMSBATV,014942.80,2,2,0.28236,0.40987,36.67790,-0.000,0.001,-0.002,-146.58736,0.000*58
$GPGGA,014942.90,3427.666845061,N,13630.983055485,E,4,14,0.85,103.576,M,39.209,M,5.9,2006*75
$PMSBATV,014942.90,2,2,0.30439,0.41735,36.68128,-0.000,0.000,0.000,-146.58736,0.000*7B
$GPGGA,014943.00,3427.666845417,N,13630.983055363,E,4,14,0.85,103.576,M,39.209,M,6.0,2006*7D
$PMSBATV,014943.00,2,2,0.29863,0.39846,36.67858,-0.000,0.001,-0.000,-146.58736,0.000*51
$GPGGA,014943.10,3427.666845099,N,13630.983055358,E,4,14,0.85,103.576,M,39.209,M,6.1,2006*77
$PMSBATV,014943.10,2,2,0.25840,0.39672,36.67206,-0.000,0.001,0.001,-146.58736,0.000*79
$GPGGA,014943.20,3427.666844798,N,13630.983055824,E,4,14,0.85,103.576,M,39.209,M,6.2,2006*70
$PMSBATV,014943.20,2,2,0.28308,0.41150,36.67485,-0.000,0.000,-0.001,-146.58736,0.000*59
$GPGGA,014943.30,3427.666845258,N,13630.983055534,E,4,14,0.85,103.576,M,39.209,M,6.3,2006*74
$PMSBATV,014943.30,2,2,0.32698,0.35631,36.68148,0.000,0.000,-0.001,-146.58736,0.000*7A
$GPGGA,014943.40,3427.666845007,N,13630.983054518,E,4,14,0.85,103.577,M,39.209,M,6.4,2006*72
$PMSBATV,014943.40,2,2,0.33730,0.38418,36.68646,0.000,-0.000,0.001,-146.58736,0.000*72
$GPGGA,014943.50,3427.666845447,N,13630.983054647,E,4,14,0.85,103.576,M,39.209,M,6.5,2006*7A
$PMSBATV,014943.50,2,2,0.31063,0.40256,36.68273,-0.000,0.000,0.001,-146.58736,0.000*71
$GPGGA,014943.60,3427.666845528,N,13630.983055126,E,4,14,0.85,103.576,M,39.209,M,6.6,2006*73
$PMSBATV,014943.60,2,2,0.30217,0.40594,36.68111,-0.000,0.000,-0.000,-146.58736,0.000*50
$GPGGA,014943.70,3427.666845452,N,13630.983055193,E,4,14,0.85,103.576,M,39.209,M,6.7,2006*71
$PMSBATV,014943.70,2,2,0.32390,0.43701,36.68520,0.000,-0.000,-0.000,-146.58736,0.000*56
$GPGGA,014943.80,3427.666846091,N,13630.983055333,E,4,14,0.85,103.575,M,39.209,M,6.8,2006*72
$PMSBATV,014943.80,2,2,0.31354,0.44193,36.67913,-0.001,0.001,0.001,-146.58736,0.000*77
$GPGGA,014943.90,3427.666846040,N,13630.983055516,E,4,14,0.85,103.575,M,39.209,M,6.9,2006*7F
$PMSBATV,014943.90,2,2,0.36864,0.41180,36.68644,-0.000,-0.000,0.000,-146.58736,0.000*50
$GPGGA,014944.00,3427.666846164,N,13630.983054471,E,4,14,0.85,103.576,M,39.209,M,7.0,2006*7C
$PMSBATV,014944.00,2,2,0.37736,0.42037,36.68515,-0.000,0.001,-0.001,-146.58736,0.000*5E
$GPGGA,014944.10,3427.666846361,N,13630.983054518,E,4,14,0.85,103.576,M,39.209,M,2.1,2006*70
$PMSBATV,014944.10,2,2,0.37934,0.39949,36.68945,0.000,-0.001,-0.000,-146.58736,0.000*57
$GPGGA,014944.20,3427.666846367,N,13630.983054186,E,4,14,0.85,103.576,M,39.209,M,2.2,2006*75
$PMSBATV,014944.20,2,2,0.41904,0.40906,36.69212,-0.000,0.001,-0.001,-146.58736,0.000*5A
$GPGGA,014944.30,3427.666846894,N,13630.983053758,E,4,14,0.85,103.576,M,39.209,M,2.3,2006*70
$PMSBATV,014944.30,2,2,0.38067,0.38656,36.69371,0.000,-0.001,-0.002,-146.58736,0.000*5B
$GPGGA,014944.40,3427.666846421,N,13630.983054001,E,4,14,0.85,103.577,M,39.209,M,2.4,2006*7F
$PMSBATV,014944.40,2,2,0.38566,0.39589,36.69276,-0.000,0.001,0.001,-146.58736,0.000*70
$GPGGA,014944.50,3427.666846580,N,13630.983054127,E,4,14,0.85,103.577,M,39.209,M,2.5,2006*70
$PMSBATV,014944.50,2,2,0.40769,0.38922,36.69359,-0.000,0.000,-0.000,-146.58736,0.000*5E
$GPGGA,014944.60,3427.666846731,N,13630.983053777,E,4,14,0.85,103.577,M,39.209,M,2.6,2006*7C
$PMSBATV,014944.60,2,2,0.42630,0.37621,36.69471,-0.000,0.000,0.001,-146.58736,0.000*70
$GPGGA,014944.70,3427.666846692,N,13630.983053415,E,4,14,0.85,103.577,M,39.209,M,2.7,2006*73
$PMSBATV,014944.70,2,2,0.38856,0.39425,36.69520,0.000,-0.001,0.001,-146.58736,0.000*7E
$GPGGA,014944.80,3427.666846638,N,13630.983053961,E,4,14,0.85,103.577,M,39.209,M,2.8,2006*7D
$PMSBATV,014944.80,2,2,0.37317,0.38558,36.69302,-0.000,0.000,-0.001,-146.58736,0.000*50
$GPGGA,014944.90,3427.666846447,N,13630.983054117,E,4,14,0.85,103.577,M,39.209,M,2.9,2006*79
$PMSBATV,014944.90,2,2,0.39098,0.39768,36.68808,-0.001,0.002,-0.002,-146.58736,0.000*5B
$GPGGA,014945.00,3427.666846618,N,13630.983054062,E,4,14,0.85,103.577,M,39.209,M,3.0,2006*72
$PMSBATV,014945.00,2,2,0.37372,0.40997,36.68823,-0.000,-0.000,-0.001,-146.58736,0.000*7E
$GPGGA,014945.10,3427.666846702,N,13630.983054410,E,4,14,0.85,103.576,M,39.209,M,3.1,2006*78
$PMSBATV,014945.10,2,2,0.41297,0.42512,36.68789,-0.001,0.002,0.002,-146.58736,0.000*78
$GPGGA,014945.20,3427.666847171,N,13630.983054056,E,4,14,0.85,103.576,M,39.209,M,3.2,2006*7D
$PMSBATV,014945.20,2,2,0.41344,0.40519,36.69493,0.000,-0.002,0.001,-146.58736,0.000*76
$GPGGA,014945.30,3427.666847154,N,13630.983053741,E,4,14,0.85,103.576,M,39.209,M,3.3,2006*7C
$PMSBATV,014945.30,2,2,0.39802,0.39675,36.69790,0.000,-0.001,0.000,-146.58736,0.000*74
$GPGGA,014945.40,3427.666847015,N,13630.983053802,E,4,14,0.85,103.577,M,39.209,M,3.4,2006*71
$PMSBATV,014945.40,2,2,0.41604,0.39080,36.69694,-0.000,0.002,0.001,-146.58736,0.000*7F
$GPGGA,014945.50,3427.666847081,N,13630.983053520,E,4,14,0.85,103.577,M,39.209,M,3.5,2006*71
$PMSBATV,014945.50,2,2,0.40542,0.37212,36.70091,0.000,-0.001,-0.000,-146.58736,0.000*5D
$GPGGA,014945.60,3427.666846902,N,13630.983053347,E,4,14,0.85,103.577,M,39.209,M,3.6,2006*75
$PMSBATV,014945.60,2,2,0.39914,0.38388,36.70090,-0.000,0.000,-0.000,-146.58736,0.000*52
$GPGGA,014945.70,3427.666847080,N,13630.983053529,E,4,14,0.85,103.577,M,39.209,M,3.7,2006*79
$PMSBATV,014945.70,2,2,0.38902,0.40295,36.70104,-0.000,0.001,0.001,-146.58736,0.000*76
$GPGGA,014945.80,3427.666847147,N,13630.983053912,E,4,14,0.85,103.577,M,39.209,M,3.8,2006*77
$PMSBATV,014945.80,2,2,0.38636,0.41476,36.69902,-0.000,0.001,0.001,-146.58736,0.000*7D
$GPGGA,014945.90,3427.666847314,N,13630.983054010,E,4,14,0.85,103.576,M,39.209,M,3.9,2006*7E
$PMSBATV,014945.90,2,2,0.37666,0.40054,36.69669,-0.000,0.001,-0.000,-146.58736,0.000*5D
$GPGGA,014946.00,3427.666847121,N,13630.983054062,E,4,14,0.85,103.577,M,39.209,M,4.0,2006*7A
$PMSBATV,014946.00,2,2,0.40854,0.35947,36.69740,-0.000,0.000,-0.000,-146.58736,0.000*5A
$GPGGA,014946.10,3427.666847042,N,13630.983053330,E,4,14,0.85,103.578,M,39.209,M,4.1,2006*72
$PMSBATV,014946.10,2,2,0.38833,0.40046,36.69368,-0.000,0.001,0.000,-146.58736,0.000*7D
$GPGGA,014946.20,3427.666847353,N,13630.983053943,E,4,14,0.85,103.577,M,39.209,M,4.2,2006*70
$PMSBATV,014946.20,2,2,0.36903,0.41604,36.69121,-0.000,0.001,0.000,-146.58736,0.000*7C
$GPGGA,014946.30,3427.666847431,N,13630.983054407,E,4,14,0.85,103.577,M,39.209,M,4.3,2006*79
$PMSBATV,014946.30,2,2,0.42684,0.39568,36.69820,-0.000,0.001,0.002,-146.58736,0.000*72
$GPGGA,014946.40,3427.666847779,N,13630.983053484,E,4,14,0.85,103.577,M,39.209,M,4.4,2006*7A
$PMSBATV,014946.40,2,2,0.37966,0.41307,36.69365,-0.000,-0.000,-0.001,-146.58736,0.000*7C
$GPGGA,014946.50,3427.666847591,N,13630.983054121,E,4,14,0.85,103.577,M,39.209,M,4.5,2006*73
$PMSBATV,014946.50,2,2,0.38935,0.44188,36.69226,-0.000,0.001,-0.001,-146.58736,0.000*5E
$GPGGA,014946.60,3427.666848063,N,13630.983054408,E,4,14,0.85,103.577,M,39.209,M,4.6,2006*7A
$PMSBATV,014946.60,2,2,0.37210,0.40452,36.69153,-0.000,-0.000,0.002,-146.58736,0.000*5B
$GPGGA,014946.70,3427.666847660,N,13630.983054335,E,4,14,0.85,103.577,M,39.209,M,4.7,2006*79
$PMSBATV,014946.70,2,2,0.33554,0.40980,36.68727,-0.000,-0.000,0.002,-146.58736,0.000*5F
$GPGGA,014946.80,3427.666847476,N,13630.983054838,E,4,14,0.85,103.577,M,39.209,M,4.8,2006*7A
$PMSBATV,014946.80,2,2,0.33424,0.41250,36.68603,-0.000,0.001,0.000,-146.58736,0.000*78
$GPGGA,014946.90,3427.666847471,N,13630.983054777,E,4,14,0.85,103.577,M,39.209,M,4.9,2006*79
$PMSBATV,014946.90,2,2,0.35664,0.41038,36.68995,-0.000,-0.000,-0.001,-146.58736,0.000*75
$GPGGA,014947.00,3427.666847688,N,13630.983054455,E,4,14,0.85,103.577,M,39.209,M,5.0,2006*7E
$PMSBATV,014947.00,2,2,0.33848,0.40231,36.68844,-0.000,-0.000,0.000,-146.58736,0.000*50
$GPGGA,014947.10,3427.666847550,N,13630.983054673,E,4,14,0.85,103.577,M,39.209,M,5.1,2006*7E
$PMSBATV,014947.10,2,2,0.28586,0.43545,36.68241,-0.000,0.000,-0.000,-146.58736,0.000*5C
$GPGGA,014947.20,3427.666847439,N,13630.983055608,E,4,14,0.85,103.577,M,39.209,M,5.2,2006*7D
$PMSBATV,014947.20,2,2,0.35902,0.44541,36.68786,-0.000,0.001,-0.001,-146.58736,0.000*5E
$GPGGA,014947.30,3427.666848156,N,13630.983054885,E,4,14,0.85,103.576,M,39.209,M,5.3,2006*75
$PMSBATV,014947.30,2,2,0.37264,0.46753,36.69037,-0.000,-0.000,0.000,-146.58736,0.000*59
