$GPGGA,070502.50,3542.294009090,N,13943.287644244,E,1,19,0.97,25.154,M,36.996,M,,*61
$PMSBATV,070502.50,0,0,0.00000,0.00000,0.00000,0.000,0.000,0.000,-176.48932,0.000*61
$GPGGA,070502.60,3542.294009090,N,13943.287644244,E,1,19,0.97,25.163,M,36.996,M,,*66
$PMSBATV,070502.60,0,0,0.00000,0.00000,0.00000,0.000,0.000,0.000,-176.48932,0.000*62
$GPGGA,070502.70,3542.294009090,N,13943.287644244,E,1,19,0.97,25.174,M,36.996,M,,*61
$PMSBATV,070502.70,0,0,0.00000,0.00000,0.00000,0.000,0.000,0.000,-176.48932,0.000*63
$GPGGA,070502.80,3542.294009090,N,13943.287644244,E,1,19,0.97,25.177,M,36.996,M,,*6D
$PMSBATV,070502.80,0,0,0.00000,0.00000,0.00000,0.000,0.000,0.000,-176.48932,0.000*6C
$GPGGA,070502.90,3542.294009090,N,13943.287644244,E,1,19,0.97,25.192,M,36.996,M,,*67
$PMSBATV,070502.90,0,0,0.00000,0.00000,0.00000,0.000,0.000,0.000,-176.48932,0.000*6D
$GPGGA,070503.00,3542.294003090,N,13943.287644244,E,1,19,0.97,25.196,M,36.996,M,,*61
$PMSBATV,070503.00,0,0,0.00000,0.00000,0.00000,0.000,0.000,0.000,-176.48932,0.000*65
$GPGGA,070503.10,3542.294003090,N,13943.287644244,E,1,19,0.97,25.199,M,36.996,M,,*6F
$PMSBATV,070503.10,0,0,0.00000,0.00000,0.00000,0.000,0.000,0.000,-176.48932,0.000*64
$GPGGA,070503.20,3542.294003090,N,13943.287644244,E,1,19,0.97,25.213,M,36.996,M,,*6D
$PMSBATV,070503.20,0,0,0.00000,0.00000,0.00000,0.000,0.000,0.000,-176.48932,0.000*67
$GPGGA,070503.30,3542.294003090,N,13943.287644244,E,1,19,0.97,25.220,M,36.996,M,,*6C
$PMSBATV,070503.30,0,0,0.00000,0.00000,0.00000,0.000,0.000,0.000,-176.48932,0.000*66
$GPGGA,070503.40,3542.294003090,N,13943.287644244,E,1,19,0.97,25.225,M,36.996,M,,*6E
$PMSBATV,070503.40,0,0,0.00000,0.00000,0.00000,0.000,0.000,0.000,-176.48932,0.000*61
$GPGGA,070503.50,3542.294003090,N,13943.287644244,E,1,19,0.97,25.233,M,36.996,M,,*68
$PMSBATV,070503.50,0,0,0.00000,0.00000,0.00000,0.000,0.000,0.000,-176.48932,0.000*60
$GPGGA,070503.60,3542.294003090,N,13943.287644244,E,1,19,0.97,25.230,M,36.996,M,,*68
$PMSBATV,070503.60,0,0,0.00000,0.00000,0.00000,0.000,0.000,0.000,-176.48932,0.000*63
$GPGGA,070503.70,3542.294003090,N,13943.287644244,E,1,19,0.97,25.247,M,36.996,M,,*69
$PMSBATV,070503.70,0,0,0.00000,0.00000,0.00000,0.000,0.000,0.000,-176.48932,0.000*62
$GPGGA,070503.80,3542.294003090,N,13943.287644244,E,1,19,0.97,25.249,M,36.996,M,,*68
$PMSBATV,070503.80,0,0,0.00000,0.00000,0.00000,0.000,0.000,0.000,-176.48932,0.000*6D
$GPGGA,070503.90,3542.294003090,N,13943.287644244,E,1,19,0.97,25.257,M,36.996,M,,*66
$PMSBATV,070503.90,0,0,0.00000,0.00000,0.00000,0.000,0.000,0.000,-176.48932,0.000*6C
$GPGGA,070504.00,3542.293997090,N,13943.287644244,E,1,19,0.97,25.259,M,36.996,M,,*65
$PMSBATV,070504.00,0,0,0.00000,0.00000,0.00000,0.000,0.000,0.000,-176.48932,0.000*62
$GPGGA,070504.10,3542.293997090,N,13943.287650244,E,1,19,0.97,25.272,M,36.996,M,,*68
$PMSBATV,070504.10,0,0,0.00000,0.00000,0.00000,0.000,0.000,0.000,-176.48932,0.000*63
$GPGGA,070504.20,3542.293997090,N,13943.287644244,E,1,19,0.97,25.279,M,36.996,M,,*65
$PMSBATV,070504.20,0,0,0.00000,0.00000,0.00000,0.000,0.000,0.000,-176.48932,0.000*60
$GPGGA,070504.30,3542.293997090,N,13943.287644244,E,1,19,0.97,25.281,M,36.996,M,,*63
$PMSBATV,070504.30,0,0,0.00000,0.00000,0.00000,0.000,0.000,0.000,-176.48932,0.000*61
$GPGGA,070504.40,3542.293997090,N,13943.287644244,E,1,19,0.97,25.296,M,36.996,M,,*62
$PMSBATV,070504.40,0,0,0.00000,0.00000,0.00000,0.000,0.000,0.000,-176.48932,0.000*66
$GPGGA,070504.50,3542.293997090,N,13943.287644244,E,1,19,0.97,25.303,M,36.996,M,,*6E
$PMSBATV,070504.50,0,0,0.00000,0.00000,0.00000,0.000,0.000,0.000,-176.48932,0.000*67
$GPGGA,070504.60,3542.293997090,N,13943.287644244,E,1,19,0.97,25.305,M,36.996,M,,*6B
$PMSBATV,070504.60,0,0,0.00000,0.00000,0.00000,0.000,0.000,0.000,-176.48932,0.000*64
$GPGGA,070504.70,3542.293997090,N,13943.287650244,E,1,19,0.97,25.315,M,36.996,M,,*6E
$PMSBATV,070504.70,0,0,0.00000,0.00000,0.00000,0.000,0.000,0.000,-176.48932,0.000*65
$GPGGA,070504.80,3542.293997090,N,13943.287644244,E,1,19,0.97,25.319,M,36.996,M,,*68
$PMSBATV,070504.80,0,0,0.00000,0.00000,0.00000,0.000,0.000,0.000,-176.48932,0.000*6A
$GPGGA,070504.90,3542.293997090,N,13943.287644244,E,1,19,0.97,25.324,M,36.996,M,,*67
$PMSBATV,070504.90,0,0,0.00000,0.00000,0.00000,0.000,0.000,0.000,-176.48932,0.000*6B
$GPGGA,070505.00,3542.293997090,N,13943.287644244,E,1,19,0.97,25.333,M,36.996,M,,*69
$PMSBATV,070505.00,0,0,0.00000,0.00000,0.00000,0.000,0.000,0.000,-176.48932,0.000*63
$GPGGA,070505.10,3542.293997090,N,13943.287644244,E,1,19,0.97,25.336,M,36.996,M,,*6D
$PMSBATV,070505.10,0,0,0.00000,0.00000,0.00000,0.000,0.000,0.000,-176.48932,0.000*62
$GPGGA,070505.20,3542.293997090,N,13943.287644244,E,1,19,0.97,25.343,M,36.996,M,,*6C
$PMSBATV,070505.20,0,0,0.00000,0.00000,0.00000,0.000,0.000,0.000,-176.48932,0.000*61
$GPGGA,070505.30,3542.293991090,N,13943.287644244,E,1,19,0.97,25.352,M,36.996,M,,*6B
$PMSBATV,070505.30,0,0,0.00000,0.00000,0.00000,0.000,0.000,0.000,-176.48932,0.000*60
$GPGGA,070505.40,3542.293991090,N,13943.287644244,E,1,19,0.97,25.355,M,36.996,M,,*6B
$PMSBATV,070505.40,0,0,0.00000,0.00000,0.00000,0.000,0.000,0.000,-176.48932,0.000*67
$GPGGA,070505.50,3542.293991090,N,13943.287650244,E,1,19,0.97,25.363,M,36.996,M,,*6A
$PMSBATV,070505.50,0,0,0.00000,0.00000,0.00000,0.000,0.000,0.000,-176.48932,0.000*66
$GPGGA,070505.60,3542.293991090,N,13943.287644244,E,1,19,0.97,25.372,M,36.996,M,,*6C
$PMSBATV,070505.60,0,0,0.00000,0.00000,0.00000,0.000,0.000,0.000,-176.48932,0.000*65
$GPGGA,070505.70,3542.293991090,N,13943.287650244,E,1,19,0.97,25.373,M,36.996,M,,*69
$PMSBATV,070505.70,0,0,0.00000,0.00000,0.00000,0.000,0.000,0.000,-176.48932,0.000*64
$GPGGA,070505.80,3542.293991090,N,13943.287650244,E,1,19,0.97,25.382,M,36.996,M,,*68
$PMSBATV,070505.80,0,0,0.00000,0.00000,0.00000,0.000,0.000,0.000,-176.48932,0.000*6B
$GPGGA,070505.90,3542.293991090,N,13943.287644244,E,1,19,0.97,25.391,M,36.996,M,,*6E
$PMSBATV,070505.90,0,0,0.00000,0.00000,0.00000,0.000,0.000,0.000,-176.48932,0.000*6A
$GPGGA,070506.00,3542.293991090,N,13943.287644244,E,1,19,0.97,25.398,M,36.996,M,,*6D
$PMSBATV,070506.00,0,0,0.00000,0.00000,0.00000,0.000,0.000,0.000,-176.48932,0.000*60
$GPGGA,070506.10,3542.293991090,N,13943.287650244,E,1,19,0.97,25.402,M,36.996,M,,*6D
$PMSBATV,070506.10,0,0,0.00000,0.00000,0.00000,0.000,0.000,0.000,-176.48932,0.000*61
$GPGGA,070506.20,3542.293991090,N,13943.287644244,E,1,19,0.97,25.410,M,36.996,M,,*68
$PMSBATV,070506.20,0,0,0.00000,0.00000,0.00000,0.000,0.000,0.000,-176.48932,0.000*62
$GPGGA,070506.30,3542.293991090,N,13943.287650244,E,1,19,0.97,25.409,M,36.996,M,,*64
$PMSBATV,070506.30,0,0,0.00000,0.00000,0.00000,0.000,0.000,0.000,-176.48932,0.000*63
$GPGGA,070506.40,3542.293991090,N,13943.287650244,E,1,19,0.97,25.414,M,36.996,M,,*6F
$PMSBATV,070506.40,0,0,0.00000,0.00000,0.00000,0.000,0.000,0.000,-176.48932,0.000*64
$GPGGA,070506.50,3542.293991090,N,13943.287650244,E,1,19,0.97,25.422,M,36.996,M,,*6B
$PMSBATV,070506.50,0,0,0.00000,0.00000,0.00000,0.000,0.000,0.000,-176.48932,0.000*65
$GPGGA,070506.60,3542.293985090,N,13943.287650244,E,1,19,0.97,25.425,M,36.996,M,,*6A
$PMSBATV,070506.60,0,0,0.00000,0.00000,0.00000,0.000,0.000,0.000,-176.48932,0.000*66
$GPGGA,070506.70,3542.293991090,N,13943.287644244,E,1,19,0.97,25.430,M,36.996,M,,*6F
$PMSBATV,070506.70,0,0,0.00000,0.00000,0.00000,0.000,0.000,0.000,-176.48932,0.000*67
$GPGGA,070506.80,3542.293985090,N,13943.287650244,E,1,19,0.97,25.440,M,36.996,M,,*67
$PMSBATV,070506.80,0,0,0.00000,0.00000,0.00000,0.000,0.000,0.000,-176.48932,0.000*68
$GPGGA,070506.90,3542.293985090,N,13943.287650244,E,1,19,0.97,25.445,M,36.996,M,,*63
$PMSBATV,070506.90,0,0,0.00000,0.00000,0.00000,0.000,0.000,0.000,-176.48932,0.000*69
$GPGGA,070507.00,3542.293985090,N,13943.287644244,E,1,19,0.97,25.452,M,36.996,M,,*68
$PMSBATV,070507.00,0,0,0.00000,0.00000,0.00000,0.000,0.000,0.000,-176.48932,0.000*61
$GPGGA,070507.10,3542.293985090,N,13943.287650244,E,1,19,0.97,25.461,M,36.996,M,,*6C
$PMSBATV,070507.10,0,0,0.00000,0.00000,0.00000,0.000,0.000,0.000,-176.48932,0.000*60
$GPGGA,070507.20,3542.293985090,N,13943.287650244,E,1,19,0.97,25.467,M,36.996,M,,*69
$PMSBATV,070507.20,0,0,0.00000,0.00000,0.00000,0.000,0.000,0.000,-176.48932,0.000*63
$GPGGA,070507.30,3542.293985090,N,13943.287650244,E,1,19,0.97,25.477,M,36.996,M,,*69
$PMSBATV,070507.30,0,0,0.00000,0.00000,0.00000,0.000,0.000,0.000,-176.48932,0.000*62
$GPGGA,070507.40,3542.293985090,N,13943.287650244,E,1,19,0.97,25.483,M,36.996,M,,*65
$PMSBATV,070507.40,0,0,0.00000,0.00000,0.00000,0.000,0.000,0.000,-176.48932,0.000*65
$GPGGA,070507.50,3542.293985090,N,13943.287650244,E,1,19,0.97,25.484,M,36.996,M,,*63
$PMSBATV,070507.50,0,0,0.00000,0.00000,0.00000,0.000,0.000,0.000,-176.48932,0.000*64
$GPGGA,070507.60,3542.293985090,N,13943.287650244,E,1,19,0.97,25.492,M,36.996,M,,*67
$PMSBATV,070507.60,0,0,0.00000,0.00000,0.00000,0.000,0.000,0.000,-176.48932,0.000*67
$GPGGA,070507.70,3542.293979090,N,13943.287650244,E,1,19,0.97,25.499,M,36.996,M,,*6E
$PMSBATV,070507.70,0,0,0.00000,0.00000,0.00000,0.000,0.000,0.000,-176.48932,0.000*66
$GPGGA,070507.80,3542.293979090,N,13943.287650244,E,1,19,0.97,25.499,M,36.996,M,,*61
$PMSBATV,070507.80,0,0,0.00000,0.00000,0.00000,0.000,0.000,0.000,-176.48932,0.000*69
$GPGGA,070507.90,3542.293979090,N,13943.287650244,E,1,19,0.97,25.506,M,36.996,M,,*67
$PMSBATV,070507.90,0,0,0.00000,0.00000,0.00000,0.000,0.000,0.000,-176.48932,0.000*68
$GPGGA,070508.00,3542.293979090,N,13943.287650244,E,1,19,0.97,25.511,M,36.996,M,,*67
$PMSBATV,070508.00,0,0,0.00000,0.00000,0.00000,0.000,0.000,0.000,-176.48932,0.000*6E
$GPGGA,070508.10,3542.293979090,N,13943.287650244,E,1,19,0.97,25.527,M,36.996,M,,*63
$PMSBATV,070508.10,0,0,0.00000,0.00000,0.00000,0.000,0.000,0.000,-176.48932,0.000*6F
$GPGGA,070508.20,3542.293979090,N,13943.287650244,E,1,19,0.97,25.524,M,36.996,M,,*63
$PMSBATV,070508.20,0,0,0.00000,0.00000,0.00000,0.000,0.000,0.000,-176.48932,0.000*6C
$GPGGA,070508.30,3542.293979090,N,13943.287650244,E,1,19,0.97,25.533,M,36.996,M,,*64
$PMSBATV,070508.30,0,0,0.00000,0.00000,0.00000,0.000,0.000,0.000,-176.48932,0.000*6D
$GPGGA,070508.40,3542.293979090,N,13943.287650244,E,1,19,0.97,25.539,M,36.996,M,,*69
$PMSBATV,070508.40,0,0,0.00000,0.00000,0.00000,0.000,0.000,0.000,-176.48932,0.000*6A
$GPGGA,070508.50,3542.293979090,N,13943.287650244,E,1,19,0.97,25.548,M,36.996,M,,*6E
$PMSBATV,070508.50,0,0,0.00000,0.00000,0.00000,0.000,0.000,0.000,-176.48932,0.000*6B
$GPGGA,070508.60,3542.293979090,N,13943.287650244,E,1,19,0.97,25.546,M,36.996,M,,*63
$PMSBATV,070508.60,0,0,0.00000,0.00000,0.00000,0.000,0.000,0.000,-176.48932,0.000*68
$GPGGA,070508.70,3542.293979090,N,13943.287650244,E,1,19,0.97,25.550,M,36.996,M,,*65
$PMSBATV,070508.70,0,0,0.00000,0.00000,0.00000,0.000,0.000,0.000,-176.48932,0.000*69
$GPGGA,070508.80,3542.293979090,N,13943.287650244,E,1,19,0.97,25.564,M,36.996,M,,*6D
$PMSBATV,070508.80,0,0,0.00000,0.00000,0.00000,0.000,0.000,0.000,-176.48932,0.000*66
$GPGGA,070508.90,3542.293979090,N,13943.287650244,E,1,19,0.97,25.553,M,36.996,M,,*68
$PMSBATV,070508.90,0,0,0.00000,0.00000,0.00000,0.000,0.000,0.000,-176.48932,0.000*67
$GPGGA,070509.00,3542.293973090,N,13943.287650244,E,1,19,0.97,25.566,M,36.996,M,,*6C
$PMSBATV,070509.00,0,0,0.00000,0.00000,0.00000,0.000,0.000,0.000,-176.48932,0.000*6F
$GPGGA,070509.10,3542.293973090,N,13943.287650244,E,1,19,0.97,25.573,M,36.996,M,,*69
$PMSBATV,070509.10,0,0,0.00000,0.00000,0.00000,0.000,0.000,0.000,-176.48932,0.000*6E
$GPGGA,070509.20,3542.293973090,N,13943.287650244,E,1,19,0.97,25.578,M,36.996,M,,*61
$PMSBATV,070509.20,0,0,0.00000,0.00000,0.00000,0.000,0.000,0.000,-176.48932,0.000*6D
$GPGGA,070509.30,3542.293973090,N,13943.287650244,E,1,19,0.97,25.580,M,36.996,M,,*67
$PMSBATV,070509.30,0,0,0.00000,0.00000,0.00000,0.000,0.000,0.000,-176.48932,0.000*6C
$GPGGA,070509.40,3542.293973090,N,13943.287650244,E,1,19,0.97,25.588,M,36.996,M,,*68
$PMSBATV,070509.40,0,0,0.00000,0.00000,0.00000,0.000,0.000,0.000,-176.48932,0.000*6B
$GPGGA,070509.50,3542.293973090,N,13943.287650244,E,1,19,0.97,25.590,M,36.996,M,,*60
$PMSBATV,070509.50,0,0,0.00000,0.00000,0.00000,0.000,0.000,0.000,-176.48932,0.000*6A
$GPGGA,070509.60,3542.293973090,N,13943.287650244,E,1,19,0.97,25.598,M,36.996,M,,*6B
$PMSBATV,070509.60,0,0,0.00000,0.00000,0.00000,0.000,0.000,0.000,-176.48932,0.000*69
$GPGGA,070509.70,3542.293973090,N,13943.287650244,E,1,19,0.97,25.607,M,36.996,M,,*6F
$PMSBATV,070509.70,0,0,0.00000,0.00000,0.00000,0.000,0.000,0.000,-176.48932,0.000*68
$GPGGA,070509.80,3542.293973090,N,13943.287650244,E,1,19,0.97,25.606,M,36.996,M,,*61
$PMSBATV,070509.80,0,0,0.00000,0.00000,0.00000,0.000,0.000,0.000,-176.48932,0.000*67
$GPGGA,070509.90,3542.293973090,N,13943.287650244,E,1,19,0.97,25.621,M,36.996,M,,*65
$PMSBATV,070509.90,0,0,0.00000,0.00000,0.00000,0.000,0.000,0.000,-176.48932,0.000*66
$GPGGA,070510.00,3542.293973090,N,13943.287650244,E,1,19,0.97,25.626,M,36.996,M,,*63
$PMSBATV,070510.00,0,0,0.00000,0.00000,0.00000,0.000,0.000,0.000,-176.48932,0.000*67
$GPGGA,070510.10,3542.293967090,N,13943.287650244,E,1,19,0.97,25.628,M,36.996,M,,*69
$PMSBATV,070510.10,0,0,0.00000,0.00000,0.00000,0.000,0.000,0.000,-176.48932,0.000*66
$GPGGA,070510.20,3542.293967090,N,13943.287650244,E,1,19,0.97,25.629,M,36.996,M,,*6B
$PMSBATV,070510.20,0,0,0.00000,0.00000,0.00000,0.000,0.000,0.000,-176.48932,0.000*65
$GPGGA,070510.30,3542.293967090,N,13943.287650244,E,1,19,0.97,25.640,M,36.996,M,,*65
$PMSBATV,070510.30,0,0,0.00000,0.00000,0.00000,0.000,0.000,0.000,-176.48932,0.000*64
$GPGGA,070510.40,3542.293967090,N,13943.287650244,E,1,19,0.97,25.647,M,36.996,M,,*65
$PMSBATV,070510.40,0,0,0.00000,0.00000,0.00000,0.000,0.000,0.000,-176.48932,0.000*63
$GPGGA,070510.50,3542.293967090,N,13943.287650244,E,1,19,0.97,25.651,M,36.996,M,,*63
$PMSBATV,070510.50,0,0,0.00000,0.00000,0.00000,0.000,0.000,0.000,-176.48932,0.000*62
$GPGGA,070510.60,3542.293967090,N,13943.287650244,E,1,19,0.97,25.653,M,36.996,M,,*62
$PMSBATV,070510.60,0,0,0.00000,0.00000,0.00000,0.000,0.000,0.000,-176.48932,0.000*61
$GPGGA,070510.70,3542.293967090,N,13943.287650244,E,1,19,0.97,25.660,M,36.996,M,,*63
$PMSBATV,070510.70,0,0,0.00000,0.00000,0.00000,0.000,0.000,0.000,-176.48932,0.000*60
$GPGGA,070510.80,3542.293967090,N,13943.287650244,E,1,19,0.97,25.662,M,36.996,M,,*6E
$PMSBATV,070510.80,0,0,0.00000,0.00000,0.00000,0.000,0.000,0.000,-176.48932,0.000*6F
$GPGGA,070510.90,3542.293967090,N,13943.287650244,E,1,19,0.97,25.668,M,36.996,M,,*65
$PMSBATV,070510.90,0,0,0.00000,0.00000,0.00000,0.000,0.000,0.000,-176.48932,0.000*6E
$GPGGA,070511.00,3542.293967090,N,13943.287650244,E,1,19,0.97,25.679,M,36.996,M,,*6D
$PMSBATV,070511.00,0,0,0.00000,0.00000,0.00000,0.000,0.000,0.000,-176.48932,0.000*66
$GPGGA,070511.10,3542.293967090,N,13943.287650244,E,1,19,0.97,25.684,M,36.996,M,,*6E
$PMSBATV,070511.10,0,0,0.00000,0.00000,0.00000,0.000,0.000,0.000,-176.48932,0.000*67
$GPGGA,070511.20,3542.293967090,N,13943.287650244,E,1,19,0.97,25.689,M,36.996,M,,*60
$PMSBATV,070511.20,0,0,0.00000,0.00000,0.00000,0.000,0.000,0.000,-176.48932,0.000*64
$GPGGA,070511.30,3542.293967090,N,13943.287650244,E,1,19,0.97,25.696,M,36.996,M,,*6F
$PMSBATV,070511.30,0,0,0.00000,0.00000,0.00000,0.000,0.000,0.000,-176.48932,0.000*65
$GPGGA,070511.40,3542.293967090,N,13943.287650244,E,1,19,0.97,25.700,M,36.996,M,,*66
$PMSBATV,070511.40,0,0,0.00000,0.00000,0.00000,0.000,0.000,0.000,-176.48932,0.000*62
$GPGGA,070511.50,3542.293967090,N,13943.287650244,E,1,19,0.97,25.700,M,36.996,M,,*67
$PMSBATV,070511.50,0,0,0.00000,0.00000,0.00000,0.000,0.000,0.000,-176.48932,0.000*63
$GPGGA,070511.60,3542.293967090,N,13943.287650244,E,1,19,0.97,25.704,M,36.996,M,,*60
$PMSBATV,070511.60,0,0,0.00000,0.00000,0.00000,0.000,0.000,0.000,-176.48932,0.000*60
$GPGGA,070511.70,3542.293967090,N,13943.287650244,E,1,19,0.97,25.717,M,36.996,M,,*63
$PMSBATV,070511.70,0,0,0.00000,0.00000,0.00000,0.000,0.000,0.000,-176.48932,0.000*61
$GPGGA,070511.80,3542.293961090,N,13943.287650244,E,1,19,0.97,25.724,M,36.996,M,,*6A
$PMSBATV,070511.80,0,0,0.00000,0.00000,0.00000,0.000,0.000,0.000,-176.48932,0.000*6E
$GPGGA,070511.90,3542.293961090,N,13943.287650244,E,1,19,0.97,25.723,M,36.996,M,,*6C
$PMSBATV,070511.90,0,0,0.00000,0.00000,0.00000,0.000,0.000,0.000,-176.48932,0.000*6F
$GPGGA,070512.00,3542.293961090,N,13943.287650244,E,1,19,0.97,25.732,M,36.996,M,,*66
$PMSBATV,070512.00,0,0,0.00000,0.00000,0.00000,0.000,0.000,0.000,-176.48932,0.000*65
$GPGGA,070512.10,3542.293961090,N,13943.287650244,E,1,19,0.97,25.741,M,36.996,M,,*63
$PMSBATV,070512.10,0,0,0.00000,0.00000,0.00000,0.000,0.000,0.000,-176.48932,0.000*64
$GPGGA,070512.20,3542.293961090,N,13943.287650244,E,1,19,0.97,25.748,M,36.996,M,,*69
$PMSBATV,070512.20,0,0,0.00000,0.00000,0.00000,0.000,0.000,0.000,-176.48932,0.000*67
$GPGGA,070512.30,3542.293961090,N,13943.287650244,E,1,19,0.97,25.754,M,36.996,M,,*65
$PMSBATV,070512.30,0,0,0.00000,0.00000,0.00000,0.000,0.000,0.000,-176.48932,0.000*66
$GPGGA,070512.40,3542.293961090,N,13943.287650244,E,1,19,0.97,25.760,M,36.996,M,,*65
$PMSBATV,070512.40,0,0,0.00000,0.00000,0.00000,0.000,0.000,0.000,-176.48932,0.000*61
$GPGGA,070512.50,3542.293961090,N,13943.287650244,E,1,19,0.97,25.762,M,36.996,M,,*66
$PMSBATV,070512.50,0,0,0.00000,0.00000,0.00000,0.000,0.000,0.000,-176.48932,0.000*60
$GPGGA,070512.60,3542.293961090,N,13943.287650244,E,1,19,0.97,25.768,M,36.996,M,,*6F
$PMSBATV,070512.60,0,0,0.00000,0.00000,0.00000,0.000,0.000,0.000,-176.48932,0.000*63
$GPGGA,070512.70,3542.293961090,N,13943.287650244,E,1,19,0.97,25.774,M,36.996,M,,*63
$PMSBATV,070512.70,0,0,0.00000,0.00000,0.00000,0.000,0.000,0.000,-176.48932,0.000*62
$GPGGA,070512.80,3542.293955090,N,13943.287650244,E,1,18,1.03,25.780,M,36.996,M,,*6D
$PMSBATV,070512.80,0,0,0.00000,0.00000,0.00000,0.000,0.000,0.000,-176.48932,0.000*6D
$GPGGA,070512.90,3542.293961090,N,13943.287650244,E,1,18,1.03,25.785,M,36.996,M,,*6E
$PMSBATV,070512.90,0,0,0.00000,0.00000,0.00000,0.000,0.000,0.000,-176.48932,0.000*6C
$GPGGA,070513.00,3542.293961090,N,13943.287656244,E,1,18,1.03,25.785,M,36.996,M,,*60
$PMSBATV,070513.00,0,0,0.00000,0.00000,0.00000,0.000,0.000,0.000,-176.48932,0.000*64
$GPGGA,070513.10,3542.293955090,N,13943.287656244,E,1,18,1.03,25.794,M,36.996,M,,*66
$PMSBATV,070513.10,0,0,0.00000,0.00000,0.00000,0.000,0.000,0.000,-176.48932,0.000*65
$GPGGA,070513.20,3542.293955090,N,13943.287656244,E,1,18,1.03,25.798,M,36.996,M,,*69
$PMSBATV,070513.20,0,0,0.00000,0.00000,0.00000,0.000,0.000,0.000,-176.48932,0.000*66
$GPGGA,070513.30,3542.293955090,N,13943.287650244,E,1,18,1.03,25.811,M,36.996,M,,*60
$PMSBATV,070513.30,0,0,0.00000,0.00000,0.00000,0.000,0.000,0.000,-176.48932,0.000*67
$GPGGA,070513.40,3542.293955090,N,13943.287656244,E,1,18,1.03,25.811,M,36.996,M,,*61
$PMSBATV,070513.40,0,0,0.00000,0.00000,0.00000,0.000,0.000,0.000,-176.48932,0.000*60
$GPGGA,070513.50,3542.293955090,N,13943.287656244,E,1,18,1.03,25.816,M,36.996,M,,*67
$PMSBATV,070513.50,0,0,0.00000,0.00000,0.00000,0.000,0.000,0.000,-176.48932,0.000*61
$GPGGA,070513.60,3542.293955090,N,13943.287656244,E,1,18,1.03,25.828,M,36.996,M,,*69
$PMSBATV,070513.60,0,0,0.00000,0.00000,0.00000,0.000,0.000,0.000,-176.48932,0.000*62
$GPGGA,070513.70,3542.293955090,N,13943.287656244,E,1,18,1.03,25.831,M,36.996,M,,*60
$PMSBATV,070513.70,0,0,0.00000,0.00000,0.00000,0.000,0.000,0.000,-176.48932,0.000*63
$GPGGA,070513.80,3542.293955090,N,13943.287656244,E,1,18,1.03,25.835,M,36.996,M,,*6B
$PMSBATV,070513.80,0,0,0.00000,0.00000,0.00000,0.000,0.000,0.000,-176.48932,0.000*6C
$GPGGA,070513.90,3542.293955090,N,13943.287656244,E,1,18,1.03,25.838,M,36.996,M,,*67
$PMSBATV,070513.90,0,0,0.00000,0.00000,0.00000,0.000,0.000,0.000,-176.48932,0.000*6D
$GPGGA,070514.00,3542.293955090,N,13943.287656244,E,1,18,1.03,25.844,M,36.996,M,,*62
$PMSBATV,070514.00,0,0,0.00000,0.00000,0.00000,0.000,0.000,0.000,-176.48932,0.000*63
$GPGGA,070514.10,3542.293949090,N,13943.287656244,E,1,18,1.03,25.855,M,36.996,M,,*6E
$PMSBATV,070514.10,0,0,0.00000,0.00000,0.00000,0.000,0.000,0.000,-176.48932,0.000*62
$GPGGA,070514.20,3542.293949090,N,13943.287656244,E,1,18,1.03,25.851,M,36.996,M,,*69
$PMSBATV,070514.20,0,0,0.00000,0.00000,0.00000,0.000,0.000,0.000,-176.48932,0.000*61
$GPGGA,070514.30,3542.293949090,N,13943.287656244,E,1,18,1.03,25.860,M,36.996,M,,*6A
$PMSBATV,070514.30,0,0,0.00000,0.00000,0.00000,0.000,0.000,0.000,-176.48932,0.000*60
$GPGGA,070514.40,3542.293949090,N,13943.287656244,E,1,18,1.03,25.865,M,36.996,M,,*68
$PMSBATV,070514.40,0,0,0.00000,0.00000,0.00000,0.000,0.000,0.000,-176.48932,0.000*67
$GPGGA,070514.50,3542.293949090,N,13943.287656244,E,1,18,1.03,25.873,M,36.996,M,,*6E
$PMSBATV,070514.50,0,0,0.00000,0.00000,0.00000,0.000,0.000,0.000,-176.48932,0.000*66
$GPGGA,070514.60,3542.293949090,N,13943.287656244,E,1,18,1.03,25.875,M,36.996,M,,*6B
$PMSBATV,070514.60,0,0,0.00000,0.00000,0.00000,0.000,0.000,0.000,-176.48932,0.000*65
$GPGGA,070514.70,3542.293949090,N,13943.287656244,E,1,18,1.03,25.880,M,36.996,M,,*60
$PMSBATV,070514.70,0,0,0.00000,0.00000,0.00000,0.000,0.000,0.000,-176.48932,0.000*64
$GPGGA,070514.80,3542.293949090,N,13943.287656244,E,1,18,1.03,25.888,M,36.996,M,,*67
$PMSBATV,070514.80,0,0,0.00000,0.00000,0.00000,0.000,0.000,0.000,-176.48932,0.000*6B
$GPGGA,070514.90,3542.293949090,N,13943.287656244,E,1,18,1.03,25.892,M,36.996,M,,*6D
$PMSBATV,070514.90,0,0,0.00000,0.00000,0.00000,0.000,0.000,0.000,-176.48932,0.000*6A
$GPGGA,070515.00,3542.293949090,N,13943.287656244,E,1,18,1.03,25.894,M,36.996,M,,*63
$PMSBATV,070515.00,0,0,0.00000,0.00000,0.00000,0.000,0.000,0.000,-176.48932,0.000*62
$GPGGA,070515.10,3542.293949090,N,13943.287656244,E,1,18,1.03,25.903,M,36.996,M,,*6D
$PMSBATV,070515.10,0,0,0.00000,0.00000,0.00000,0.000,0.000,0.000,-176.48932,0.000*63
$GPGGA,070515.20,3542.293943090,N,13943.287656244,E,1,18,1.03,25.899,M,36.996,M,,*66
$PMSBATV,070515.20,0,0,0.00000,0.00000,0.00000,0.000,0.000,0.000,-176.48932,0.000*60
$GPGGA,070515.30,3542.293943090,N,13943.287662244,E,1,18,1.03,25.910,M,36.996,M,,*60
$PMSBATV,070515.30,0,0,0.00000,0.00000,0.00000,0.000,0.000,0.000,-176.48932,0.000*61
$GPGGA,070515.40,3542.293943090,N,13943.287662244,E,1,18,1.03,25.919,M,36.996,M,,*6E
$PMSBATV,070515.40,0,0,0.00000,0.00000,0.00000,0.000,0.000,0.000,-176.48932,0.000*66
$GPGGA,070515.50,3542.293943090,N,13943.287662244,E,1,18,1.03,25.927,M,36.996,M,,*62
$PMSBATV,070515.50,0,0,0.00000,0.00000,0.00000,0.000,0.000,0.000,-176.48932,0.000*67
$GPGGA,070515.60,3542.293943090,N,13943.287662244,E,1,18,1.03,25.932,M,36.996,M,,*65
$PMSBATV,070515.60,0,0,0.00000,0.00000,0.00000,0.000,0.000,0.000,-176.48932,0.000*64
$GPGGA,070515.70,3542.293943090,N,13943.287662244,E,1,18,1.03,25.938,M,36.996,M,,*6E
$PMSBATV,070515.70,0,0,0.00000,0.00000,0.00000,0.000,0.000,0.000,-176.48932,0.000*65
$GPGGA,070515.80,3542.293943090,N,13943.287662244,E,1,18,1.03,25.943,M,36.996,M,,*6D
$PMSBATV,070515.80,0,0,0.00000,0.00000,0.00000,0.000,0.000,0.000,-176.48932,0.000*6A
$GPGGA,070515.90,3542.293943090,N,13943.287662244,E,1,18,1.03,25.952,M,36.996,M,,*6C
$PMSBATV,070515.90,0,0,0.00000,0.00000,0.00000,0.000,0.000,0.000,-176.48932,0.000*6B
$GPGGA,070516.00,3542.293943090,N,13943.287662244,E,1,18,1.03,25.954,M,36.996,M,,*60
$PMSBATV,070516.00,0,0,0.00000,0.00000,0.00000,0.000,0.000,0.000,-176.48932,0.000*61
$GPGGA,070516.10,3542.293937090,N,13943.287662244,E,1,18,1.03,25.959,M,36.996,M,,*6F
$PMSBATV,070516.10,0,0,0.00000,0.00000,0.00000,0.000,0.000,0.000,-176.48932,0.000*60
$GPGGA,070516.20,3542.293937090,N,13943.287662244,E,1,18,1.03,25.960,M,36.996,M,,*66
$PMSBATV,070516.20,0,0,0.00000,0.00000,0.00000,0.000,0.000,0.000,-176.48932,0.000*63
$GPGGA,070516.30,3542.293937090,N,13943.287662244,E,1,18,1.03,25.968,M,36.996,M,,*6F
$PMSBATV,070516.30,0,0,0.00000,0.00000,0.00000,0.000,0.000,0.000,-176.48932,0.000*62
$GPGGA,070516.40,3542.293937090,N,13943.287662244,E,1,18,1.03,25.981,M,36.996,M,,*6F
$PMSBATV,070516.40,0,0,0.00000,0.00000,0.00000,0.000,0.000,0.000,-176.48932,0.000*65
$GPGGA,070516.50,3542.293937090,N,13943.287662244,E,1,18,1.03,25.985,M,36.996,M,,*6A
$PMSBATV,070516.50,0,0,0.00000,0.00000,0.00000,0.000,0.000,0.000,-176.48932,0.000*64
$GPGGA,070516.60,3542.293937090,N,13943.287662244,E,1,18,1.03,25.986,M,36.996,M,,*6A
$PMSBATV,070516.60,0,0,0.00000,0.00000,0.00000,0.000,0.000,0.000,-176.48932,0.000*67
$GPGGA,070516.70,3542.293937090,N,13943.287662244,E,1,18,1.03,25.994,M,36.996,M,,*68
$PMSBATV,070516.70,0,0,0.00000,0.00000,0.00000,0.000,0.000,0.000,-176.48932,0.000*66
$GPGGA,070516.80,3542.293937090,N,13943.287662244,E,1,18,1.03,26.000,M,36.996,M,,*60
$PMSBATV,070516.80,0,0,0.00000,0.00000,0.00000,0.000,0.000,0.000,-176.48932,0.000*69
$GPGGA,070516.90,3542.293937090,N,13943.287668244,E,1,18,1.03,26.004,M,36.996,M,,*6F
$PMSBATV,070516.90,0,0,0.00000,0.00000,0.00000,0.000,0.000,0.000,-176.48932,0.000*68
$GPGGA,070517.00,3542.293931090,N,13943.287662244,E,1,18,1.03,26.011,M,36.996,M,,*6F
$PMSBATV,070517.00,0,0,0.00000,0.00000,0.00000,0.000,0.000,0.000,-176.48932,0.000*60
$GPGGA,070517.10,3542.293937090,N,13943.287668244,E,1,18,1.03,26.008,M,36.996,M,,*6A
$PMSBATV,070517.10,0,0,0.00000,0.00000,0.00000,0.000,0.000,0.000,-176.48932,0.000*61
$GPGGA,070517.20,3542.293931090,N,13943.287668244,E,1,18,1.03,26.018,M,36.996,M,,*6E
$PMSBATV,070517.20,0,0,0.00000,0.00000,0.00000,0.000,0.000,0.000,-176.48932,0.000*62
$GPGGA,070517.30,3542.293931090,N,13943.287662244,E,1,18,1.03,26.027,M,36.996,M,,*69
$PMSBATV,070517.30,0,0,0.00000,0.00000,0.00000,0.000,0.000,0.000,-176.48932,0.000*63
$GPGGA,070517.40,3542.293931090,N,13943.287668244,E,1,18,1.03,26.026,M,36.996,M,,*65
$PMSBATV,070517.40,0,0,0.00000,0.00000,0.00000,0.000,0.000,0.000,-176.48932,0.000*64
$GPGGA,070517.50,3542.293931090,N,13943.287668244,E,1,18,1.03,26.031,M,36.996,M,,*62
$PMSBATV,070517.50,0,0,0.00000,0.00000,0.00000,0.000,0.000,0.000,-176.48932,0.000*65
$GPGGA,070517.60,3542.293931090,N,13943.287668244,E,1,19,0.97,26.036,M,36.996,M,,*6B
$PMSBATV,070517.60,0,0,0.00000,0.00000,0.00000,0.000,0.000,0.000,-176.48932,0.000*66
$GPGGA,070517.70,3542.293931090,N,13943.287668244,E,1,19,0.97,26.043,M,36.996,M,,*68
$PMSBATV,070517.70,0,0,0.00000,0.00000,0.00000,0.000,0.000,0.000,-176.48932,0.000*67
$GPGGA,070517.80,3542.293931090,N,13943.287668244,E,1,19,0.97,26.042,M,36.996,M,,*66
$PMSBATV,070517.80,0,0,0.00000,0.00000,0.00000,0.000,0.000,0.000,-176.48932,0.000*68
$GPGGA,070517.90,3542.293931090,N,13943.287668244,E,1,18,1.03,26.051,M,36.996,M,,*68
$PMSBATV,070517.90,0,0,0.00000,0.00000,0.00000,0.000,0.000,0.000,-176.48932,0.000*69
$GPGGA,070518.00,3542.293931090,N,13943.287668244,E,1,18,1.03,26.051,M,36.996,M,,*6E
$PMSBATV,070518.00,0,0,0.00000,0.00000,0.00000,0.000,0.000,0.000,-176.48932,0.000*6F
$GPGGA,070518.10,3542.293931090,N,13943.287668244,E,1,18,1.03,26.062,M,36.996,M,,*6F
$PMSBATV,070518.10,0,0,0.00000,0.00000,0.00000,0.000,0.000,0.000,-176.48932,0.000*6E
$GPGGA,070518.20,3542.293931090,N,13943.287668244,E,1,18,1.03,26.061,M,36.996,M,,*6F
$PMSBATV,070518.20,0,0,0.00000,0.00000,0.00000,0.000,0.000,0.000,-176.48932,0.000*6D
$GPGGA,070518.30,3542.293931090,N,13943.287668244,E,1,18,1.03,26.066,M,36.996,M,,*69
$PMSBATV,070518.30,0,0,0.00000,0.00000,0.00000,0.000,0.000,0.000,-176.48932,0.000*6C
$GPGGA,070518.40,3542.293925090,N,13943.287674244,E,1,18,1.03,26.061,M,36.996,M,,*61
$PMSBATV,070518.40,0,0,0.00000,0.00000,0.00000,0.000,0.000,0.000,-176.48932,0.000*6B
$GPGGA,070518.50,3542.293925090,N,13943.287668244,E,1,18,1.03,26.071,M,36.996,M,,*6C
$PMSBATV,070518.50,0,0,0.00000,0.00000,0.00000,0.000,0.000,0.000,-176.48932,0.000*6A
$GPGGA,070518.60,3542.293925090,N,13943.287674244,E,1,18,1.03,26.071,M,36.996,M,,*62
$PMSBATV,070518.60,0,0,0.00000,0.00000,0.00000,0.000,0.000,0.000,-176.48932,0.000*69
$GPGGA,070518.70,3542.293925090,N,13943.287674244,E,1,18,1.03,26.067,M,36.996,M,,*64
$PMSBATV,070518.70,0,0,0.00000,0.00000,0.00000,0.000,0.000,0.000,-176.48932,0.000*68
$GPGGA,070518.80,3542.293925090,N,13943.287674244,E,1,19,0.97,26.081,M,36.996,M,,*6E
$PMSBATV,070518.80,0,0,0.00000,0.00000,0.00000,0.000,0.000,0.000,-176.48932,0.000*67
$GPGGA,070518.90,3542.293925090,N,13943.287674244,E,1,18,1.03,26.082,M,36.996,M,,*61
$PMSBATV,070518.90,0,0,0.00000,0.00000,0.00000,0.000,0.000,0.000,-176.48932,0.000*66
$GPGGA,070519.00,3542.293925090,N,13943.287674244,E,1,19,0.97,26.078,M,36.996,M,,*61
$PMSBATV,070519.00,0,0,0.00000,0.00000,0.00000,0.000,0.000,0.000,-176.48932,0.000*6E
$GPGGA,070519.10,3542.293925090,N,13943.287674244,E,1,18,1.03,26.090,M,36.996,M,,*6B
$PMSBATV,070519.10,0,0,0.00000,0.00000,0.00000,0.000,0.000,0.000,-176.48932,0.000*6F
$GPGGA,070519.20,3542.293925090,N,13943.287674244,E,1,19,0.97,26.100,M,36.996,M,,*6D
$PMSBATV,070519.20,0,0,0.00000,0.00000,0.00000,0.000,0.000,0.000,-176.48932,0.000*6C
$GPGGA,070519.30,3542.293925090,N,13943.287674244,E,1,18,1.03,26.091,M,36.996,M,,*68
$PMSBATV,070519.30,0,0,0.00000,0.00000,0.00000,0.000,0.000,0.000,-176.48932,0.000*6D
$GPGGA,070519.40,3542.293925090,N,13943.287674244,E,1,19,0.97,26.103,M,36.996,M,,*68
$PMSBATV,070519.40,0,0,0.00000,0.00000,0.00000,0.000,0.000,0.000,-176.48932,0.000*6A
$GPGGA,070519.50,3542.293925090,N,13943.287674244,E,1,18,1.03,26.103,M,36.996,M,,*64
$PMSBATV,070519.50,0,0,0.00000,0.00000,0.00000,0.000,0.000,0.000,-176.48932,0.000*6B
$GPGGA,070519.60,3542.293925090,N,13943.287674244,E,1,18,1.03,26.106,M,36.996,M,,*62
$PMSBATV,070519.60,0,0,0.00000,0.00000,0.00000,0.000,0.000,0.000,-176.48932,0.000*68
$GPGGA,070519.70,3542.293925090,N,13943.287674244,E,1,18,1.03,26.107,M,36.996,M,,*62
$PMSBATV,070519.70,0,0,0.00000,0.00000,0.00000,0.000,0.000,0.000,-176.48932,0.000*69
$GPGGA,070519.80,3542.293925090,N,13943.287674244,E,1,18,1.03,26.115,M,36.996,M,,*6E
$PMSBATV,070519.80,0,0,0.00000,0.00000,0.00000,0.000,0.000,0.000,-176.48932,0.000*66
$GPGGA,070519.90,3542.293919090,N,13943.287674244,E,1,18,1.03,26.117,M,36.996,M,,*62
$PMSBATV,070519.90,0,0,0.00000,0.00000,0.00000,0.000,0.000,0.000,-176.48932,0.000*67
$GPGGA,070520.00,3542.293919090,N,13943.287680244,E,1,19,0.97,26.115,M,36.996,M,,*65
$PMSBATV,070520.00,0,0,0.00000,0.00000,0.00000,0.000,0.000,0.000,-176.48932,0.000*64
$GPGGA,070520.10,3542.293919090,N,13943.287680244,E,1,19,0.97,26.126,M,36.996,M,,*64
$PMSBATV,070520.10,0,0,0.00000,0.00000,0.00000,0.000,0.000,0.000,-176.48932,0.000*65
$GPGGA,070520.20,3542.293919090,N,13943.287680244,E,1,19,0.97,26.125,M,36.996,M,,*64
$PMSBATV,070520.20,0,0,0.00000,0.00000,0.00000,0.000,0.000,0.000,-176.48932,0.000*66
$GPGGA,070520.30,3542.293919090,N,13943.287680244,E,1,19,0.97,26.132,M,36.996,M,,*63
$PMSBATV,070520.30,0,0,0.00000,0.00000,0.00000,0.000,0.000,0.000,-176.48932,0.000*67
$GPGGA,070520.40,3542.293919090,N,13943.287674244,E,1,18,1.03,26.137,M,36.996,M,,*67
$PMSBATV,070520.40,0,0,0.00000,0.00000,0.00000,0.000,0.000,0.000,-176.48932,0.000*60
$GPGGA,070520.50,3542.293919090,N,13943.287680244,E,1,18,1.03,26.137,M,36.996,M,,*6D
$PMSBATV,070520.50,0,0,0.00000,0.00000,0.00000,0.000,0.000,0.000,-176.48932,0.000*61
$GPGGA,070520.60,3542.293919090,N,13943.287680244,E,1,18,1.03,26.141,M,36.996,M,,*6F
$PMSBATV,070520.60,0,0,0.00000,0.00000,0.00000,0.000,0.000,0.000,-176.48932,0.000*62
$GPGGA,070520.70,3542.293919090,N,13943.287680244,E,1,18,1.03,26.141,M,36.996,M,,*6E
$PMSBATV,070520.70,0,0,0.00000,0.00000,0.00000,0.000,0.000,0.000,-176.48932,0.000*63
$GPGGA,070520.80,3542.293919090,N,13943.287680244,E,1,18,1.03,26.147,M,36.996,M,,*67
$PMSBATV,070520.80,0,0,0.00000,0.00000,0.00000,0.000,0.000,0.000,-176.48932,0.000*6C
$GPGGA,070520.90,3542.293919090,N,13943.287680244,E,1,18,1.03,26.154,M,36.996,M,,*64
$PMSBATV,070520.90,0,0,0.00000,0.00000,0.00000,0.000,0.000,0.000,-176.48932,0.000*6D
$GPGGA,070521.00,3542.293919090,N,13943.287680244,E,1,18,1.03,26.155,M,36.996,M,,*6D
$PMSBATV,070521.00,0,0,0.00000,0.00000,0.00000,0.000,0.000,0.000,-176.48932,0.000*65
$GPGGA,070521.10,3542.293919090,N,13943.287680244,E,1,18,1.03,26.157,M,36.996,M,,*6E
$PMSBATV,070521.10,0,0,0.00000,0.00000,0.00000,0.000,0.000,0.000,-176.48932,0.000*64
$GPGGA,070521.20,3542.293919090,N,13943.287680244,E,1,18,1.03,26.166,M,36.996,M,,*6F
$PMSBATV,070521.20,0,0,0.00000,0.00000,0.00000,0.000,0.000,0.000,-176.48932,0.000*67
$GPGGA,070521.30,3542.293919090,N,13943.287680244,E,1,18,1.03,26.165,M,36.996,M,,*6D
$PMSBATV,070521.30,0,0,0.00000,0.00000,0.00000,0.000,0.000,0.000,-176.48932,0.000*66
$GPGGA,070521.40,3542.293919090,N,13943.287680244,E,1,18,1.03,26.168,M,36.996,M,,*67
$PMSBATV,070521.40,0,0,0.00000,0.00000,0.00000,0.000,0.000,0.000,-176.48932,0.000*61
$GPGGA,070521.50,3542.293913090,N,13943.287680244,E,1,18,1.03,26.172,M,36.996,M,,*67
$PMSBATV,070521.50,0,0,0.00000,0.00000,0.00000,0.000,0.000,0.000,-176.48932,0.000*60
$GPGGA,070521.60,3542.293919090,N,13943.287680244,E,1,18,1.03,26.177,M,36.996,M,,*6B
$PMSBATV,070521.60,0,0,0.00000,0.00000,0.00000,0.000,0.000,0.000,-176.48932,0.000*63
$GPGGA,070521.70,3542.293913090,N,13943.287680244,E,1,18,1.03,26.175,M,36.996,M,,*62
$PMSBATV,070521.70,0,0,0.00000,0.00000,0.00000,0.000,0.000,0.000,-176.48932,0.000*62
$GPGGA,070521.80,3542.293913090,N,13943.287680244,E,1,18,1.03,26.183,M,36.996,M,,*64
$PMSBATV,070521.80,0,0,0.00000,0.00000,0.00000,0.000,0.000,0.000,-176.48932,0.000*6D
$GPGGA,070521.90,3542.293919090,N,13943.287680244,E,1,18,1.03,26.182,M,36.996,M,,*6E
$PMSBATV,070521.90,0,0,0.00000,0.00000,0.00000,0.000,0.000,0.000,-176.48932,0.000*6C
$GPGGA,070522.00,3542.293913090,N,13943.287680244,E,1,19,0.97,26.188,M,36.996,M,,*69
$PMSBATV,070522.00,0,0,0.00000,0.00000,0.00000,0.000,0.000,0.000,-176.48932,0.000*66
$GPGGA,070522.10,3542.293913090,N,13943.287686244,E,1,18,1.03,26.183,M,36.996,M,,*68
$PMSBATV,070522.10,0,0,0.00000,0.00000,0.00000,0.000,0.000,0.000,-176.48932,0.000*67
$GPGGA,070522.20,3542.293913090,N,13943.287680244,E,1,18,1.03,26.191,M,36.996,M,,*6E
$PMSBATV,070522.20,0,0,0.00000,0.00000,0.00000,0.000,0.000,0.000,-176.48932,0.000*64
$GPGGA,070522.30,3542.293913090,N,13943.287686244,E,1,18,1.03,26.187,M,36.996,M,,*6E
$PMSBATV,070522.30,0,0,0.00000,0.00000,0.00000,0.000,0.000,0.000,-176.48932,0.000*65
$GPGGA,070522.40,3542.293913090,N,13943.287686244,E,1,18,1.03,26.196,M,36.996,M,,*69
$PMSBATV,070522.40,0,0,0.00000,0.00000,0.00000,0.000,0.000,0.000,-176.48932,0.000*62
$GPGGA,070522.50,3542.293913090,N,13943.287686244,E,1,19,0.97,26.195,M,36.996,M,,*66
$PMSBATV,070522.50,0,0,0.00000,0.00000,0.00000,0.000,0.000,0.000,-176.48932,0.000*63
$GPGGA,070522.60,3542.293913090,N,13943.287686244,E,1,18,1.03,26.195,M,36.996,M,,*68
$PMSBATV,070522.60,0,0,0.00000,0.00000,0.00000,0.000,0.000,0.000,-176.48932,0.000*60
$GPGGA,070522.70,3542.293913090,N,13943.287686244,E,1,19,0.97,26.202,M,36.996,M,,*69
$PMSBATV,070522.70,0,0,0.00000,0.00000,0.00000,0.000,0.000,0.000,-176.48932,0.000*61
$GPGGA,070522.80,3542.293913090,N,13943.287686244,E,1,19,0.97,26.200,M,36.996,M,,*64
$PMSBATV,070522.80,0,0,0.00000,0.00000,0.00000,0.000,0.000,0.000,-176.48932,0.000*6E
$GPGGA,070522.90,3542.293913090,N,13943.287686244,E,1,19,0.97,26.212,M,36.996,M,,*66
$PMSBATV,070522.90,0,0,0.00000,0.00000,0.00000,0.000,0.000,0.000,-176.48932,0.000*6F
$GPGGA,070523.00,3542.293913090,N,13943.287686244,E,1,19,0.97,26.214,M,36.996,M,,*68
$PMSBATV,070523.00,0,0,0.00000,0.00000,0.00000,0.000,0.000,0.000,-176.48932,0.000*67
$GPGGA,070523.10,3542.293913090,N,13943.287686244,E,1,19,0.97,26.220,M,36.996,M,,*6E
$PMSBATV,070523.10,0,0,0.00000,0.00000,0.00000,0.000,0.000,0.000,-176.48932,0.000*66
$GPGGA,070523.20,3542.293913090,N,13943.287686244,E,1,19,0.97,26.221,M,36.996,M,,*6C
$PMSBATV,070523.20,0,0,0.00000,0.00000,0.00000,0.000,0.000,0.000,-176.48932,0.000*65
$GPGGA,070523.30,3542.293913090,N,13943.287686244,E,1,19,0.97,26.224,M,36.996,M,,*68
$PMSBATV,070523.30,0,0,0.00000,0.00000,0.00000,0.000,0.000,0.000,-176.48932,0.000*64
$GPGGA,070523.40,3542.293913090,N,13943.287686244,E,1,19,0.97,26.229,M,36.996,M,,*62
$PMSBATV,070523.40,0,0,0.00000,0.00000,0.00000,0.000,0.000,0.000,-176.48932,0.000*63
$GPGGA,070523.50,3542.293907090,N,13943.287686244,E,1,18,1.03,26.239,M,36.996,M,,*6A
$PMSBATV,070523.50,0,0,0.00000,0.00000,0.00000,0.000,0.000,0.000,-176.48932,0.000*62
$GPGGA,070523.60,3542.293907090,N,13943.287686244,E,1,18,1.03,26.234,M,36.996,M,,*64
$PMSBATV,070523.60,0,0,0.00000,0.00000,0.00000,0.000,0.000,0.000,-176.48932,0.000*61
$GPGGA,070523.70,3542.293907090,N,13943.287686244,E,1,18,1.03,26.240,M,36.996,M,,*66
$PMSBATV,070523.70,0,0,0.00000,0.00000,0.00000,0.000,0.000,0.000,-176.48932,0.000*60
$GPGGA,070523.80,3542.293907090,N,13943.287686244,E,1,18,1.03,26.244,M,36.996,M,,*6D
$PMSBATV,070523.80,0,0,0.00000,0.00000,0.00000,0.000,0.000,0.000,-176.48932,0.000*6F
$GPGGA,070523.90,3542.293907090,N,13943.287686244,E,1,18,1.03,26.250,M,36.996,M,,*69
$PMSBATV,070523.90,0,0,0.00000,0.00000,0.00000,0.000,0.000,0.000,-176.48932,0.000*6E
$GPGGA,070524.00,3542.293907090,N,13943.287686244,E,1,18,1.03,26.253,M,36.996,M,,*64
$PMSBATV,070524.00,0,0,0.00000,0.00000,0.00000,0.000,0.000,0.000,-176.48932,0.000*60
$GPGGA,070524.10,3542.293907090,N,13943.287686244,E,1,19,0.97,26.253,M,36.996,M,,*68
$PMSBATV,070524.10,0,0,0.00000,0.00000,0.00000,0.000,0.000,0.000,-176.48932,0.000*61
$GPGGA,070524.20,3542.293907090,N,13943.287686244,E,1,19,0.97,26.252,M,36.996,M,,*6A
$PMSBATV,070524.20,0,0,0.00000,0.00000,0.00000,0.000,0.000,0.000,-176.48932,0.000*62
$GPGGA,070524.30,3542.293907090,N,13943.287686244,E,1,19,0.97,26.259,M,36.996,M,,*60
$PMSBATV,070524.30,0,0,0.00000,0.00000,0.00000,0.000,0.000,0.000,-176.48932,0.000*63
$GPGGA,070524.40,3542.293907090,N,13943.287686244,E,1,18,1.03,26.258,M,36.996,M,,*6B
$PMSBATV,070524.40,0,0,0.00000,0.00000,0.00000,0.000,0.000,0.000,-176.48932,0.000*64
$GPGGA,070524.50,3542.293907090,N,13943.287686244,E,1,19,0.97,26.266,M,36.996,M,,*6A
$PMSBATV,070524.50,0,0,0.00000,0.00000,0.00000,0.000,0.000,0.000,-176.48932,0.000*65
$GPGGA,070524.60,3542.293907090,N,13943.287692244,E,1,19,0.97,26.261,M,36.996,M,,*6B
$PMSBATV,070524.60,0,0,0.00000,0.00000,0.00000,0.000,0.000,0.000,-176.48932,0.000*66
$GPGGA,070524.70,3542.293907090,N,13943.287686244,E,1,19,0.97,26.274,M,36.996,M,,*6B
$PMSBATV,070524.70,0,0,0.00000,0.00000,0.00000,0.000,0.000,0.000,-176.48932,0.000*67
$GPGGA,070524.80,3542.293907090,N,13943.287692244,E,1,19,0.97,26.270,M,36.996,M,,*65
$PMSBATV,070524.80,0,0,0.00000,0.00000,0.00000,0.000,0.000,0.000,-176.48932,0.000*68
$GPGGA,070524.90,3542.293907090,N,13943.287692244,E,1,19,0.97,26.271,M,36.996,M,,*65
$PMSBATV,070524.90,0,0,0.00000,0.00000,0.00000,0.000,0.000,0.000,-176.48932,0.000*69
$GPGGA,070525.00,3542.293907090,N,13943.287686244,E,1,19,0.97,26.280,M,36.996,M,,*66
$PMSBATV,070525.00,0,0,0.00000,0.00000,0.00000,0.000,0.000,0.000,-176.48932,0.000*61
$GPGGA,070525.10,3542.293907090,N,13943.287686244,E,1,19,0.97,26.278,M,36.996,M,,*60
$PMSBATV,070525.10,0,0,0.00000,0.00000,0.00000,0.000,0.000,0.000,-176.48932,0.000*60
$GPGGA,070525.20,3542.293907090,N,13943.287686244,E,1,19,0.97,26.280,M,36.996,M,,*64
$PMSBATV,070525.20,0,0,0.00000,0.00000,0.00000,0.000,0.000,0.000,-176.48932,0.000*63
$GPGGA,070525.30,3542.293907090,N,13943.287686244,E,1,19,0.97,26.282,M,36.996,M,,*67
$PMSBATV,070525.30,0,0,0.00000,0.00000,0.00000,0.000,0.000,0.000,-176.48932,0.000*62
$GPGGA,070525.40,3542.293907090,N,13943.287686244,E,1,19,0.97,26.292,M,36.996,M,,*61
$PMSBATV,070525.40,0,0,0.00000,0.00000,0.00000,0.000,0.000,0.000,-176.48932,0.000*65
$GPGGA,070525.50,3542.293907090,N,13943.287686244,E,1,19,0.97,26.284,M,36.996,M,,*67
$PMSBATV,070525.50,0,0,0.00000,0.00000,0.00000,0.000,0.000,0.000,-176.48932,0.000*64
$GPGGA,070525.60,3542.293901090,N,13943.287686244,E,1,19,0.97,26.290,M,36.996,M,,*67
$PMSBATV,070525.60,0,0,0.00000,0.00000,0.00000,0.000,0.000,0.000,-176.48932,0.000*67
$GPGGA,070525.70,3542.293901090,N,13943.287692244,E,1,19,0.97,26.290,M,36.996,M,,*63
$PMSBATV,070525.70,0,0,0.00000,0.00000,0.00000,0.000,0.000,0.000,-176.48932,0.000*66
$GPGGA,070525.80,3542.293907090,N,13943.287692244,E,1,19,0.97,26.290,M,36.996,M,,*6A
$PMSBATV,070525.80,0,0,0.00000,0.00000,0.00000,0.000,0.000,0.000,-176.48932,0.000*69
$GPGGA,070525.90,3542.293901090,N,13943.287686244,E,1,19,0.97,26.295,M,36.996,M,,*6D
$PMSBATV,070525.90,0,0,0.00000,0.00000,0.00000,0.000,0.000,0.000,-176.48932,0.000*68
$GPGGA,070526.00,3542.293901090,N,13943.287692244,E,1,19,0.97,26.293,M,36.996,M,,*64
$PMSBATV,070526.00,0,0,0.00000,0.00000,0.00000,0.000,0.000,0.000,-176.48932,0.000*62
$GPGGA,070526.10,3542.293901090,N,13943.287692244,E,1,19,0.97,26.299,M,36.996,M,,*6F
$PMSBATV,070526.10,0,0,0.00000,0.00000,0.00000,0.000,0.000,0.000,-176.48932,0.000*63
$GPGGA,070526.20,3542.293901090,N,13943.287692244,E,1,19,0.97,26.303,M,36.996,M,,*6E
$PMSBATV,070526.20,0,0,0.00000,0.00000,0.00000,0.000,0.000,0.000,-176.48932,0.000*60
$GPGGA,070526.30,3542.293901090,N,13943.287692244,E,1,19,0.97,26.300,M,36.996,M,,*6C
$PMSBATV,070526.30,0,0,0.00000,0.00000,0.00000,0.000,0.000,0.000,-176.48932,0.000*61
$GPGGA,070526.40,3542.293901090,N,13943.287692244,E,1,19,0.97,26.307,M,36.996,M,,*6C
$PMSBATV,070526.40,0,0,0.00000,0.00000,0.00000,0.000,0.000,0.000,-176.48932,0.000*66
$GPGGA,070526.50,3542.293901090,N,13943.287692244,E,1,19,0.97,26.313,M,36.996,M,,*68
$PMSBATV,070526.50,0,0,0.00000,0.00000,0.00000,0.000,0.000,0.000,-176.48932,0.000*67
$GPGGA,070526.60,3542.293901090,N,13943.287692244,E,1,19,0.97,26.310,M,36.996,M,,*68
$PMSBATV,070526.60,0,0,0.00000,0.00000,0.00000,0.000,0.000,0.000,-176.48932,0.000*64
$GPGGA,070526.70,3542.293901090,N,13943.287692244,E,1,19,0.97,26.307,M,36.996,M,,*6F
$PMSBATV,070526.70,0,0,0.00000,0.00000,0.00000,0.000,0.000,0.000,-176.48932,0.000*65
$GPGGA,070526.80,3542.293901090,N,13943.287692244,E,1,19,0.97,26.319,M,36.996,M,,*6F
$PMSBATV,070526.80,0,0,0.00000,0.00000,0.00000,0.000,0.000,0.000,-176.48932,0.000*6A
$GPGGA,070526.90,3542.293901090,N,13943.287692244,E,1,19,0.97,26.315,M,36.996,M,,*62
$PMSBATV,070526.90,0,0,0.00000,0.00000,0.00000,0.000,0.000,0.000,-176.48932,0.000*6B
$GPGGA,070527.00,3542.293901090,N,13943.287692244,E,1,19,0.97,26.321,M,36.996,M,,*6D
$PMSBATV,070527.00,0,0,0.00000,0.00000,0.00000,0.000,0.000,0.000,-176.48932,0.000*63
$GPGGA,070527.10,3542.293901090,N,13943.287692244,E,1,19,0.97,26.325,M,36.996,M,,*68
$PMSBATV,070527.10,0,0,0.00000,0.00000,0.00000,0.000,0.000,0.000,-176.48932,0.000*62
$GPGGA,070527.20,3542.293901090,N,13943.287692244,E,1,19,0.97,26.327,M,36.996,M,,*69
$PMSBATV,070527.20,0,0,0.00000,0.00000,0.00000,0.000,0.000,0.000,-176.48932,0.000*61
$GPGGA,070527.30,3542.293901090,N,13943.287692244,E,1,19,0.97,26.329,M,36.996,M,,*66
$PMSBATV,070527.30,0,0,0.00000,0.00000,0.00000,0.000,0.000,0.000,-176.48932,0.000*60
$GPGGA,070527.40,3542.293901090,N,13943.287692244,E,1,19,0.97,26.335,M,36.996,M,,*6C
$PMSBATV,070527.40,0,0,0.00000,0.00000,0.00000,0.000,0.000,0.000,-176.48932,0.000*67
$GPGGA,070527.50,3542.293901090,N,13943.287692244,E,1,19,0.97,26.332,M,36.996,M,,*6A
$PMSBATV,070527.50,0,0,0.00000,0.00000,0.00000,0.000,0.000,0.000,-176.48932,0.000*66
$GPGGA,070527.60,3542.293895090,N,13943.287692244,E,1,19,0.97,26.339,M,36.996,M,,*6E
$PMSBATV,070527.60,0,0,0.00000,0.00000,0.00000,0.000,0.000,0.000,-176.48932,0.000*65
$GPGGA,070527.70,3542.293901090,N,13943.287692244,E,1,19,0.97,26.340,M,36.996,M,,*6D
$PMSBATV,070527.70,0,0,0.00000,0.00000,0.00000,0.000,0.000,0.000,-176.48932,0.000*64
$GPGGA,070527.80,3542.293895090,N,13943.287692244,E,1,19,0.97,26.341,M,36.996,M,,*6F
$PMSBATV,070527.80,0,0,0.00000,0.00000,0.00000,0.000,0.000,0.000,-176.48932,0.000*6B
$GPGGA,070527.90,3542.293895090,N,13943.287692244,E,1,19,0.97,26.347,M,36.996,M,,*68
$PMSBATV,070527.90,0,0,0.00000,0.00000,0.00000,0.000,0.000,0.000,-176.48932,0.000*6A
$GPGGA,070528.00,3542.293895090,N,13943.287692244,E,1,18,1.03,26.341,M,36.996,M,,*65
$PMSBATV,070528.00,0,0,0.00000,0.00000,0.00000,0.000,0.000,0.000,-176.48932,0.000*6C
$GPGGA,070528.10,3542.293895090,N,13943.287692244,E,1,18,1.03,26.346,M,36.996,M,,*63
$PMSBATV,070528.10,0,0,0.00000,0.00000,0.00000,0.000,0.000,0.000,-176.48932,0.000*6D
$GPGGA,070528.20,3542.293895090,N,13943.287692244,E,1,18,1.03,26.352,M,36.996,M,,*65
$PMSBATV,070528.20,0,0,0.00000,0.00000,0.00000,0.000,0.000,0.000,-176.48932,0.000*6E
$GPGGA,070528.30,3542.293895090,N,13943.287692244,E,1,18,1.03,26.344,M,36.996,M,,*63
$PMSBATV,070528.30,0,0,0.00000,0.00000,0.00000,0.000,0.000,0.000,-176.48932,0.000*6F
$GPGGA,070528.40,3542.293895090,N,13943.287692244,E,1,18,1.03,26.351,M,36.996,M,,*60
$PMSBATV,070528.40,0,0,0.00000,0.00000,0.00000,0.000,0.000,0.000,-176.48932,0.000*68
$GPGGA,070528.50,3542.293895090,N,13943.287692244,E,1,18,1.03,26.354,M,36.996,M,,*64
$PMSBATV,070528.50,0,0,0.00000,0.00000,0.00000,0.000,0.000,0.000,-176.48932,0.000*69
$GPGGA,070528.60,3542.293895090,N,13943.287692244,E,1,18,1.03,26.354,M,36.996,M,,*67
$PMSBATV,070528.60,0,0,0.00000,0.00000,0.00000,0.000,0.000,0.000,-176.48932,0.000*6A
$GPGGA,070528.70,3542.293895090,N,13943.287692244,E,1,18,1.03,26.357,M,36.996,M,,*65
$PMSBATV,070528.70,0,0,0.00000,0.00000,0.00000,0.000,0.000,0.000,-176.48932,0.000*6B
$GPGGA,070528.80,3542.293895090,N,13943.287692244,E,1,18,1.03,26.363,M,36.996,M,,*6D
$PMSBATV,070528.80,0,0,0.00000,0.00000,0.00000,0.000,0.000,0.000,-176.48932,0.000*64
$GPGGA,070528.90,3542.293895090,N,13943.287692244,E,1,18,1.03,26.362,M,36.996,M,,*6D
$PMSBATV,070528.90,0,0,0.00000,0.00000,0.00000,0.000,0.000,0.000,-176.48932,0.000*65
$GPGGA,070529.00,3542.293895090,N,13943.287692244,E,1,18,1.03,26.366,M,36.996,M,,*61
$PMSBATV,070529.00,0,0,0.00000,0.00000,0.00000,0.000,0.000,0.000,-176.48932,0.000*6D
$GPGGA,070529.10,3542.293895090,N,13943.287692244,E,1,18,1.03,26.371,M,36.996,M,,*66
$PMSBATV,070529.10,0,0,0.00000,0.00000,0.00000,0.000,0.000,0.000,-176.48932,0.000*6C
$GPGGA,070529.20,3542.293895090,N,13943.287692244,E,1,18,1.03,26.373,M,36.996,M,,*67
$PMSBATV,070529.20,0,0,0.00000,0.00000,0.00000,0.000,0.000,0.000,-176.48932,0.000*6F
$GPGGA,070529.30,3542.293895090,N,13943.287692244,E,1,18,1.03,26.366,M,36.996,M,,*62
$PMSBATV,070529.30,0,0,0.00000,0.00000,0.00000,0.000,0.000,0.000,-176.48932,0.000*6E
$GPGGA,070529.40,3542.293895090,N,13943.287692244,E,1,18,1.03,26.370,M,36.996,M,,*62
$PMSBATV,070529.40,0,0,0.00000,0.00000,0.00000,0.000,0.000,0.000,-176.48932,0.000*69
$GPGGA,070529.50,3542.293895090,N,13943.287692244,E,1,18,1.03,26.375,M,36.996,M,,*66
$PMSBATV,070529.50,0,0,0.00000,0.00000,0.00000,0.000,0.000,0.000,-176.48932,0.000*68
$GPGGA,070529.60,3542.293895090,N,13943.287692244,E,1,18,1.03,26.376,M,36.996,M,,*66
$PMSBATV,070529.60,0,0,0.00000,0.00000,0.00000,0.000,0.000,0.000,-176.48932,0.000*6B
$GPGGA,070529.70,3542.293895090,N,13943.287692244,E,1,18,1.03,26.382,M,36.996,M,,*6C
$PMSBATV,070529.70,0,0,0.00000,0.00000,0.00000,0.000,0.000,0.000,-176.48932,0.000*6A
$GPGGA,070529.80,3542.293895090,N,13943.287692244,E,1,18,1.03,26.382,M,36.996,M,,*63
$PMSBATV,070529.80,0,0,0.00000,0.00000,0.00000,0.000,0.000,0.000,-176.48932,0.000*65
$GPGGA,070529.90,3542.293895090,N,13943.287692244,E,1,18,1.03,26.383,M,36.996,M,,*63
$PMSBATV,070529.90,0,0,0.00000,0.00000,0.00000,0.000,0.000,0.000,-176.48932,0.000*64
$GPGGA,070530.00,3542.293895090,N,13943.287692244,E,1,19,0.97,26.383,M,36.996,M,,*6F
$PMSBATV,070530.00,0,0,0.00000,0.00000,0.00000,0.000,0.000,0.000,-176.48932,0.000*65
$GPGGA,070530.10,3542.293895090,N,13943.287692244,E,1,19,0.97,26.386,M,36.996,M,,*6B
$PMSBATV,070530.10,0,0,0.00000,0.00000,0.00000,0.000,0.000,0.000,-176.48932,0.000*64
$GPGGA,070530.20,3542.293895090,N,13943.287692244,E,1,19,0.97,26.387,M,36.996,M,,*69
$PMSBATV,070530.20,0,0,0.00000,0.00000,0.00000,0.000,0.000,0.000,-176.48932,0.000*67
$GPGGA,070530.30,3542.293895090,N,13943.287692244,E,1,19,0.97,26.394,M,36.996,M,,*6A
$PMSBATV,070530.30,0,0,0.00000,0.00000,0.00000,0.000,0.000,0.000,-176.48932,0.000*66
$GPGGA,070530.40,3542.293895090,N,13943.287692244,E,1,19,0.97,26.393,M,36.996,M,,*6A
$PMSBATV,070530.40,0,0,0.00000,0.00000,0.00000,0.000,0.000,0.000,-176.48932,0.000*61
$GPGGA,070530.50,3542.293895090,N,13943.287692244,E,1,19,0.97,26.397,M,36.996,M,,*6F
$PMSBATV,070530.50,0,0,0.00000,0.00000,0.00000,0.000,0.000,0.000,-176.48932,0.000*60
$GPGGA,070530.60,3542.293895090,N,13943.287692244,E,1,19,0.97,26.402,M,36.996,M,,*67
$PMSBATV,070530.60,0,0,0.00000,0.00000,0.00000,0.000,0.000,0.000,-176.48932,0.000*63
$GPGGA,070530.70,3542.293895090,N,13943.287692244,E,1,19,0.97,26.408,M,36.996,M,,*6C
$PMSBATV,070530.70,0,0,0.00000,0.00000,0.00000,0.000,0.000,0.000,-176.48932,0.000*62
$GPGGA,070530.80,3542.293895090,N,13943.287692244,E,1,19,0.97,26.410,M,36.996,M,,*6A
$PMSBATV,070530.80,0,0,0.00000,0.00000,0.00000,0.000,0.000,0.000,-176.48932,0.000*6D
$GPGGA,070530.90,3542.293895090,N,13943.287692244,E,1,19,0.97,26.413,M,36.996,M,,*68
$PMSBATV,070530.90,0,0,0.00000,0.00000,0.00000,0.000,0.000,0.000,-176.48932,0.000*6C
$GPGGA,070531.00,3542.293895090,N,13943.287692244,E,1,19,0.97,26.419,M,36.996,M,,*6A
$PMSBATV,070531.00,0,0,0.00000,0.00000,0.00000,0.000,0.000,0.000,-176.48932,0.000*64
$GPGGA,070531.10,3542.293889090,N,13943.287692244,E,1,19,0.97,26.429,M,36.996,M,,*65
$PMSBATV,070531.10,0,0,0.00000,0.00000,0.00000,0.000,0.000,0.000,-176.48932,0.000*65
$GPGGA,070531.20,3542.293895090,N,13943.287692244,E,1,19,0.97,26.425,M,36.996,M,,*67
$PMSBATV,070531.20,0,0,0.00000,0.00000,0.00000,0.000,0.000,0.000,-176.48932,0.000*66
$GPGGA,070531.30,3542.293895090,N,13943.287692244,E,1,19,0.97,26.436,M,36.996,M,,*64
$PMSBATV,070531.30,0,0,0.00000,0.00000,0.00000,0.000,0.000,0.000,-176.48932,0.000*67
$GPGGA,070531.40,3542.293889090,N,13943.287692244,E,1,19,0.97,26.433,M,36.996,M,,*6B
$PMSBATV,070531.40,0,0,0.00000,0.00000,0.00000,0.000,0.000,0.000,-176.48932,0.000*60
$GPGGA,070531.50,3542.293889090,N,13943.287692244,E,1,19,0.97,26.446,M,36.996,M,,*68
$PMSBATV,070531.50,0,0,0.00000,0.00000,0.00000,0.000,0.000,0.000,-176.48932,0.000*61
$GPGGA,070531.60,3542.293889090,N,13943.287692244,E,1,19,0.97,26.445,M,36.996,M,,*68
$PMSBATV,070531.60,0,0,0.00000,0.00000,0.00000,0.000,0.000,0.000,-176.48932,0.000*62
$GPGGA,070531.70,3542.293889090,N,13943.287692244,E,1,19,0.97,26.452,M,36.996,M,,*6F
$PMSBATV,070531.70,0,0,0.00000,0.00000,0.00000,0.000,0.000,0.000,-176.48932,0.000*63
$GPGGA,070531.80,3542.293889090,N,13943.287692244,E,1,19,0.97,26.457,M,36.996,M,,*65
$PMSBATV,070531.80,0,0,0.00000,0.00000,0.00000,0.000,0.000,0.000,-176.48932,0.000*6C
$GPGGA,070531.90,3542.293889090,N,13943.287692244,E,1,19,0.97,26.455,M,36.996,M,,*66
$PMSBATV,070531.90,0,0,0.00000,0.00000,0.00000,0.000,0.000,0.000,-176.48932,0.000*6D
$GPGGA,070532.00,3542.293889090,N,13943.287692244,E,1,19,0.97,26.461,M,36.996,M,,*6B
$PMSBATV,070532.00,0,0,0.00000,0.00000,0.00000,0.000,0.000,0.000,-176.48932,0.000*67
$GPGGA,070532.10,3542.293889090,N,13943.287692244,E,1,19,0.97,26.464,M,36.996,M,,*6F
$PMSBATV,070532.10,0,0,0.00000,0.00000,0.00000,0.000,0.000,0.000,-176.48932,0.000*66
$GPGGA,070532.20,3542.293889090,N,13943.287692244,E,1,19,0.97,26.465,M,36.996,M,,*6D
$PMSBATV,070532.20,0,0,0.00000,0.00000,0.00000,0.000,0.000,0.000,-176.48932,0.000*65
$GPGGA,070532.30,3542.293889090,N,13943.287692244,E,1,19,0.97,26.473,M,36.996,M,,*6B
$PMSBATV,070532.30,0,0,0.00000,0.00000,0.00000,0.000,0.000,0.000,-176.48932,0.000*64
$GPGGA,070532.40,3542.293889090,N,13943.287692244,E,1,19,0.97,26.476,M,36.996,M,,*69
$PMSBATV,070532.40,0,0,0.00000,0.00000,0.00000,0.000,0.000,0.000,-176.48932,0.000*63
$GPGGA,070532.50,3542.293889090,N,13943.287692244,E,1,19,0.97,26.482,M,36.996,M,,*63
$PMSBATV,070532.50,0,0,0.00000,0.00000,0.00000,0.000,0.000,0.000,-176.48932,0.000*62
$GPGGA,070532.60,3542.293889090,N,13943.287692244,E,1,19,0.97,26.489,M,36.996,M,,*6B
$PMSBATV,070532.60,0,0,0.00000,0.00000,0.00000,0.000,0.000,0.000,-176.48932,0.000*61
$GPGGA,070532.70,3542.293889090,N,13943.287692244,E,1,19,0.97,26.487,M,36.996,M,,*64
$PMSBATV,070532.70,0,0,0.00000,0.00000,0.00000,0.000,0.000,0.000,-176.48932,0.000*60
$GPGGA,070532.80,3542.293889090,N,13943.287692244,E,1,19,0.97,26.497,M,36.996,M,,*6A
$PMSBATV,070532.80,0,0,0.00000,0.00000,0.00000,0.000,0.000,0.000,-176.48932,0.000*6F
$GPGGA,070532.90,3542.293889090,N,13943.287692244,E,1,19,0.97,26.500,M,36.996,M,,*64
$PMSBATV,070532.90,0,0,0.00000,0.00000,0.00000,0.000,0.000,0.000,-176.48932,0.000*6E
$GPGGA,070533.00,3542.293889090,N,13943.287692244,E,1,19,0.97,26.503,M,36.996,M,,*6F
$PMSBATV,070533.00,0,0,0.00000,0.00000,0.00000,0.000,0.000,0.000,-176.48932,0.000*66
$GPGGA,070533.10,3542.293883090,N,13943.287692244,E,1,19,0.97,26.509,M,36.996,M,,*6E
$PMSBATV,070533.10,0,0,0.00000,0.00000,0.00000,0.000,0.000,0.000,-176.48932,0.000*67
$GPGGA,070533.20,3542.293883090,N,13943.287692244,E,1,18,1.03,26.511,M,36.996,M,,*69
$PMSBATV,070533.20,0,0,0.00000,0.00000,0.00000,0.000,0.000,0.000,-176.48932,0.000*64
$GPGGA,070533.30,3542.293883090,N,13943.287692244,E,1,20,0.92,26.522,M,36.996,M,,*6A
$PMSBATV,070533.30,0,0,0.00000,0.00000,0.00000,0.000,0.000,0.000,-176.48932,0.000*65
$GPGGA,070533.40,3542.293883090,N,13943.287692244,E,1,18,1.03,26.534,M,36.996,M,,*68
$PMSBATV,070533.40,0,0,0.00000,0.00000,0.00000,0.000,0.000,0.000,-176.48932,0.000*62
$GPGGA,070533.50,3542.293883090,N,13943.287692244,E,1,19,0.97,26.543,M,36.996,M,,*64
$PMSBATV,070533.50,0,0,0.00000,0.00000,0.00000,0.000,0.000,0.000,-176.48932,0.000*63
$GPGGA,070533.60,3542.293883090,N,13943.287692244,E,1,19,0.97,26.546,M,36.996,M,,*62
$PMSBATV,070533.60,0,0,0.00000,0.00000,0.00000,0.000,0.000,0.000,-176.48932,0.000*60
$GPGGA,070533.70,3542.293883090,N,13943.287692244,E,1,19,0.97,26.551,M,36.996,M,,*65
$PMSBATV,070533.70,0,0,0.00000,0.00000,0.00000,0.000,0.000,0.000,-176.48932,0.000*61
$GPGGA,070533.80,3542.293883090,N,13943.287692244,E,1,19,0.97,26.551,M,36.996,M,,*6A
$PMSBATV,070533.80,0,0,0.00000,0.00000,0.00000,0.000,0.000,0.000,-176.48932,0.000*6E
$GPGGA,070533.90,3542.293883090,N,13943.287692244,E,1,20,0.92,26.559,M,36.996,M,,*6C
$PMSBATV,070533.90,0,0,0.00000,0.00000,0.00000,0.000,0.000,0.000,-176.48932,0.000*6F
$GPGGA,070534.00,3542.293883090,N,13943.287692244,E,1,19,0.97,26.562,M,36.996,M,,*65
$PMSBATV,070534.00,0,0,0.00000,0.00000,0.00000,0.000,0.000,0.000,-176.48932,0.000*61
$GPGGA,070534.10,3542.293883090,N,13943.287692244,E,1,20,0.92,26.575,M,36.996,M,,*6D
$PMSBATV,070534.10,0,0,0.00000,0.00000,0.00000,0.000,0.000,0.000,-176.48932,0.000*60
$GPGGA,070534.20,3542.293883090,N,13943.287686244,E,1,19,0.97,26.577,M,36.996,M,,*66
$PMSBATV,070534.20,0,0,0.00000,0.00000,0.00000,0.000,0.000,0.000,-176.48932,0.000*63
$GPGGA,070534.30,3542.293883090,N,13943.287692244,E,1,19,0.97,26.577,M,36.996,M,,*62
$PMSBATV,070534.30,0,0,0.00000,0.00000,0.00000,0.000,0.000,0.000,-176.48932,0.000*62
$GPGGA,070534.40,3542.293883090,N,13943.287692244,E,1,19,0.97,26.587,M,36.996,M,,*6A
$PMSBATV,070534.40,0,0,0.00000,0.00000,0.00000,0.000,0.000,0.000,-176.48932,0.000*65
$GPGGA,070534.50,3542.293883090,N,13943.287692244,E,1,19,0.97,26.588,M,36.996,M,,*64
$PMSBATV,070534.50,0,0,0.00000,0.00000,0.00000,0.000,0.000,0.000,-176.48932,0.000*64
$GPGGA,070534.60,3542.293883090,N,13943.287692244,E,1,19,0.97,26.595,M,36.996,M,,*6B
$PMSBATV,070534.60,0,0,0.00000,0.00000,0.00000,0.000,0.000,0.000,-176.48932,0.000*67
$GPGGA,070534.70,3542.293883090,N,13943.287686244,E,1,19,0.97,26.602,M,36.996,M,,*62
$PMSBATV,070534.70,0,0,0.00000,0.00000,0.00000,0.000,0.000,0.000,-176.48932,0.000*66
$GPGGA,070534.80,3542.293883090,N,13943.287692244,E,1,19,0.97,26.603,M,36.996,M,,*69
$PMSBATV,070534.80,0,0,0.00000,0.00000,0.00000,0.000,0.000,0.000,-176.48932,0.000*69
$GPGGA,070534.90,3542.293883090,N,13943.287692244,E,1,19,0.97,26.609,M,36.996,M,,*62
$PMSBATV,070534.90,0,0,0.00000,0.00000,0.00000,0.000,0.000,0.000,-176.48932,0.000*68
$GPGGA,070535.00,3542.293883090,N,13943.287692244,E,1,20,0.92,26.617,M,36.996,M,,*6A
$PMSBATV,070535.00,0,0,0.00000,0.00000,0.00000,0.000,0.000,0.000,-176.48932,0.000*60
$GPGGA,070535.10,3542.293883090,N,13943.287686244,E,1,20,0.92,26.626,M,36.996,M,,*6C
$PMSBATV,070535.10,0,0,0.00000,0.00000,0.00000,0.000,0.000,0.000,-176.48932,0.000*61
$GPGGA,070535.20,3542.293877090,N,13943.287692244,E,1,20,0.92,26.629,M,36.996,M,,*6E
$PMSBATV,070535.20,0,0,0.00000,0.00000,0.00000,0.000,0.000,0.000,-176.48932,0.000*62
$GPGGA,070535.30,3542.293877090,N,13943.287692244,E,1,20,0.92,26.632,M,36.996,M,,*65
$PMSBATV,070535.30,0,0,0.00000,0.00000,0.00000,0.000,0.000,0.000,-176.48932,0.000*63
$GPGGA,070535.40,3542.293877090,N,13943.287692244,E,1,20,0.92,26.644,M,36.996,M,,*63
$PMSBATV,070535.40,0,0,0.00000,0.00000,0.00000,0.000,0.000,0.000,-176.48932,0.000*64
$GPGGA,070535.50,3542.293877090,N,13943.287692244,E,1,20,0.92,26.644,M,36.996,M,,*62
$PMSBATV,070535.50,0,0,0.00000,0.00000,0.00000,0.000,0.000,0.000,-176.48932,0.000*65
$GPGGA,070535.60,3542.293877090,N,13943.287692244,E,1,20,0.92,26.657,M,36.996,M,,*63
$PMSBATV,070535.60,0,0,0.00000,0.00000,0.00000,0.000,0.000,0.000,-176.48932,0.000*66
$GPGGA,070535.70,3542.293877090,N,13943.287692244,E,1,20,0.92,26.662,M,36.996,M,,*64
$PMSBATV,070535.70,0,0,0.00000,0.00000,0.00000,0.000,0.000,0.000,-176.48932,0.000*67
$GPGGA,070535.80,3542.293877090,N,13943.287692244,E,1,20,0.92,26.664,M,36.996,M,,*6D
$PMSBATV,070535.80,0,0,0.00000,0.00000,0.00000,0.000,0.000,0.000,-176.48932,0.000*68
$GPGGA,070535.90,3542.293877090,N,13943.287692244,E,1,20,0.92,26.669,M,36.996,M,,*61
$PMSBATV,070535.90,0,0,0.00000,0.00000,0.00000,0.000,0.000,0.000,-176.48932,0.000*69
$GPGGA,070536.00,3542.293877090,N,13943.287692244,E,1,20,0.92,26.678,M,36.996,M,,*6B
$PMSBATV,070536.00,0,0,0.00000,0.00000,0.00000,0.000,0.000,0.000,-176.48932,0.000*63
$GPGGA,070536.10,3542.293877090,N,13943.287692244,E,1,20,0.92,26.685,M,36.996,M,,*68
$PMSBATV,070536.10,0,0,0.00000,0.00000,0.00000,0.000,0.000,0.000,-176.48932,0.000*62
$GPGGA,070536.20,3542.293877090,N,13943.287692244,E,1,20,0.92,26.682,M,36.996,M,,*6C
$PMSBATV,070536.20,0,0,0.00000,0.00000,0.00000,0.000,0.000,0.000,-176.48932,0.000*61
$GPGGA,070536.30,3542.293877090,N,13943.287692244,E,1,20,0.92,26.692,M,36.996,M,,*6C
$PMSBATV,070536.30,0,0,0.00000,0.00000,0.00000,0.000,0.000,0.000,-176.48932,0.000*60
$GPGGA,070536.40,3542.293877090,N,13943.287692244,E,1,20,0.92,26.702,M,36.996,M,,*63
$PMSBATV,070536.40,0,0,0.00000,0.00000,0.00000,0.000,0.000,0.000,-176.48932,0.000*67
$GPGGA,070536.50,3542.293877090,N,13943.287692244,E,1,20,0.92,26.709,M,36.996,M,,*69
$PMSBATV,070536.50,0,0,0.00000,0.00000,0.00000,0.000,0.000,0.000,-176.48932,0.000*66
$GPGGA,070536.60,3542.293877090,N,13943.287692244,E,1,20,0.92,26.711,M,36.996,M,,*63
$PMSBATV,070536.60,0,0,0.00000,0.00000,0.00000,0.000,0.000,0.000,-176.48932,0.000*65
$GPGGA,070536.70,3542.293871090,N,13943.287686244,E,1,20,0.92,26.722,M,36.996,M,,*61
$PMSBATV,070536.70,0,0,0.00000,0.00000,0.00000,0.000,0.000,0.000,-176.48932,0.000*64
$GPGGA,070536.80,3542.293871090,N,13943.287686244,E,1,20,0.92,26.727,M,36.996,M,,*6B
$PMSBATV,070536.80,0,0,0.00000,0.00000,0.00000,0.000,0.000,0.000,-176.48932,0.000*6B
$GPGGA,070536.90,3542.293877090,N,13943.287686244,E,1,20,0.92,26.730,M,36.996,M,,*6A
$PMSBATV,070536.90,0,0,0.00000,0.00000,0.00000,0.000,0.000,0.000,-176.48932,0.000*6A
$GPGGA,070537.00,3542.293871090,N,13943.287686244,E,1,20,0.92,26.734,M,36.996,M,,*60
$PMSBATV,070537.00,0,0,0.00000,0.00000,0.00000,0.000,0.000,0.000,-176.48932,0.000*62
$GPGGA,070537.10,3542.293871090,N,13943.287686244,E,1,20,0.92,26.742,M,36.996,M,,*60
$PMSBATV,070537.10,0,0,0.00000,0.00000,0.00000,0.000,0.000,0.000,-176.48932,0.000*63
$GPGGA,070537.20,3542.293871090,N,13943.287686244,E,1,20,0.92,26.749,M,36.996,M,,*68
$PMSBATV,070537.20,0,0,0.00000,0.00000,0.00000,0.000,0.000,0.000,-176.48932,0.000*60
$GPGGA,070537.30,3542.293871090,N,13943.287686244,E,1,20,0.92,26.757,M,36.996,M,,*66
$PMSBATV,070537.30,0,0,0.00000,0.00000,0.00000,0.000,0.000,0.000,-176.48932,0.000*61
$GPGGA,070537.40,3542.293871090,N,13943.287686244,E,1,20,0.92,26.762,M,36.996,M,,*67
$PMSBATV,070537.40,0,0,0.00000,0.00000,0.00000,0.000,0.000,0.000,-176.48932,0.000*66
$GPGGA,070537.50,3542.293871090,N,13943.287686244,E,1,20,0.92,26.767,M,36.996,M,,*63
$PMSBATV,070537.50,0,0,0.00000,0.00000,0.00000,0.000,0.000,0.000,-176.48932,0.000*67
$GPGGA,070537.60,3542.293871090,N,13943.287686244,E,1,20,0.92,26.773,M,36.996,M,,*65
$PMSBATV,070537.60,0,0,0.00000,0.00000,0.00000,0.000,0.000,0.000,-176.48932,0.000*64
$GPGGA,070537.70,3542.293871090,N,13943.287686244,E,1,20,0.92,26.777,M,36.996,M,,*60
