$GPGGA,073805.10,3540.278115325,N,13954.292430916,E,5,03,99.90,-1943.145,M,36.070,M,3.1,3007*56
$PMSBATV,073805.10,2,2,0.58048,0.93565,-121.80298,-0.027,-0.008,0.000,-106.89502,0.000*4D
$GPGGA,073805.20,3540.278115666,N,13954.292432373,E,5,03,99.90,-1943.145,M,36.070,M,3.2,3007*5F
$PMSBATV,073805.20,2,2,0.58208,0.93392,-121.80078,-0.025,-0.007,-0.000,-106.89502,0.000*6A
$GPGGA,073805.30,3540.278115963,N,13954.292433650,E,5,03,99.90,-1943.145,M,36.070,M,3.3,3007*50
$PMSBATV,073805.30,2,2,0.58146,0.92993,-121.80086,-0.021,-0.006,0.000,-106.89502,0.000*41
$GPGGA,073805.40,3540.278116226,N,13954.292434760,E,5,03,99.90,-1943.145,M,36.070,M,3.4,3007*5C
$PMSBATV,073805.40,2,2,0.58563,0.93222,-121.79980,-0.018,-0.005,0.000,-106.89502,0.000*45
$GPGGA,073805.50,3540.278116449,N,13954.292435685,E,5,03,99.90,-1943.145,M,36.070,M,3.5,3007*58
$PMSBATV,073805.50,2,2,0.58696,0.92951,-121.80093,-0.015,-0.004,0.000,-106.89502,0.000*42
$GPGGA,073805.60,3540.278116632,N,13954.292436441,E,5,03,99.90,-1943.145,M,36.070,M,3.6,3007*5F
$PMSBATV,073805.60,2,2,0.58603,0.92792,-121.80369,-0.012,-0.003,0.000,-106.89502,0.000*4A
$GPGGA,073805.70,3540.278116783,N,13954.292437037,E,5,03,99.90,-1943.145,M,36.070,M,3.7,3007*50
$PMSBATV,073805.70,2,2,0.58913,0.92131,-121.80607,-0.009,-0.003,0.000,-106.89502,0.000*4D
$GPGGA,073805.80,3540.278116899,N,13954.292437484,E,5,03,99.90,-1943.145,M,36.070,M,3.8,3007*58
$PMSBATV,073805.80,2,2,0.59585,0.92197,-121.80550,-0.006,-0.002,-0.000,-106.89502,0.000*6E
$GPGGA,073805.90,3540.278116958,N,13954.292437749,E,5,03,99.90,-1943.145,M,36.070,M,3.9,3007*56
$PMSBATV,073805.90,2,2,0.59319,0.92126,-121.80735,-0.003,-0.001,-0.000,-106.89502,0.000*61
$GPGGA,073806.00,3540.278116985,N,13954.292437842,E,5,03,99.90,-1943.145,M,36.070,M,4.0,3007*56
$PMSBATV,073806.00,2,2,0.59532,0.92107,-121.80745,-0.000,-0.000,0.000,-106.89502,0.000*4F
$GPGGA,073806.10,3540.278116974,N,13954.292437789,E,5,03,99.90,-1943.145,M,36.070,M,4.1,3007*50
$PMSBATV,073806.10,2,2,0.59578,0.91771,-121.80785,0.002,0.001,0.000,-106.89502,0.000*4B
$GPGGA,073806.20,3540.278116933,N,13954.292437592,E,5,03,99.90,-1943.145,M,36.070,M,4.2,3007*5B
$PMSBATV,073806.20,2,2,0.59655,0.91298,-121.81005,0.005,0.001,0.000,-106.89502,0.000*4F
$GPGGA,073806.30,3540.278116842,N,13954.292437241,E,5,03,99.90,-1943.145,M,36.070,M,4.3,3007*55
$PMSBATV,073806.30,2,2,0.59580,0.90913,-121.80755,0.008,0.002,0.000,-106.89502,0.000*41
$GPGGA,073806.40,3540.278116718,N,13954.292436719,E,5,03,99.90,-1943.145,M,36.070,M,4.4,3007*5C
$PMSBATV,073806.40,2,2,0.59780,0.90583,-121.80655,0.011,0.003,0.000,-106.89502,0.000*49
$GPGGA,073806.50,3540.278116556,N,13954.292436055,E,5,03,99.90,-1943.145,M,36.070,M,4.5,3007*5B
$PMSBATV,073806.50,2,2,0.59729,0.90752,-121.80444,0.014,0.004,-0.000,-106.89502,0.000*68
$GPGGA,073806.60,3540.278116360,N,13954.292435209,E,5,03,99.90,-1943.145,M,36.070,M,4.6,3007*50
$PMSBATV,073806.60,2,2,0.59694,0.90871,-121.80565,0.016,0.005,0.000,-106.89502,0.000*4E
$GPGGA,073806.70,3540.278116114,N,13954.292434231,E,5,03,99.90,-1943.145,M,36.070,M,4.7,3007*5B
$PMSBATV,073806.70,2,2,0.59746,0.90531,-121.79961,0.019,0.005,0.000,-106.89502,0.000*49
$GPGGA,073806.80,3540.278115854,N,13954.292433101,E,5,03,99.90,-1943.145,M,36.070,M,4.8,3007*52
$PMSBATV,073806.80,2,2,0.59835,0.90318,-121.80137,0.021,0.006,0.000,-106.89502,0.000*45
$GPGGA,073806.90,3540.278115557,N,13954.292431855,E,5,03,99.90,-1943.145,M,36.070,M,4.9,3007*56
$PMSBATV,073806.90,2,2,0.59701,0.90713,-121.79871,0.024,0.007,-0.000,-106.89502,0.000*67
$GPGGA,073807.00,3540.278115236,N,13954.292430472,E,5,03,99.90,-1943.145,M,36.070,M,5.0,3007*5E
$PMSBATV,073807.00,2,2,0.59868,0.90865,-121.79891,0.026,0.007,0.000,-106.89502,0.000*40
$GPGGA,073807.10,3540.278114870,N,13954.292428966,E,5,02,99.90,-1943.145,M,36.070,M,5.1,3007*57
$PMSBATV,073807.10,2,2,0.59518,0.90721,-121.79699,0.028,0.008,0.000,-106.89502,0.000*43
$GPGGA,073807.20,3540.278114481,N,13954.292427338,E,5,02,99.90,-1943.145,M,36.070,M,5.2,3007*5B
$PMSBATV,073807.20,2,2,0.59023,0.90357,-121.79697,0.030,0.008,0.000,-106.89502,0.000*4F
$GPGGA,073807.30,3540.278114072,N,13954.292425633,E,5,02,99.90,-1943.145,M,36.070,M,5.3,3007*5F
$PMSBATV,073807.30,2,2,0.58927,0.90806,-121.79367,0.032,0.009,-0.000,-106.89502,0.000*69
$GPGGA,073807.40,3540.278113649,N,13954.292423791,E,5,02,99.90,-1943.145,M,36.070,M,5.4,3007*59
$PMSBATV,073807.40,2,2,0.59359,0.90981,-121.79365,0.034,0.009,0.000,-106.89502,0.000*4B
$GPGGA,073807.50,3540.278113199,N,13954.292421839,E,5,02,99.90,-1943.145,M,36.070,M,5.5,3007*5C
$PMSBATV,073807.50,2,2,0.59399,0.91054,-121.79540,0.036,0.010,0.000,-106.89502,0.000*4D
$GPGGA,073807.60,3540.278112721,N,13954.292419788,E,5,02,99.90,-1943.145,M,36.070,M,5.6,3007*56
$PMSBATV,073807.60,2,2,0.59273,0.91131,-121.79826,0.038,0.011,-0.000,-106.89502,0.000*66
$GPGGA,073807.70,3540.278112218,N,13954.292417602,E,5,02,99.90,-1943.145,M,36.070,M,5.7,3007*54
$PMSBATV,073807.70,2,2,0.59143,0.90875,-121.80258,0.040,0.011,0.000,-106.89502,0.000*48
$GPGGA,073807.80,3540.278111684,N,13954.292415323,E,5,02,99.90,-1943.145,M,36.070,M,5.8,3007*52
$PMSBATV,073807.80,2,2,0.58850,0.90867,-121.80359,0.042,0.012,0.000,-106.89502,0.000*4F
$GPGGA,073807.90,3540.278111128,N,13954.292412969,E,5,02,99.90,-1943.145,M,36.070,M,5.9,3007*50
$PMSBATV,073807.90,2,2,0.58491,0.91100,-121.80393,0.043,0.012,0.000,-106.89502,0.000*41
$GPGGA,073808.00,3540.278110538,N,13954.292410516,E,5,02,99.90,-1943.145,M,36.070,M,6.0,3007*5E
$PMSBATV,073808.00,2,2,0.58232,0.91099,-121.80092,0.045,0.013,0.000,-106.89502,0.000*4C
$GPGGA,073808.10,3540.278109934,N,13954.292407971,E,5,03,99.90,-1943.145,M,36.070,M,1.1,3007*5B
$PMSBATV,073808.10,2,2,0.58018,0.90417,-121.80010,0.046,0.013,0.000,-106.89502,0.000*4D
$GPGGA,073808.20,3540.278109318,N,13954.292405366,E,5,03,99.90,-1943.145,M,36.070,M,1.2,3007*51
$PMSBATV,073808.20,2,2,0.58293,0.90411,-121.79564,0.048,0.013,0.000,-106.89502,0.000*47
$GPGGA,073808.30,3540.278108683,N,13954.292402679,E,5,03,99.90,-1943.145,M,36.070,M,1.3,3007*5B
$PMSBATV,073808.30,2,2,0.58451,0.90672,-121.79353,0.049,0.014,0.000,-106.89502,0.000*4D
$GPGGA,073808.40,3540.278108034,N,13954.292399915,E,5,03,99.90,-1943.145,M,36.070,M,1.4,3007*51
$PMSBATV,073808.40,2,2,0.57919,0.91285,-121.79498,0.051,0.014,0.000,-106.89502,0.000*40
$GPGGA,073808.50,3540.278107367,N,13954.292397066,E,5,03,99.90,-1943.145,M,36.070,M,1.5,3007*58
$PMSBATV,073808.50,2,2,0.57717,0.91517,-121.79526,0.052,0.014,0.000,-106.89502,0.000*4A
$GPGGA,073808.60,3540.278106694,N,13954.292394151,E,5,03,99.90,-1943.145,M,36.070,M,1.6,3007*56
$PMSBATV,073808.60,2,2,0.57869,0.91412,-121.79831,0.053,0.015,0.000,-106.89502,0.000*40
$GPGGA,073808.70,3540.278105992,N,13954.292391190,E,5,03,99.90,-1943.145,M,36.070,M,1.7,3007*54
$PMSBATV,073808.70,2,2,0.57639,0.91769,-121.79712,0.054,0.015,-0.000,-106.89502,0.000*61
$GPGGA,073808.80,3540.278105281,N,13954.292388147,E,5,03,99.90,-1943.144,M,36.070,M,1.8,3007*5E
$PMSBATV,073808.80,2,2,0.57707,0.91727,-121.79738,0.055,0.015,0.000,-106.89502,0.000*4C
$GPGGA,073808.90,3540.278104559,N,13954.292385053,E,5,03,99.90,-1943.144,M,36.070,M,1.9,3007*54
$PMSBATV,073808.90,2,2,0.58075,0.91748,-121.79660,0.056,0.016,0.000,-106.89502,0.000*45
$GPGGA,073809.00,3540.278103806,N,13954.292381907,E,5,03,99.90,-1943.144,M,36.070,M,2.0,3007*5A
$PMSBATV,073809.00,2,2,0.57647,0.92164,-121.79305,0.057,0.016,0.000,-106.89502,0.000*49
$GPGGA,073809.10,3540.278103048,N,13954.292378691,E,5,03,99.90,-1943.144,M,36.070,M,2.1,3007*5E
$PMSBATV,073809.10,2,2,0.57287,0.92443,-121.79241,0.058,0.016,0.000,-106.89502,0.000*4E
$GPGGA,073809.20,3540.278102284,N,13954.292375416,E,5,03,99.90,-1943.144,M,36.070,M,2.2,3007*5D
$PMSBATV,073809.20,2,2,0.57602,0.92744,-121.79157,0.060,0.017,-0.000,-106.89502,0.000*63
$GPGGA,073809.30,3540.278101494,N,13954.292372062,E,5,03,99.90,-1943.144,M,36.070,M,2.3,3007*59
$PMSBATV,073809.30,2,2,0.57495,0.93127,-121.79005,0.061,0.017,0.000,-106.89502,0.000*46
$GPGGA,073809.40,3540.278100698,N,13954.292368671,E,5,03,99.90,-1943.144,M,36.070,M,2.4,3007*59
$PMSBATV,073809.40,2,2,0.57500,0.93014,-121.79048,0.061,0.017,0.000,-106.89502,0.000*44
$GPGGA,073809.50,3540.278099886,N,13954.292365159,E,5,03,99.90,-1943.144,M,36.070,M,2.5,3007*59
$PMSBATV,073809.50,2,2,0.57593,0.92805,-121.79384,0.062,0.017,0.000,-106.89502,0.000*46
$GPGGA,073809.60,3540.278099083,N,13954.292361670,E,5,03,99.90,-1943.144,M,36.070,M,2.6,3007*5C
$PMSBATV,073809.60,2,2,0.58228,0.93317,-121.79500,0.063,0.018,0.000,-106.89502,0.000*40
$GPGGA,073809.70,3540.278098267,N,13954.292358160,E,5,03,99.90,-1943.144,M,36.070,M,2.7,3007*59
$PMSBATV,073809.70,2,2,0.58336,0.93358,-121.79689,0.063,0.018,0.000,-106.89502,0.000*46
$GPGGA,073809.80,3540.278097444,N,13954.292354611,E,5,03,99.90,-1943.144,M,36.070,M,2.8,3007*5C
$PMSBATV,073809.80,2,2,0.58076,0.93483,-121.80096,0.064,0.018,0.000,-106.89502,0.000*46
$GPGGA,073809.90,3540.278096612,N,13954.292351030,E,5,03,99.90,-1943.144,M,36.070,M,2.9,3007*5C
$PMSBATV,073809.90,2,2,0.58170,0.93913,-121.80244,0.065,0.018,0.000,-106.89502,0.000*48
$GPGGA,073810.00,3540.278095772,N,13954.292347418,E,5,03,99.90,-1943.144,M,36.070,M,3.0,3007*58
$PMSBATV,073810.00,2,2,0.58323,0.94443,-121.80345,0.065,0.018,0.000,-106.89502,0.000*42
$GPGGA,073810.10,3540.278094920,N,13954.292343781,E,5,03,99.90,-1943.144,M,36.070,M,3.1,3007*57
$PMSBATV,073810.10,2,2,0.58155,0.95339,-121.80320,0.066,0.018,0.000,-106.89502,0.000*4B
$GPGGA,073810.20,3540.278094048,N,13954.292340111,E,5,03,99.90,-1943.144,M,36.070,M,3.2,3007*5C
$PMSBATV,073810.20,2,2,0.57856,0.95273,-121.80145,0.066,0.019,0.000,-106.89502,0.000*42
$GPGGA,073810.30,3540.278093183,N,13954.292336399,E,5,03,99.90,-1943.144,M,36.070,M,3.3,3007*5E
$PMSBATV,073810.30,2,2,0.57804,0.95358,-121.80319,0.067,0.019,0.000,-106.89502,0.000*46
$GPGGA,073810.40,3540.278092302,N,13954.292332661,E,5,03,99.90,-1943.144,M,36.070,M,3.4,3007*52
$PMSBATV,073810.40,2,2,0.57491,0.95345,-121.80301,0.067,0.019,0.000,-106.89502,0.000*44
$GPGGA,073810.50,3540.278091429,N,13954.292328892,E,5,03,99.90,-1943.144,M,36.070,M,3.5,3007*56
$PMSBATV,073810.50,2,2,0.57489,0.94897,-121.80609,0.067,0.019,0.000,-106.89502,0.000*44
$GPGGA,073810.60,3540.278090543,N,13954.292325130,E,5,03,99.90,-1943.144,M,36.070,M,3.6,3007*56
$PMSBATV,073810.60,2,2,0.57655,0.95116,-121.80502,0.068,0.019,0.000,-106.89502,0.000*42
$GPGGA,073810.70,3540.278089653,N,13954.292321346,E,5,03,99.90,-1943.144,M,36.070,M,3.7,3007*5B
$PMSBATV,073810.70,2,2,0.57468,0.95360,-121.80504,0.068,0.019,-0.000,-106.89502,0.000*67
$GPGGA,073810.80,3540.278088758,N,13954.292317534,E,5,03,99.90,-1943.144,M,36.070,M,3.8,3007*56
$PMSBATV,073810.80,2,2,0.57087,0.95612,-121.80556,0.069,0.019,0.000,-106.89502,0.000*46
$GPGGA,073810.90,3540.278087858,N,13954.292313717,E,5,03,99.90,-1943.144,M,36.070,M,3.9,3007*51
$PMSBATV,073810.90,2,2,0.57053,0.95457,-121.80418,0.069,0.019,-0.000,-106.89502,0.000*6B
$GPGGA,073811.00,3540.278086971,N,13954.292309889,E,5,03,99.90,-1943.144,M,36.070,M,4.0,3007*5F
$PMSBATV,073811.00,2,2,0.57167,0.96166,-121.80747,0.069,0.019,0.000,-106.89502,0.000*45
$GPGGA,073811.10,3540.278086074,N,13954.292306040,E,5,03,99.90,-1943.144,M,36.070,M,4.1,3007*51
$PMSBATV,073811.10,2,2,0.57390,0.96506,-121.80820,0.070,0.019,0.000,-106.89502,0.000*4A
$GPGGA,073811.20,3540.278085159,N,13954.292302178,E,5,03,99.90,-1943.144,M,36.070,M,4.2,3007*52
$PMSBATV,073811.20,2,2,0.57025,0.96439,-121.80573,0.069,0.019,0.000,-106.89502,0.000*4A
$GPGGA,073811.30,3540.278084274,N,13954.292298352,E,5,03,99.90,-1943.144,M,36.070,M,4.3,3007*57
$PMSBATV,073811.30,2,2,0.57224,0.97355,-121.80757,0.069,0.019,0.000,-106.89502,0.000*40
$GPGGA,073811.40,3540.278083374,N,13954.292294529,E,5,03,99.90,-1943.144,M,36.070,M,4.4,3007*57
$PMSBATV,073811.40,2,2,0.56821,0.97516,-121.80802,0.069,0.019,0.000,-106.89502,0.000*47
$GPGGA,073811.50,3540.278082485,N,13954.292290701,E,5,03,99.90,-1943.144,M,36.070,M,4.5,3007*53
$PMSBATV,073811.50,2,2,0.57229,0.97316,-121.81023,0.068,0.019,0.000,-106.89502,0.000*48
$GPGGA,073811.60,3540.278081595,N,13954.292286895,E,5,03,99.90,-1943.144,M,36.070,M,4.6,3007*55
$PMSBATV,073811.60,2,2,0.57408,0.97399,-121.81040,0.069,0.019,0.000,-106.89502,0.000*4D
$GPGGA,073811.70,3540.278080693,N,13954.292283087,E,5,03,99.90,-1943.143,M,36.070,M,4.7,3007*58
$PMSBATV,073811.70,2,2,0.57398,0.97775,-121.80621,0.069,0.019,0.000,-106.89502,0.000*44
$GPGGA,073811.80,3540.278079807,N,13954.292279279,E,5,03,99.90,-1943.143,M,36.070,M,4.8,3007*5B
$PMSBATV,073811.80,2,2,0.57596,0.98544,-121.80663,0.068,0.019,-0.000,-106.89502,0.000*66
$GPGGA,073811.90,3540.278078921,N,13954.292275492,E,5,03,99.90,-1943.143,M,36.070,M,4.9,3007*50
$PMSBATV,073811.90,2,2,0.57402,0.99110,-121.80738,0.068,0.019,-0.000,-106.89502,0.000*60
$GPGGA,073812.00,3540.278078030,N,13954.292271734,E,5,03,99.90,-1943.143,M,36.070,M,5.0,3007*50
$PMSBATV,073812.00,2,2,0.57247,0.99276,-121.80454,0.067,0.019,0.000,-106.89502,0.000*45
$GPGGA,073812.10,3540.278077163,N,13954.292267999,E,5,02,99.90,-1943.143,M,36.070,M,5.1,3007*57
$PMSBATV,073812.10,2,2,0.57296,0.99399,-121.80755,0.067,0.019,0.000,-106.89502,0.000*4A
$GPGGA,073812.20,3540.278076289,N,13954.292264285,E,5,02,99.90,-1943.143,M,36.070,M,5.2,3007*54
$PMSBATV,073812.20,2,2,0.57232,0.99615,-121.80723,0.067,0.019,0.000,-106.89502,0.000*47
$GPGGA,073812.30,3540.278075418,N,13954.292260576,E,5,02,99.90,-1943.143,M,36.070,M,5.3,3007*56
$PMSBATV,073812.30,2,2,0.57138,0.99367,-121.80652,0.067,0.019,0.000,-106.89502,0.000*48
$GPGGA,073812.40,3540.278074549,N,13954.292256861,E,5,02,99.90,-1943.143,M,36.070,M,5.4,3007*5C
$PMSBATV,073812.40,2,2,0.57369,0.99455,-121.80628,0.066,0.019,0.000,-106.89502,0.000*43
$GPGGA,073812.50,3540.278073699,N,13954.292253175,E,5,02,99.90,-1943.143,M,36.070,M,5.5,3007*5C
$PMSBATV,073812.50,2,2,0.57399,0.99543,-121.81203,0.066,0.018,0.000,-106.89502,0.000*46
$GPGGA,073812.60,3540.278072845,N,13954.292249524,E,5,02,99.90,-1943.143,M,36.070,M,5.6,3007*59
$PMSBATV,073812.60,2,2,0.57168,1.00141,-121.81109,0.065,0.018,0.000,-106.89502,0.000*44
$GPGGA,073812.70,3540.278072000,N,13954.292245921,E,5,02,99.90,-1943.143,M,36.070,M,5.7,3007*55
$PMSBATV,073812.70,2,2,0.57415,1.00813,-121.81062,0.064,0.018,0.000,-106.89502,0.000*49
$GPGGA,073812.80,3540.278071155,N,13954.292242339,E,5,02,99.90,-1943.143,M,36.070,M,5.8,3007*53
$PMSBATV,073812.80,2,2,0.57162,1.00924,-121.80968,0.064,0.018,0.000,-106.89502,0.000*44
$GPGGA,073812.90,3540.278070324,N,13954.292238798,E,5,02,99.90,-1943.143,M,36.070,M,5.9,3007*54
$PMSBATV,073812.90,2,2,0.56706,1.00840,-121.81162,0.063,0.018,0.000,-106.89502,0.000*47
$GPGGA,073813.00,3540.278069511,N,13954.292235312,E,5,02,99.90,-1943.143,M,36.070,M,6.0,3007*55
$PMSBATV,073813.00,2,2,0.57037,1.00999,-121.81127,0.062,0.017,0.000,-106.89502,0.000*41
$GPGGA,073813.10,3540.278068694,N,13954.292231857,E,5,02,99.90,-1943.143,M,36.070,M,6.1,3007*54
$PMSBATV,073813.10,2,2,0.57003,1.00620,-121.80939,0.062,0.017,0.000,-106.89502,0.000*4C
$GPGGA,073813.20,3540.278067886,N,13954.292228445,E,5,02,99.90,-1943.143,M,36.070,M,6.2,3007*51
$PMSBATV,073813.20,2,2,0.56956,1.00329,-121.80881,0.061,0.017,0.000,-106.89502,0.000*4A
$GPGGA,073813.30,3540.278067092,N,13954.292225057,E,5,02,99.90,-1943.143,M,36.070,M,6.3,3007*56
$PMSBATV,073813.30,2,2,0.57052,0.99648,-121.80851,0.060,0.017,0.000,-106.89502,0.000*48
$GPGGA,073813.40,3540.278066318,N,13954.292221671,E,5,02,99.90,-1943.143,M,36.070,M,6.4,3007*50
$PMSBATV,073813.40,2,2,0.57858,0.99299,-121.81245,0.060,0.017,0.000,-106.89502,0.000*4B
$GPGGA,073813.50,3540.278065518,N,13954.292218337,E,5,02,99.90,-1943.143,M,36.070,M,6.5,3007*58
$PMSBATV,073813.50,2,2,0.57430,0.99120,-121.80930,0.060,0.017,0.000,-106.89502,0.000*41
$GPGGA,073813.60,3540.278064723,N,13954.292215022,E,5,02,99.90,-1943.143,M,36.070,M,6.6,3007*59
$PMSBATV,073813.60,2,2,0.56343,0.99486,-121.80776,0.060,0.017,0.000,-106.89502,0.000*45
$GPGGA,073813.70,3540.278063936,N,13954.292211651,E,5,02,99.90,-1943.143,M,36.070,M,6.7,3007*52
$PMSBATV,073813.70,2,2,0.56641,0.99489,-121.80746,0.060,0.017,0.000,-106.89502,0.000*4F
$GPGGA,073813.80,3540.278063164,N,13954.292208295,E,5,02,99.90,-1943.143,M,36.070,M,6.8,3007*59
$PMSBATV,073813.80,2,2,0.56764,1.00080,-121.81065,0.060,0.017,-0.000,-106.89502,0.000*60
$GPGGA,073813.90,3540.278062387,N,13954.292204988,E,5,02,99.90,-1943.143,M,36.070,M,6.9,3007*5C
$PMSBATV,073813.90,2,2,0.56403,1.00401,-121.81145,0.059,0.017,0.000,-106.89502,0.000*4A
$GPGGA,073814.00,3540.278061610,N,13954.292201680,E,5,02,99.90,-1943.143,M,36.070,M,7.0,3007*50
$PMSBATV,073814.00,2,2,0.56913,1.00335,-121.80964,0.059,0.017,0.000,-106.89502,0.000*42
$GPGGA,073814.10,3540.278060842,N,13954.292198424,E,5,03,99.90,-1943.142,M,36.070,M,2.1,3007*52
$PMSBATV,073814.10,2,2,0.57070,1.00463,-121.80681,0.058,0.016,0.000,-106.89502,0.000*4E
$GPGGA,073814.20,3540.278060086,N,13954.292195201,E,5,03,99.90,-1943.142,M,36.070,M,2.2,3007*5E
$PMSBATV,073814.20,2,2,0.57232,1.00910,-121.80564,0.058,0.016,0.000,-106.89502,0.000*48
$GPGGA,073814.30,3540.278059332,N,13954.292191999,E,5,03,99.90,-1943.142,M,36.070,M,2.3,3007*56
$PMSBATV,073814.30,2,2,0.57328,1.00728,-121.80350,0.057,0.016,0.000,-106.89502,0.000*48
$GPGGA,073814.40,3540.278058590,N,13954.292188813,E,5,03,99.90,-1943.142,M,36.070,M,2.4,3007*52
$PMSBATV,073814.40,2,2,0.57143,1.00090,-121.80705,0.057,0.016,0.000,-106.89502,0.000*40
$GPGGA,073814.50,3540.278057846,N,13954.292185676,E,5,03,99.90,-1943.142,M,36.070,M,2.5,3007*5B
$PMSBATV,073814.50,2,2,0.56941,1.00131,-121.80533,0.056,0.016,0.000,-106.89502,0.000*46
$GPGGA,073814.60,3540.278057115,N,13954.292182553,E,5,03,99.90,-1943.142,M,36.070,M,2.6,3007*57
$PMSBATV,073814.60,2,2,0.57449,1.00356,-121.80219,0.056,0.016,0.000,-106.89502,0.000*4D
$GPGGA,073814.70,3540.278056373,N,13954.292179443,E,5,03,99.90,-1943.142,M,36.070,M,2.7,3007*50
$PMSBATV,073814.70,2,2,0.56967,1.00578,-121.80119,0.056,0.016,0.000,-106.89502,0.000*45
$GPGGA,073814.80,3540.278055649,N,13954.292176326,E,5,03,99.90,-1943.142,M,36.070,M,2.8,3007*54
$PMSBATV,073814.80,2,2,0.56193,1.00719,-121.80688,0.056,0.016,0.000,-106.89502,0.000*43
$GPGGA,073814.90,3540.278054922,N,13954.292173235,E,5,03,99.90,-1943.142,M,36.070,M,2.9,3007*51
$PMSBATV,073814.90,2,2,0.56404,1.00691,-121.80572,0.055,0.016,0.000,-106.89502,0.000*4D
$GPGGA,073815.00,3540.278054201,N,13954.292170136,E,5,03,99.90,-1943.142,M,36.070,M,3.0,3007*58
$PMSBATV,073815.00,2,2,0.56251,1.00368,-121.80881,0.056,0.016,0.000,-106.89502,0.000*42
$GPGGA,073815.10,3540.278053481,N,13954.292167074,E,5,03,99.90,-1943.142,M,36.070,M,3.1,3007*50
$PMSBATV,073815.10,2,2,0.56034,1.00650,-121.80864,0.055,0.015,0.000,-106.89502,0.000*47
$GPGGA,073815.20,3540.278052764,N,13954.292164018,E,5,03,99.90,-1943.142,M,36.070,M,3.2,3007*50
$PMSBATV,073815.20,2,2,0.55838,1.00673,-121.81003,0.055,0.015,0.000,-106.89502,0.000*4A
$GPGGA,073815.30,3540.278052044,N,13954.292160976,E,5,03,99.90,-1943.142,M,36.070,M,3.3,3007*50
$PMSBATV,073815.30,2,2,0.55337,1.00560,-121.81111,0.054,0.015,0.000,-106.89502,0.000*4D
$GPGGA,073815.40,3540.278051342,N,13954.292157966,E,5,03,99.90,-1943.142,M,36.070,M,3.4,3007*53
$PMSBATV,073815.40,2,2,0.55170,1.00579,-121.81357,0.054,0.015,0.000,-106.89502,0.000*43
$GPGGA,073815.50,3540.278050643,N,13954.292155009,E,5,03,99.90,-1943.142,M,36.070,M,3.5,3007*54
$PMSBATV,073815.50,2,2,0.55161,1.00722,-121.81129,0.053,0.015,0.000,-106.89502,0.000*42
$GPGGA,073815.60,3540.278049946,N,13954.292152054,E,5,03,99.90,-1943.142,M,36.070,M,3.6,3007*59
$PMSBATV,073815.60,2,2,0.55462,0.99836,-121.81013,0.053,0.015,0.000,-106.89502,0.000*44
$GPGGA,073815.70,3540.278049256,N,13954.292149120,E,5,03,99.90,-1943.142,M,36.070,M,3.7,3007*5B
$PMSBATV,073815.70,2,2,0.56040,0.99814,-121.80740,0.053,0.015,0.000,-106.89502,0.000*42
$GPGGA,073815.80,3540.278048580,N,13954.292146216,E,5,03,99.90,-1943.142,M,36.070,M,3.8,3007*5F
$PMSBATV,073815.80,2,2,0.55788,1.00955,-121.80826,0.052,0.015,0.000,-106.89502,0.000*46
$GPGGA,073815.90,3540.278047893,N,13954.292143315,E,5,03,99.90,-1943.142,M,36.070,M,3.9,3007*58
$PMSBATV,073815.90,2,2,0.55649,1.01117,-121.80668,0.052,0.015,0.000,-106.89502,0.000*40
$GPGGA,073816.00,3540.278047208,N,13954.292140457,E,5,03,99.90,-1943.142,M,36.070,M,4.0,3007*56
$PMSBATV,073816.00,2,2,0.55430,1.01153,-121.80308,0.051,0.014,0.000,-106.89502,0.000*47
$GPGGA,073816.10,3540.278046534,N,13954.292137593,E,5,03,99.90,-1943.142,M,36.070,M,4.1,3007*56
$PMSBATV,073816.10,2,2,0.55299,1.01132,-121.80254,0.052,0.014,0.000,-106.89502,0.000*4F
$GPGGA,073816.20,3540.278045852,N,13954.292134718,E,5,03,99.90,-1943.142,M,36.070,M,4.2,3007*5A
$PMSBATV,073816.20,2,2,0.55549,1.00863,-121.79807,0.052,0.014,0.000,-106.89502,0.000*40
$GPGGA,073816.30,3540.278045184,N,13954.292131864,E,5,03,99.90,-1943.142,M,36.070,M,4.3,3007*59
$PMSBATV,073816.30,2,2,0.55538,1.00904,-121.79918,0.051,0.014,0.000,-106.89502,0.000*4B
$GPGGA,073816.40,3540.278044514,N,13954.292129029,E,5,03,99.90,-1943.142,M,36.070,M,4.4,3007*5D
$PMSBATV,073816.40,2,2,0.55555,1.00754,-121.79740,0.051,0.014,0.000,-106.89502,0.000*4F
$GPGGA,073816.50,3540.278043853,N,13954.292126217,E,5,03,99.90,-1943.142,M,36.070,M,4.5,3007*54
$PMSBATV,073816.50,2,2,0.55550,1.00921,-121.79602,0.050,0.014,0.000,-106.89502,0.000*41
$GPGGA,073816.60,3540.278043205,N,13954.292123415,E,5,03,99.90,-1943.142,M,36.070,M,4.6,3007*5C
$PMSBATV,073816.60,2,2,0.55357,1.01767,-121.79911,0.050,0.014,-0.000,-106.89502,0.000*6E
$GPGGA,073816.70,3540.278042552,N,13954.292120629,E,5,03,99.90,-1943.142,M,36.070,M,4.7,3007*56
$PMSBATV,073816.70,2,2,0.54928,1.01748,-121.80097,0.050,0.014,0.000,-106.89502,0.000*4D
$GPGGA,073816.80,3540.278041912,N,13954.292117873,E,5,03,99.90,-1943.142,M,36.070,M,4.8,3007*58
$PMSBATV,073816.80,2,2,0.55133,1.01738,-121.80174,0.049,0.014,0.000,-106.89502,0.000*42
$GPGGA,073816.90,3540.278041268,N,13954.292115137,E,5,03,99.90,-1943.141,M,36.070,M,4.9,3007*56
$PMSBATV,073816.90,2,2,0.55035,1.01681,-121.80267,0.049,0.014,0.000,-106.89502,0.000*46
$GPGGA,073817.00,3540.278040638,N,13954.292112411,E,5,03,99.90,-1943.141,M,36.070,M,5.0,3007*50
$PMSBATV,073817.00,2,2,0.54756,1.01816,-121.80679,0.049,0.014,0.000,-106.89502,0.000*46
$GPGGA,073817.10,3540.278040006,N,13954.292109697,E,5,02,99.90,-1943.141,M,36.070,M,5.1,3007*5C
$PMSBATV,073817.10,2,2,0.54891,1.02359,-121.80821,0.049,0.014,-0.000,-106.89502,0.000*6E
$GPGGA,073817.20,3540.278039359,N,13954.292106960,E,5,02,99.90,-1943.141,M,36.070,M,5.2,3007*53
$PMSBATV,073817.20,2,2,0.55069,1.01937,-121.80569,0.049,0.014,0.000,-106.89502,0.000*4E
$GPGGA,073817.30,3540.278038733,N,13954.292104303,E,5,02,99.90,-1943.141,M,36.070,M,5.3,3007*57
$PMSBATV,073817.30,2,2,0.55269,1.02405,-121.80308,0.048,0.013,-0.000,-106.89502,0.000*68
$GPGGA,073817.40,3540.278038102,N,13954.292101675,E,5,02,99.90,-1943.141,M,36.070,M,5.4,3007*52
$PMSBATV,073817.40,2,2,0.54946,1.03001,-121.79864,0.047,0.013,-0.000,-106.89502,0.000*61
$GPGGA,073817.50,3540.278037489,N,13954.292099057,E,5,02,99.90,-1943.141,M,36.070,M,5.5,3007*5D
$PMSBATV,073817.50,2,2,0.55062,1.03051,-121.79819,0.047,0.013,0.000,-106.89502,0.000*4C
$GPGGA,073817.60,3540.278036883,N,13954.292096473,E,5,02,99.90,-1943.141,M,36.070,M,5.6,3007*57
$PMSBATV,073817.60,2,2,0.55437,1.02816,-121.79575,0.046,0.013,0.000,-106.89502,0.000*47
$GPGGA,073817.70,3540.278036292,N,13954.292093933,E,5,02,99.90,-1943.141,M,36.070,M,5.7,3007*51
$PMSBATV,073817.70,2,2,0.55752,1.03561,-121.79502,0.045,0.013,0.000,-106.89502,0.000*49
$GPGGA,073817.80,3540.278035694,N,13954.292091411,E,5,02,99.90,-1943.141,M,36.070,M,5.8,3007*5F
$PMSBATV,073817.80,2,2,0.55275,1.03624,-121.79422,0.045,0.013,0.000,-106.89502,0.000*47
$GPGGA,073817.90,3540.278035119,N,13954.292088917,E,5,02,99.90,-1943.141,M,36.070,M,5.9,3007*5E
$PMSBATV,073817.90,2,2,0.55323,1.03869,-121.79679,0.044,0.012,0.000,-106.89502,0.000*4F
$GPGGA,073818.00,3540.278034549,N,13954.292086459,E,5,02,99.90,-1943.141,M,36.070,M,6.0,3007*5B
$PMSBATV,073818.00,2,2,0.55836,1.04268,-121.79602,0.044,0.012,0.000,-106.89502,0.000*46
$GPGGA,073818.10,3540.278033981,N,13954.292084004,E,5,03,99.90,-1943.141,M,36.070,M,1.1,3007*5C
$PMSBATV,073818.10,2,2,0.55989,1.03786,-121.79913,0.044,0.012,0.000,-106.89502,0.000*4F
$GPGGA,073818.20,3540.278033422,N,13954.292081592,E,5,03,99.90,-1943.141,M,36.070,M,1.2,3007*57
$PMSBATV,073818.20,2,2,0.56356,1.04205,-121.79791,0.043,0.012,0.000,-106.89502,0.000*4D
$GPGGA,073818.30,3540.278032866,N,13954.292079226,E,5,03,99.90,-1943.141,M,36.070,M,1.3,3007*55
$PMSBATV,073818.30,2,2,0.56016,1.04341,-121.79927,0.042,0.012,-0.000,-106.89502,0.000*65
$GPGGA,073818.40,3540.278032323,N,13954.292076893,E,5,03,99.90,-1943.141,M,36.070,M,1.4,3007*54
$PMSBATV,073818.40,2,2,0.55808,1.04530,-121.80076,0.042,0.012,0.000,-106.89502,0.000*40
$GPGGA,073818.50,3540.278031783,N,13954.292074594,E,5,03,99.90,-1943.141,M,36.070,M,1.5,3007*51
$PMSBATV,073818.50,2,2,0.56110,1.04098,-121.79996,0.041,0.012,0.000,-106.89502,0.000*47
$GPGGA,073818.60,3540.278031246,N,13954.292072357,E,5,03,99.90,-1943.141,M,36.070,M,1.6,3007*52
$PMSBATV,073818.60,2,2,0.55743,1.04488,-121.79717,0.040,0.011,-0.000,-106.89502,0.000*6A
$GPGGA,073818.70,3540.278030718,N,13954.292070137,E,5,03,99.90,-1943.141,M,36.070,M,1.7,3007*5B
$PMSBATV,073818.70,2,2,0.54979,1.04485,-121.79797,0.040,0.011,0.000,-106.89502,0.000*45
$GPGGA,073818.80,3540.278030202,N,13954.292067948,E,5,03,99.90,-1943.141,M,36.070,M,1.8,3007*53
$PMSBATV,073818.80,2,2,0.54718,1.04317,-121.79864,0.039,0.011,0.000,-106.89502,0.000*42
$GPGGA,073818.90,3540.278029696,N,13954.292065810,E,5,03,99.90,-1943.141,M,36.070,M,1.9,3007*5C
$PMSBATV,073818.90,2,2,0.54557,1.04126,-121.79854,0.038,0.011,0.000,-106.89502,0.000*48
$GPGGA,073819.00,3540.278029205,N,13954.292063711,E,5,03,99.90,-1943.141,M,36.070,M,2.0,3007*58
$PMSBATV,073819.00,2,2,0.54728,1.04462,-121.79714,0.038,0.011,0.000,-106.89502,0.000*44
$GPGGA,073819.10,3540.278028730,N,13954.292061611,E,5,03,99.90,-1943.141,M,36.070,M,2.1,3007*59
$PMSBATV,073819.10,2,2,0.54811,1.04736,-121.80166,0.037,0.010,0.000,-106.89502,0.000*49
$GPGGA,073819.20,3540.278028255,N,13954.292059579,E,5,03,99.90,-1943.141,M,36.070,M,2.2,3007*59
$PMSBATV,073819.20,2,2,0.55093,1.05690,-121.80021,0.036,0.010,-0.000,-106.89502,0.000*6B
$GPGGA,073819.30,3540.278027779,N,13954.292057561,E,5,03,99.90,-1943.141,M,36.070,M,2.3,3007*5A
$PMSBATV,073819.30,2,2,0.55156,1.05587,-121.79896,0.036,0.010,0.000,-106.89502,0.000*48
$GPGGA,073819.40,3540.278027313,N,13954.292055587,E,5,03,99.90,-1943.141,M,36.070,M,2.4,3007*58
$PMSBATV,073819.40,2,2,0.54802,1.05840,-121.79939,0.035,0.010,0.000,-106.89502,0.000*47
$GPGGA,073819.50,3540.278026862,N,13954.292053648,E,5,03,99.90,-1943.141,M,36.070,M,2.5,3007*52
$PMSBATV,073819.50,2,2,0.54508,1.06354,-121.80150,0.035,0.010,0.000,-106.89502,0.000*4D
$GPGGA,073819.60,3540.278026406,N,13954.292051748,E,5,03,99.90,-1943.141,M,36.070,M,2.6,3007*5F
$PMSBATV,073819.60,2,2,0.54304,1.05975,-121.79980,0.034,0.010,0.000,-106.89502,0.000*4C
$GPGGA,073819.70,3540.278025964,N,13954.292049905,E,5,03,99.90,-1943.141,M,36.070,M,2.7,3007*5B
$PMSBATV,073819.70,2,2,0.54074,1.06238,-121.79598,0.033,0.009,-0.000,-106.89502,0.000*6F
$GPGGA,073819.80,3540.278025520,N,13954.292048065,E,5,03,99.90,-1943.141,M,36.070,M,2.8,3007*59
$PMSBATV,073819.80,2,2,0.54188,1.05920,-121.79215,0.033,0.009,0.000,-106.89502,0.000*4C
$GPGGA,073819.90,3540.278025105,N,13954.292046248,E,5,03,99.90,-1943.141,M,36.070,M,2.9,3007*59
$PMSBATV,073819.90,2,2,0.53976,1.05980,-121.79678,0.032,0.009,0.000,-106.89502,0.000*47
$GPGGA,073820.00,3540.278024692,N,13954.292044463,E,5,03,99.90,-1943.141,M,36.070,M,3.0,3007*57
$PMSBATV,073820.00,2,2,0.54566,1.05984,-121.79559,0.032,0.009,-0.000,-106.89502,0.000*67
$GPGGA,073820.10,3540.278024275,N,13954.292042716,E,5,03,99.90,-1943.141,M,36.070,M,3.1,3007*5D
$PMSBATV,073820.10,2,2,0.54502,1.05891,-121.79318,0.031,0.009,0.000,-106.89502,0.000*4C
$GPGGA,073820.20,3540.278023866,N,13954.292040997,E,5,03,99.90,-1943.141,M,36.070,M,3.2,3007*57
$PMSBATV,073820.20,2,2,0.54186,1.05540,-121.79358,0.030,0.009,0.000,-106.89502,0.000*43
$GPGGA,073820.30,3540.278023491,N,13954.292039317,E,5,03,99.90,-1943.141,M,36.070,M,3.3,3007*5F
$PMSBATV,073820.30,2,2,0.54627,1.06271,-121.79588,0.030,0.008,-0.000,-106.89502,0.000*6F
$GPGGA,073820.40,3540.278023127,N,13954.292037641,E,5,03,99.90,-1943.141,M,36.070,M,3.4,3007*5F
$PMSBATV,073820.40,2,2,0.55506,1.06741,-121.80098,0.030,0.008,0.000,-106.89502,0.000*40
$GPGGA,073820.50,3540.278022730,N,13954.292036023,E,5,03,99.90,-1943.141,M,36.070,M,3.5,3007*5D
$PMSBATV,073820.50,2,2,0.54770,1.06361,-121.79943,0.029,0.008,0.000,-106.89502,0.000*44
$GPGGA,073820.60,3540.278022354,N,13954.292034450,E,5,03,99.90,-1943.141,M,36.070,M,3.6,3007*59
$PMSBATV,073820.60,2,2,0.54619,1.06301,-121.79728,0.028,0.008,0.000,-106.89502,0.000*4D
$GPGGA,073820.70,3540.278021996,N,13954.292032884,E,5,03,99.90,-1943.141,M,36.070,M,3.7,3007*5D
$PMSBATV,073820.70,2,2,0.55342,1.05806,-121.79630,0.028,0.008,0.000,-106.89502,0.000*41
$GPGGA,073820.80,3540.278021638,N,13954.292031399,E,5,03,99.90,-1943.141,M,36.070,M,3.8,3007*52
$PMSBATV,073820.80,2,2,0.55213,1.05667,-121.79445,0.026,0.008,-0.000,-106.89502,0.000*61
$GPGGA,073820.90,3540.278021286,N,13954.292029940,E,5,03,99.90,-1943.141,M,36.070,M,3.9,3007*54
$PMSBATV,073820.90,2,2,0.55086,1.05565,-121.79082,0.026,0.007,0.000,-106.89502,0.000*42
$GPGGA,073821.00,3540.278020970,N,13954.292028478,E,5,03,99.90,-1943.141,M,36.070,M,4.0,3007*56
$PMSBATV,073821.00,2,2,0.55498,1.05413,-121.79785,0.026,0.007,0.000,-106.89502,0.000*41
$GPGGA,073821.10,3540.278020638,N,13954.292027075,E,5,03,99.90,-1943.141,M,36.070,M,4.1,3007*53
$PMSBATV,073821.10,2,2,0.55367,1.05280,-121.79791,0.025,0.007,0.000,-106.89502,0.000*4D
$GPGGA,073821.20,3540.278020310,N,13954.292025679,E,5,03,99.90,-1943.141,M,36.070,M,4.2,3007*54
$PMSBATV,073821.20,2,2,0.55157,1.04846,-121.80039,0.025,0.007,0.000,-106.89502,0.000*4D
$GPGGA,073821.30,3540.278019978,N,13954.292024312,E,5,03,99.90,-1943.141,M,36.070,M,4.3,3007*53
$PMSBATV,073821.30,2,2,0.54994,1.04938,-121.79664,0.024,0.007,0.000,-106.89502,0.000*4B
$GPGGA,073821.40,3540.278019666,N,13954.292022962,E,5,03,99.90,-1943.141,M,36.070,M,4.4,3007*58
$PMSBATV,073821.40,2,2,0.55175,1.05670,-121.79591,0.024,0.007,-0.000,-106.89502,0.000*6C
$GPGGA,073821.50,3540.278019360,N,13954.292021611,E,5,03,99.90,-1943.141,M,36.070,M,4.5,3007*53
$PMSBATV,073821.50,2,2,0.55297,1.05879,-121.79925,0.024,0.007,0.000,-106.89502,0.000*4B
$GPGGA,073821.60,3540.278019042,N,13954.292020307,E,5,03,99.90,-1943.141,M,36.070,M,4.6,3007*53
$PMSBATV,073821.60,2,2,0.55130,1.06194,-121.79482,0.023,0.007,-0.000,-106.89502,0.000*65
$GPGGA,073821.70,3540.278018748,N,13954.292019021,E,5,03,99.90,-1943.141,M,36.070,M,4.7,3007*52
$PMSBATV,073821.70,2,2,0.55023,1.06463,-121.79800,0.023,0.006,0.000,-106.89502,0.000*40
$GPGGA,073821.80,3540.278018465,N,13954.292017768,E,5,03,99.90,-1943.141,M,36.070,M,4.8,3007*5A
$PMSBATV,073821.80,2,2,0.55586,1.06801,-121.79716,0.022,0.006,0.000,-106.89502,0.000*44
$GPGGA,073821.90,3540.278018176,N,13954.292016522,E,5,03,99.90,-1943.141,M,36.070,M,4.9,3007*50
$PMSBATV,073821.90,2,2,0.55474,1.06395,-121.79960,0.022,0.006,0.000,-106.89502,0.000*40
$GPGGA,073822.00,3540.278017878,N,13954.292015316,E,5,03,99.90,-1943.141,M,36.070,M,5.0,3007*58
$PMSBATV,073822.00,2,2,0.55174,1.06498,-121.79562,0.022,0.006,0.000,-106.89502,0.000*4B
$GPGGA,073822.10,3540.278017601,N,13954.292014100,E,5,02,99.90,-1943.141,M,36.070,M,5.1,3007*5D
$PMSBATV,073822.10,2,2,0.55458,1.06609,-121.79637,0.022,0.006,0.000,-106.89502,0.000*48
$GPGGA,073822.20,3540.278017330,N,13954.292012912,E,5,02,99.90,-1943.140,M,36.070,M,5.2,3007*56
$PMSBATV,073822.20,2,2,0.56099,1.05952,-121.79694,0.021,0.006,0.000,-106.89502,0.000*49
$GPGGA,073822.30,3540.278017058,N,13954.292011761,E,5,02,99.90,-1943.140,M,36.070,M,5.3,3007*52
$PMSBATV,073822.30,2,2,0.56001,1.05656,-121.79667,0.021,0.006,0.000,-106.89502,0.000*4E
$GPGGA,073822.40,3540.278016792,N,13954.292010632,E,5,02,99.90,-1943.140,M,36.070,M,5.4,3007*54
$PMSBATV,073822.40,2,2,0.55947,1.05478,-121.79651,0.020,0.006,0.000,-106.89502,0.000*4B
$GPGGA,073822.50,3540.278016538,N,13954.292009514,E,5,02,99.90,-1943.140,M,36.070,M,5.5,3007*59
$PMSBATV,073822.50,2,2,0.55945,1.05388,-121.80009,0.020,0.006,0.000,-106.89502,0.000*4D
$GPGGA,073822.60,3540.278016275,N,13954.292008427,E,5,02,99.90,-1943.140,M,36.070,M,5.6,3007*57
$PMSBATV,073822.60,2,2,0.55192,1.05498,-121.80008,0.020,0.005,-0.000,-106.89502,0.000*65
$GPGGA,073822.70,3540.278016021,N,13954.292007328,E,5,02,99.90,-1943.140,M,36.070,M,5.7,3007*53
$PMSBATV,073822.70,2,2,0.55119,1.04943,-121.80243,0.019,0.005,0.000,-106.89502,0.000*47
$GPGGA,073822.80,3540.278015752,N,13954.292006176,E,5,02,99.90,-1943.140,M,36.070,M,5.8,3007*5B
$PMSBATV,073822.80,2,2,0.55386,1.04376,-121.80306,0.019,0.005,0.000,-106.89502,0.000*40
$GPGGA,073822.90,3540.278015492,N,13954.292005107,E,5,02,99.90,-1943.140,M,36.070,M,5.9,3007*51
$PMSBATV,073822.90,2,2,0.54861,1.04182,-121.80260,0.019,0.005,0.000,-106.89502,0.000*4A
$GPGGA,073823.00,3540.278015232,N,13954.292004049,E,5,02,99.90,-1943.140,M,36.070,M,6.0,3007*55
$PMSBATV,073823.00,2,2,0.54943,1.04283,-121.79918,0.019,0.005,0.000,-106.89502,0.000*43
$GPGGA,073823.10,3540.278014994,N,13954.292002973,E,5,03,99.90,-1943.140,M,36.070,M,1.1,3007*53
$PMSBATV,073823.10,2,2,0.55501,1.04646,-121.79957,0.020,0.005,0.000,-106.89502,0.000*45
$GPGGA,073823.20,3540.278014713,N,13954.292001891,E,5,03,99.90,-1943.140,M,36.070,M,1.2,3007*5C
$PMSBATV,073823.20,2,2,0.55371,1.04060,-121.79225,0.020,0.006,0.000,-106.89502,0.000*48
$GPGGA,073823.30,3540.278014450,N,13954.292000781,E,5,03,99.90,-1943.140,M,36.070,M,1.3,3007*57
$PMSBATV,073823.30,2,2,0.54984,1.03231,-121.79467,0.020,0.006,0.000,-106.89502,0.000*49
$GPGGA,073823.40,3540.278014197,N,13954.291999670,E,5,03,99.90,-1943.140,M,36.070,M,1.4,3007*5C
$PMSBATV,073823.40,2,2,0.55005,1.03287,-121.79619,0.020,0.005,0.000,-106.89502,0.000*4A
$GPGGA,073823.50,3540.278013940,N,13954.291998561,E,5,03,99.90,-1943.140,M,36.070,M,1.5,3007*5B
$PMSBATV,073823.50,2,2,0.55523,1.03875,-121.79466,0.020,0.006,0.000,-106.89502,0.000*44
$GPGGA,073823.60,3540.278013667,N,13954.291997467,E,5,03,99.90,-1943.140,M,36.070,M,1.6,3007*59
$PMSBATV,073823.60,2,2,0.54848,1.03480,-121.79275,0.020,0.006,0.000,-106.89502,0.000*44
$GPGGA,073823.70,3540.278013393,N,13954.291996375,E,5,03,99.90,-1943.140,M,36.070,M,1.7,3007*52
$PMSBATV,073823.70,2,2,0.54365,1.03126,-121.78933,0.020,0.006,0.000,-106.89502,0.000*40
$GPGGA,073823.80,3540.278013123,N,13954.291995257,E,5,03,99.90,-1943.140,M,36.070,M,1.8,3007*59
$PMSBATV,073823.80,2,2,0.54224,1.03096,-121.78722,0.020,0.006,0.000,-106.89502,0.000*4F
$GPGGA,073823.90,3540.278012854,N,13954.291994126,E,5,03,99.90,-1943.140,M,36.070,M,1.9,3007*55
$PMSBATV,073823.90,2,2,0.54269,1.02979,-121.78536,0.020,0.006,-0.000,-106.89502,0.000*64
$GPGGA,073824.00,3540.278012589,N,13954.291992975,E,5,03,99.90,-1943.140,M,36.070,M,2.0,3007*54
$PMSBATV,073824.00,2,2,0.54202,1.03342,-121.78696,0.021,0.006,0.000,-106.89502,0.000*41
$GPGGA,073824.10,3540.278012317,N,13954.291991838,E,5,03,99.90,-1943.140,M,36.070,M,2.1,3007*5E
$PMSBATV,073824.10,2,2,0.54004,1.03367,-121.78580,0.020,0.006,0.000,-106.89502,0.000*46
$GPGGA,073824.20,3540.278012042,N,13954.291990706,E,5,03,99.90,-1943.140,M,36.070,M,2.2,3007*5E
$PMSBATV,073824.20,2,2,0.53692,1.03174,-121.78464,0.020,0.006,-0.000,-106.89502,0.000*6D
$GPGGA,073824.30,3540.278011769,N,13954.291989543,E,5,03,99.90,-1943.140,M,36.070,M,2.3,3007*58
$PMSBATV,073824.30,2,2,0.53624,1.03103,-121.78602,0.021,0.006,0.000,-106.89502,0.000*4F
$GPGGA,073824.40,3540.278011489,N,13954.291988373,E,5,03,99.90,-1943.140,M,36.070,M,2.4,3007*51
$PMSBATV,073824.40,2,2,0.54047,1.02281,-121.78179,0.021,0.006,0.000,-106.89502,0.000*4F
$GPGGA,073824.50,3540.278011216,N,13954.291987189,E,5,03,99.90,-1943.140,M,36.070,M,2.5,3007*59
$PMSBATV,073824.50,2,2,0.54252,1.02283,-121.78251,0.021,0.006,0.000,-106.89502,0.000*43
$GPGGA,073824.60,3540.278010933,N,13954.291985997,E,5,03,99.90,-1943.140,M,36.070,M,2.6,3007*51
$PMSBATV,073824.60,2,2,0.54404,1.02015,-121.78044,0.021,0.006,0.000,-106.89502,0.000*4E
$GPGGA,073824.70,3540.278010657,N,13954.291984806,E,5,03,99.90,-1943.140,M,36.070,M,2.7,3007*54
$PMSBATV,073824.70,2,2,0.54592,1.02261,-121.77969,0.021,0.006,0.000,-106.89502,0.000*49
$GPGGA,073824.80,3540.278010381,N,13954.291983605,E,5,03,99.90,-1943.140,M,36.070,M,2.8,3007*50
$PMSBATV,073824.80,2,2,0.54816,1.02408,-121.78011,0.022,0.006,0.000,-106.89502,0.000*44
$GPGGA,073824.90,3540.278010107,N,13954.291982369,E,5,03,99.90,-1943.140,M,36.070,M,2.9,3007*52
$PMSBATV,073824.90,2,2,0.54996,1.01707,-121.78498,0.022,0.006,0.000,-106.89502,0.000*46
$GPGGA,073825.00,3540.278009819,N,13954.291981142,E,5,03,99.90,-1943.140,M,36.070,M,3.0,3007*54
$PMSBATV,073825.00,2,2,0.54886,1.01889,-121.78547,0.022,0.006,-0.000,-106.89502,0.000*69
$GPGGA,073825.10,3540.278009520,N,13954.291979892,E,5,03,99.90,-1943.140,M,36.070,M,3.1,3007*50
$PMSBATV,073825.10,2,2,0.54951,1.02270,-121.78342,0.023,0.007,0.000,-106.89502,0.000*42
$GPGGA,073825.20,3540.278009215,N,13954.291978600,E,5,03,99.90,-1943.140,M,36.070,M,3.2,3007*55
$PMSBATV,073825.20,2,2,0.54610,1.02253,-121.78402,0.023,0.007,-0.000,-106.89502,0.000*64
$GPGGA,073825.30,3540.278008917,N,13954.291977277,E,5,03,99.90,-1943.140,M,36.070,M,3.3,3007*56
$PMSBATV,073825.30,2,2,0.54556,1.02187,-121.78825,0.023,0.007,0.000,-106.89502,0.000*4A
$GPGGA,073825.40,3540.278008608,N,13954.291975975,E,5,03,99.90,-1943.140,M,36.070,M,3.4,3007*5C
$PMSBATV,073825.40,2,2,0.54758,1.02248,-121.78578,0.024,0.007,0.000,-106.89502,0.000*43
$GPGGA,073825.50,3540.278008293,N,13954.291974655,E,5,03,99.90,-1943.140,M,36.070,M,3.5,3007*56
$PMSBATV,073825.50,2,2,0.54376,1.02742,-121.78535,0.024,0.007,0.000,-106.89502,0.000*4C
$GPGGA,073825.60,3540.278007978,N,13954.291973324,E,5,03,99.90,-1943.140,M,36.070,M,3.6,3007*53
$PMSBATV,073825.60,2,2,0.54475,1.02692,-121.78364,0.024,0.007,0.000,-106.89502,0.000*45
$GPGGA,073825.70,3540.278007677,N,13954.291971986,E,5,03,99.90,-1943.140,M,36.070,M,3.7,3007*53
$PMSBATV,073825.70,2,2,0.54838,1.02706,-121.78556,0.024,0.007,0.000,-106.89502,0.000*4A
$GPGGA,073825.80,3540.278007371,N,13954.291970652,E,5,03,99.90,-1943.140,M,36.070,M,3.8,3007*57
$PMSBATV,073825.80,2,2,0.54963,1.03226,-121.78680,0.024,0.007,-0.000,-106.89502,0.000*69
$GPGGA,073825.90,3540.278007051,N,13954.291969304,E,5,03,99.90,-1943.140,M,36.070,M,3.9,3007*58
$PMSBATV,073825.90,2,2,0.55015,1.03450,-121.78440,0.024,0.007,0.000,-106.89502,0.000*45
$GPGGA,073826.00,3540.278006742,N,13954.291967942,E,5,03,99.90,-1943.140,M,36.070,M,4.0,3007*5E
$PMSBATV,073826.00,2,2,0.55198,1.03535,-121.78582,0.024,0.007,0.000,-106.89502,0.000*46
$GPGGA,073826.10,3540.278006428,N,13954.291966604,E,5,03,99.90,-1943.140,M,36.070,M,4.1,3007*5D
$PMSBATV,073826.10,2,2,0.54902,1.04036,-121.78734,0.024,0.007,0.000,-106.89502,0.000*43
$GPGGA,073826.20,3540.278006115,N,13954.291965265,E,5,03,99.90,-1943.140,M,36.070,M,4.2,3007*56
$PMSBATV,073826.20,2,2,0.55272,1.03785,-121.78629,0.024,0.007,-0.000,-106.89502,0.000*65
$GPGGA,073826.30,3540.278005799,N,13954.291963941,E,5,03,99.90,-1943.140,M,36.070,M,4.3,3007*5C
$PMSBATV,073826.30,2,2,0.54970,1.03785,-121.78443,0.024,0.007,0.000,-106.89502,0.000*4F
$GPGGA,073826.40,3540.278005504,N,13954.291962643,E,5,03,99.90,-1943.140,M,36.070,M,4.4,3007*56
$PMSBATV,073826.40,2,2,0.54844,1.04290,-121.78886,0.023,0.007,-0.000,-106.89502,0.000*67
$GPGGA,073826.50,3540.278005201,N,13954.291961323,E,5,03,99.90,-1943.140,M,36.070,M,4.5,3007*54
$PMSBATV,073826.50,2,2,0.54989,1.04650,-121.78966,0.024,0.007,-0.000,-106.89502,0.000*66
$GPGGA,073826.60,3540.278004888,N,13954.291959975,E,5,03,99.90,-1943.140,M,36.070,M,4.6,3007*5C
$PMSBATV,073826.60,2,2,0.54995,1.04500,-121.79090,0.024,0.007,0.000,-106.89502,0.000*42
$GPGGA,073826.70,3540.278004580,N,13954.291958676,E,5,03,99.90,-1943.140,M,36.070,M,4.7,3007*54
$PMSBATV,073826.70,2,2,0.54593,1.04827,-121.79120,0.023,0.007,0.000,-106.89502,0.000*4C
$GPGGA,073826.80,3540.278004272,N,13954.291957362,E,5,03,99.90,-1943.140,M,36.070,M,4.8,3007*51
$PMSBATV,073826.80,2,2,0.54710,1.04467,-121.79104,0.024,0.007,0.000,-106.89502,0.000*43
$GPGGA,073826.90,3540.278003975,N,13954.291956053,E,5,03,99.90,-1943.140,M,36.070,M,4.9,3007*5A
$PMSBATV,073826.90,2,2,0.54889,1.04525,-121.79264,0.024,0.007,0.000,-106.89502,0.000*4F
$GPGGA,073827.00,3540.278003665,N,13954.291954734,E,5,03,99.90,-1943.140,M,36.070,M,5.0,3007*50
$PMSBATV,073827.00,2,2,0.54878,1.04425,-121.79312,0.024,0.007,0.000,-106.89502,0.000*48
$GPGGA,073827.10,3540.278003365,N,13954.291953421,E,5,02,99.90,-1943.140,M,36.070,M,5.1,3007*54
$PMSBATV,073827.10,2,2,0.55308,1.04338,-121.79353,0.024,0.006,0.000,-106.89502,0.000*4B
$GPGGA,073827.20,3540.278003049,N,13954.291952121,E,5,02,99.90,-1943.140,M,36.070,M,5.2,3007*5D
$PMSBATV,073827.20,2,2,0.55062,1.04424,-121.79039,0.023,0.007,0.000,-106.89502,0.000*44
$GPGGA,073827.30,3540.278002740,N,13954.291950847,E,5,02,99.90,-1943.140,M,36.070,M,5.3,3007*59
$PMSBATV,073827.30,2,2,0.54876,1.04300,-121.78772,0.023,0.006,0.000,-106.89502,0.000*40
$GPGGA,073827.40,3540.278002431,N,13954.291949546,E,5,02,99.90,-1943.140,M,36.070,M,5.4,3007*58
$PMSBATV,073827.40,2,2,0.54880,1.04087,-121.78708,0.023,0.007,0.000,-106.89502,0.000*4E
$GPGGA,073827.50,3540.278002129,N,13954.291948247,E,5,02,99.90,-1943.140,M,36.070,M,5.5,3007*53
$PMSBATV,073827.50,2,2,0.54653,1.03703,-121.78950,0.023,0.006,-0.000,-106.89502,0.000*6C
$GPGGA,073827.60,3540.278001822,N,13954.291946965,E,5,02,99.90,-1943.140,M,36.070,M,5.6,3007*57
$PMSBATV,073827.60,2,2,0.54681,1.03582,-121.78685,0.023,0.007,0.000,-106.89502,0.000*40
$GPGGA,073827.70,3540.278001513,N,13954.291945655,E,5,02,99.90,-1943.140,M,36.070,M,5.7,3007*57
$PMSBATV,073827.70,2,2,0.54672,1.03132,-121.78768,0.024,0.007,0.000,-106.89502,0.000*47
$GPGGA,073827.80,3540.278001192,N,13954.291944342,E,5,02,99.90,-1943.140,M,36.070,M,5.8,3007*58
$PMSBATV,073827.80,2,2,0.54608,1.02793,-121.78316,0.024,0.007,0.000,-106.89502,0.000*44
$GPGGA,073827.90,3540.278000890,N,13954.291943033,E,5,02,99.90,-1943.140,M,36.070,M,5.9,3007*50
$PMSBATV,073827.90,2,2,0.54826,1.03087,-121.78318,0.024,0.007,0.000,-106.89502,0.000*4A
$GPGGA,073828.00,3540.278000576,N,13954.291941688,E,5,02,99.90,-1943.140,M,36.070,M,6.0,3007*5D
$PMSBATV,073828.00,2,2,0.54949,1.02636,-121.78444,0.024,0.007,0.000,-106.89502,0.000*47
$GPGGA,073828.10,3540.278000268,N,13954.291940370,E,5,03,99.90,-1943.140,M,36.070,M,1.1,3007*50
$PMSBATV,073828.10,2,2,0.54740,1.03100,-121.78421,0.024,0.007,-0.000,-106.89502,0.000*6C
$GPGGA,073828.20,3540.277999955,N,13954.291939029,E,5,03,99.90,-1943.140,M,36.070,M,1.2,3007*52
$PMSBATV,073828.20,2,2,0.54583,1.02768,-121.78679,0.024,0.007,0.000,-106.89502,0.000*49
$GPGGA,073828.30,3540.277999651,N,13954.291937662,E,5,03,99.90,-1943.140,M,36.070,M,1.3,3007*5E
$PMSBATV,073828.30,2,2,0.54486,1.02655,-121.79277,0.025,0.007,0.000,-106.89502,0.000*49
$GPGGA,073828.40,3540.277999342,N,13954.291936294,E,5,03,99.90,-1943.140,M,36.070,M,1.4,3007*55
$PMSBATV,073828.40,2,2,0.55000,1.03171,-121.79325,0.025,0.007,-0.000,-106.89502,0.000*6E
$GPGGA,073828.50,3540.277999030,N,13954.291934936,E,5,03,99.90,-1943.140,M,36.070,M,1.5,3007*52
$PMSBATV,073828.50,2,2,0.54909,1.03885,-121.79465,0.025,0.007,-0.000,-106.89502,0.000*6F
$GPGGA,073828.60,3540.277998705,N,13954.291933562,E,5,03,99.90,-1943.140,M,36.070,M,1.6,3007*58
$PMSBATV,073828.60,2,2,0.54513,1.04171,-121.79641,0.025,0.007,0.000,-106.89502,0.000*47
$GPGGA,073828.70,3540.277998372,N,13954.291932174,E,5,03,99.90,-1943.140,M,36.070,M,1.7,3007*5E
$PMSBATV,073828.70,2,2,0.54456,1.03791,-121.79390,0.025,0.007,0.000,-106.89502,0.000*40
$GPGGA,073828.80,3540.277998045,N,13954.291930807,E,5,03,99.90,-1943.140,M,36.070,M,1.8,3007*56
$PMSBATV,073828.80,2,2,0.54403,1.03796,-121.79209,0.024,0.007,0.000,-106.89502,0.000*48
$GPGGA,073828.90,3540.277997739,N,13954.291929436,E,5,03,99.90,-1943.140,M,36.070,M,1.9,3007*53
$PMSBATV,073828.90,2,2,0.54700,1.03778,-121.79522,0.024,0.007,0.000,-106.89502,0.000*47
$GPGGA,073829.00,3540.277997412,N,13954.291928080,E,5,03,99.90,-1943.140,M,36.070,M,2.0,3007*53
$PMSBATV,073829.00,2,2,0.54933,1.03476,-121.79213,0.024,0.007,0.000,-106.89502,0.000*49
$GPGGA,073829.10,3540.277997095,N,13954.291926712,E,5,03,99.90,-1943.140,M,36.070,M,2.1,3007*5A
$PMSBATV,073829.10,2,2,0.54831,1.02711,-121.79534,0.024,0.007,0.000,-106.89502,0.000*4A
$GPGGA,073829.20,3540.277996779,N,13954.291925343,E,5,03,99.90,-1943.140,M,36.070,M,2.2,3007*5D
$PMSBATV,073829.20,2,2,0.54467,1.02466,-121.79918,0.025,0.007,0.000,-106.89502,0.000*46
$GPGGA,073829.30,3540.277996456,N,13954.291923966,E,5,03,99.90,-1943.140,M,36.070,M,2.3,3007*58
$PMSBATV,073829.30,2,2,0.54518,1.02776,-121.79883,0.025,0.007,-0.000,-106.89502,0.000*62
$GPGGA,073829.40,3540.277996143,N,13954.291922568,E,5,03,99.90,-1943.140,M,36.070,M,2.4,3007*5A
$PMSBATV,073829.40,2,2,0.54926,1.03462,-121.80045,0.025,0.007,-0.000,-106.89502,0.000*67
$GPGGA,073829.50,3540.277995825,N,13954.291921169,E,5,03,99.90,-1943.140,M,36.070,M,2.5,3007*56
$PMSBATV,073829.50,2,2,0.54854,1.03542,-121.80370,0.025,0.007,0.000,-106.89502,0.000*49
$GPGGA,073829.60,3540.277995499,N,13954.291919780,E,5,03,99.90,-1943.140,M,36.070,M,2.6,3007*57
$PMSBATV,073829.60,2,2,0.54911,1.03015,-121.80501,0.025,0.007,0.000,-106.89502,0.000*4D
$GPGGA,073829.70,3540.277995180,N,13954.291918400,E,5,03,99.90,-1943.140,M,36.070,M,2.7,3007*50
$PMSBATV,073829.70,2,2,0.54735,1.02752,-121.80743,0.025,0.007,0.000,-106.89502,0.000*45
$GPGGA,073829.80,3540.277994842,N,13954.291917039,E,5,03,99.90,-1943.140,M,36.070,M,2.8,3007*57
$PMSBATV,073829.80,2,2,0.54571,1.02713,-121.80230,0.025,0.007,-0.000,-106.89502,0.000*61
$GPGGA,073829.90,3540.277994509,N,13954.291915671,E,5,02,99.90,-1943.140,M,36.070,M,2.9,3007*5C
$PMSBATV,073829.90,2,2,0.54304,1.02916,-121.79821,0.025,0.007,0.000,-106.89502,0.000*4E
$GPGGA,073830.00,3540.277994185,N,13954.291914291,E,5,02,99.90,-1943.140,M,36.070,M,3.0,3007*5E
$PMSBATV,073830.00,2,2,0.54421,1.02947,-121.79828,0.025,0.007,0.000,-106.89502,0.000*42
$GPGGA,073830.10,3540.277993854,N,13954.291912909,E,5,02,99.90,-1943.140,M,36.070,M,3.1,3007*50
$PMSBATV,073830.10,2,2,0.54341,1.02940,-121.79614,0.025,0.007,0.000,-106.89502,0.000*44
$GPGGA,073830.20,3540.277993533,N,13954.291911515,E,5,02,99.90,-1943.140,M,36.070,M,3.2,3007*5E
$PMSBATV,073830.20,2,2,0.54486,1.03402,-121.79705,0.025,0.007,0.000,-106.89502,0.000*40
$GPGGA,073830.30,3540.277993220,N,13954.291910096,E,5,02,99.90,-1943.140,M,36.070,M,3.3,3007*54
$PMSBATV,073830.30,2,2,0.55289,1.03033,-121.79972,0.025,0.007,0.000,-106.89502,0.000*41
$GPGGA,073830.40,3540.277992871,N,13954.291908705,E,5,02,99.90,-1943.140,M,36.070,M,3.4,3007*5F
$PMSBATV,073830.40,2,2,0.55444,1.01975,-121.79594,0.025,0.007,0.000,-106.89502,0.000*4C
$GPGGA,073830.50,3540.277992526,N,13954.291907301,E,5,02,99.90,-1943.140,M,36.070,M,3.5,3007*5F
$PMSBATV,073830.50,2,2,0.53513,1.02091,-121.79710,0.025,0.007,0.000,-106.89502,0.000*46
$GPGGA,073830.60,3540.277992213,N,13954.291905865,E,5,02,99.90,-1943.140,M,36.070,M,3.6,3007*55
$PMSBATV,073830.60,2,2,0.54697,1.02494,-121.79803,0.026,0.007,0.000,-106.89502,0.000*42
$GPGGA,073830.70,3540.277991878,N,13954.291904406,E,5,02,99.90,-1943.140,M,36.070,M,3.7,3007*59
$PMSBATV,073830.70,2,2,0.54706,1.02636,-121.80190,0.026,0.007,-0.000,-106.89502,0.000*68
$GPGGA,073830.80,3540.277991507,N,13954.291902960,E,5,02,99.90,-1943.140,M,36.070,M,3.8,3007*57
$PMSBATV,073830.80,2,2,0.53464,1.02705,-121.79649,0.026,0.007,0.000,-106.89502,0.000*4E
$GPGGA,073830.90,3540.277991182,N,13954.291901492,E,5,02,99.90,-1943.139,M,36.070,M,3.9,3007*53
$PMSBATV,073830.90,2,2,0.54612,1.02366,-121.79680,0.027,0.007,0.000,-106.89502,0.000*4E
$GPGGA,073831.00,3540.277990834,N,13954.291900004,E,5,02,99.90,-1943.139,M,36.070,M,4.0,3007*5A
$PMSBATV,073831.00,2,2,0.54981,1.01728,-121.79947,0.027,0.008,0.000,-106.89502,0.000*45
$GPGGA,073831.10,3540.277990476,N,13954.291898532,E,5,02,99.90,-1943.139,M,36.070,M,4.1,3007*50
$PMSBATV,073831.10,2,2,0.53786,1.01390,-121.79963,0.027,0.008,0.000,-106.89502,0.000*4B
$GPGGA,073831.20,3540.277990135,N,13954.291897017,E,5,02,99.90,-1943.139,M,36.070,M,4.2,3007*5F
$PMSBATV,073831.20,2,2,0.54725,1.01165,-121.79952,0.027,0.007,0.000,-106.89502,0.000*43
$GPGGA,073831.30,3540.277989769,N,13954.291895476,E,5,02,99.90,-1943.139,M,36.070,M,4.3,3007*59
$PMSBATV,073831.30,2,2,0.55155,1.00480,-121.79814,0.027,0.008,0.000,-106.89502,0.000*41
$GPGGA,073831.40,3540.277989409,N,13954.291893971,E,5,02,99.90,-1943.139,M,36.070,M,4.4,3007*50
$PMSBATV,073831.40,2,2,0.54423,1.00287,-121.79856,0.027,0.008,0.000,-106.89502,0.000*44
$GPGGA,073831.50,3540.277989062,N,13954.291892456,E,5,02,99.90,-1943.139,M,36.070,M,4.5,3007*50
$PMSBATV,073831.50,2,2,0.55104,1.00699,-121.79836,0.028,0.008,0.000,-106.89502,0.000*46
$GPGGA,073831.60,3540.277988704,N,13954.291890867,E,5,02,99.90,-1943.139,M,36.070,M,4.6,3007*5A
$PMSBATV,073831.60,2,2,0.55629,1.00571,-121.80144,0.029,0.008,0.000,-106.89502,0.000*43
$GPGGA,073831.70,3540.277988326,N,13954.291889284,E,5,02,99.90,-1943.139,M,36.070,M,4.7,3007*51
$PMSBATV,073831.70,2,2,0.54610,1.00356,-121.80427,0.028,0.008,0.000,-106.89502,0.000*4B
$GPGGA,073831.80,3540.277987953,N,13954.291887710,E,5,02,99.90,-1943.139,M,36.070,M,4.8,3007*50
$PMSBATV,073831.80,2,2,0.54981,1.00793,-121.80096,0.029,0.008,0.000,-106.89502,0.000*41
$GPGGA,073831.90,3540.277987577,N,13954.291886098,E,5,02,99.90,-1943.139,M,36.070,M,4.9,3007*5C
$PMSBATV,073831.90,2,2,0.55440,1.00987,-121.79883,0.029,0.008,-0.000,-106.89502,0.000*6D
$GPGGA,073832.00,3540.277987199,N,13954.291884487,E,5,02,99.90,-1943.139,M,36.070,M,5.0,3007*52
$PMSBATV,073832.00,2,2,0.55289,1.01151,-121.79822,0.029,0.008,0.000,-106.89502,0.000*40
$GPGGA,073832.10,3540.277986812,N,13954.291882884,E,5,01,99.90,-1943.139,M,36.070,M,5.1,3007*53
$PMSBATV,073832.10,2,2,0.55414,1.00808,-121.79544,0.029,0.008,0.000,-106.89502,0.000*4A
$GPGGA,073832.20,3540.277986432,N,13954.291881262,E,5,01,99.90,-1943.139,M,36.070,M,5.2,3007*5C
$PMSBATV,073832.20,2,2,0.54970,1.00913,-121.79686,0.029,0.008,-0.000,-106.89502,0.000*6C
$GPGGA,073832.30,3540.277986051,N,13954.291879599,E,5,01,99.90,-1943.139,M,36.070,M,5.3,3007*59
$PMSBATV,073832.30,2,2,0.55055,1.00856,-121.79891,0.030,0.008,0.000,-106.89502,0.000*4F
$GPGGA,073832.40,3540.277985659,N,13954.291877946,E,5,01,99.90,-1943.139,M,36.070,M,5.4,3007*54
$PMSBATV,073832.40,2,2,0.55374,1.01018,-121.79586,0.030,0.008,0.000,-106.89502,0.000*40
$GPGGA,073832.50,3540.277985276,N,13954.291876284,E,5,01,99.90,-1943.139,M,36.070,M,5.5,3007*59
$PMSBATV,073832.50,2,2,0.55568,1.01478,-121.79652,0.030,0.008,0.000,-106.89502,0.000*42
$GPGGA,073832.60,3540.277984869,N,13954.291874597,E,5,01,99.90,-1943.139,M,36.070,M,5.6,3007*5B
$PMSBATV,073832.60,2,2,0.55163,1.00586,-121.79726,0.031,0.009,0.000,-106.89502,0.000*4D
$GPGGA,073832.70,3540.277984470,N,13954.291872859,E,5,01,99.90,-1943.139,M,36.070,M,5.7,3007*56
$PMSBATV,073832.70,2,2,0.55898,1.00127,-121.79616,0.031,0.009,0.000,-106.89502,0.000*4C
$GPGGA,073832.80,3540.277984068,N,13954.291871118,E,5,01,99.90,-1943.139,M,36.070,M,5.8,3007*54
$PMSBATV,073832.80,2,2,0.56001,0.99707,-121.79870,0.031,0.009,0.000,-106.89502,0.000*43
$GPGGA,073832.90,3540.277983649,N,13954.291869381,E,5,01,99.90,-1943.139,M,36.070,M,5.9,3007*5D
$PMSBATV,073832.90,2,2,0.55380,1.00149,-121.79709,0.032,0.009,-0.000,-106.89502,0.000*69
$GPGGA,073833.00,3540.277983231,N,13954.291867591,E,5,01,99.90,-1943.139,M,36.070,M,6.0,3007*5D
$PMSBATV,073833.00,2,2,0.55560,1.00668,-121.79546,0.032,0.009,0.000,-106.89502,0.000*49
$GPGGA,073833.10,3540.277982811,N,13954.291865772,E,5,02,99.90,-1943.139,M,36.070,M,1.1,3007*5D
$PMSBATV,073833.10,2,2,0.55784,1.01248,-121.79593,0.033,0.009,-0.000,-106.89502,0.000*63
$GPGGA,073833.20,3540.277982383,N,13954.291863928,E,5,02,99.90,-1943.139,M,36.070,M,1.2,3007*5A
$PMSBATV,073833.20,2,2,0.55690,1.01230,-121.79794,0.033,0.009,0.000,-106.89502,0.000*43
$GPGGA,073833.30,3540.277981932,N,13954.291862056,E,5,02,99.90,-1943.139,M,36.070,M,1.3,3007*58
$PMSBATV,073833.30,2,2,0.55282,1.01383,-121.79572,0.034,0.010,0.000,-106.89502,0.000*49
$GPGGA,073833.40,3540.277981505,N,13954.291860218,E,5,02,99.90,-1943.139,M,36.070,M,1.4,3007*5A
$PMSBATV,073833.40,2,2,0.55466,1.01220,-121.79774,0.033,0.009,0.000,-106.89502,0.000*41
$GPGGA,073833.50,3540.277981073,N,13954.291858409,E,5,02,99.90,-1943.139,M,36.070,M,1.5,3007*53
$PMSBATV,073833.50,2,2,0.55006,1.01821,-121.79420,0.033,0.009,-0.000,-106.89502,0.000*66
$GPGGA,073833.60,3540.277980659,N,13954.291856560,E,5,02,99.90,-1943.139,M,36.070,M,1.6,3007*5C
$PMSBATV,073833.60,2,2,0.55416,1.01310,-121.79956,0.033,0.009,0.000,-106.89502,0.000*48
$GPGGA,073833.70,3540.277980220,N,13954.291854713,E,5,02,99.90,-1943.139,M,36.070,M,1.7,3007*52
$PMSBATV,073833.70,2,2,0.55796,1.00738,-121.79811,0.034,0.009,0.000,-106.89502,0.000*48
$GPGGA,073833.80,3540.277979770,N,13954.291852861,E,5,02,99.90,-1943.139,M,36.070,M,1.8,3007*58
$PMSBATV,073833.80,2,2,0.55388,1.00427,-121.79447,0.033,0.009,0.000,-106.89502,0.000*49
$GPGGA,073833.90,3540.277979352,N,13954.291851013,E,5,02,99.90,-1943.139,M,36.070,M,1.9,3007*52
$PMSBATV,073833.90,2,2,0.55673,1.01148,-121.79623,0.033,0.009,-0.000,-106.89502,0.000*69
$GPGGA,073834.00,3540.277978915,N,13954.291849139,E,5,02,99.90,-1943.139,M,36.070,M,2.0,3007*5E
$PMSBATV,073834.00,2,2,0.55994,1.01762,-121.79562,0.034,0.010,0.000,-106.89502,0.000*4B
$GPGGA,073834.10,3540.277978468,N,13954.291847264,E,5,02,99.90,-1943.139,M,36.070,M,2.1,3007*5C
$PMSBATV,073834.10,2,2,0.55969,1.01702,-121.79335,0.034,0.010,0.000,-106.89502,0.000*4A
$GPGGA,073834.20,3540.277978032,N,13954.291845385,E,5,02,99.90,-1943.139,M,36.070,M,2.2,3007*5B
$PMSBATV,073834.20,2,2,0.56177,1.01965,-121.79189,0.034,0.009,0.000,-106.89502,0.000*4F
$GPGGA,073834.30,3540.277977595,N,13954.291843490,E,5,02,99.90,-1943.139,M,36.070,M,2.3,3007*59
$PMSBATV,073834.30,2,2,0.56716,1.01304,-121.79412,0.034,0.010,0.000,-106.89502,0.000*4D
$GPGGA,073834.40,3540.277977139,N,13954.291841557,E,5,02,99.90,-1943.139,M,36.070,M,2.4,3007*53
$PMSBATV,073834.40,2,2,0.56225,1.01068,-121.79405,0.035,0.010,0.000,-106.89502,0.000*41
$GPGGA,073834.50,3540.277976703,N,13954.291839646,E,5,02,99.90,-1943.139,M,36.070,M,2.5,3007*51
$PMSBATV,073834.50,2,2,0.56610,1.01430,-121.79481,0.034,0.009,0.000,-106.89502,0.000*4E
$GPGGA,073834.60,3540.277976252,N,13954.291837773,E,5,02,99.90,-1943.139,M,36.070,M,2.6,3007*59
$PMSBATV,073834.60,2,2,0.56664,1.01922,-121.79246,0.034,0.010,0.000,-106.89502,0.000*45
$GPGGA,073834.70,3540.277975803,N,13954.291835881,E,5,02,99.90,-1943.139,M,36.070,M,2.7,3007*54
$PMSBATV,073834.70,2,2,0.55808,1.02371,-121.79282,0.034,0.010,-0.000,-106.89502,0.000*69
$GPGGA,073834.80,3540.277975362,N,13954.291833988,E,5,02,99.90,-1943.139,M,36.070,M,2.8,3007*56
$PMSBATV,073834.80,2,2,0.56386,1.02416,-121.78954,0.034,0.009,-0.000,-106.89502,0.000*67
$GPGGA,073834.90,3540.277974924,N,13954.291832074,E,5,02,99.90,-1943.139,M,36.070,M,2.9,3007*54
$PMSBATV,073834.90,2,2,0.56478,1.02721,-121.79307,0.034,0.010,0.000,-106.89502,0.000*4F
$GPGGA,073835.00,3540.277974476,N,13954.291830207,E,5,02,99.90,-1943.139,M,36.070,M,3.0,3007*5A
$PMSBATV,073835.00,2,2,0.56201,1.02877,-121.79052,0.034,0.009,0.000,-106.89502,0.000*48
$GPGGA,073835.10,3540.277974060,N,13954.291828332,E,5,02,99.90,-1943.139,M,36.070,M,3.1,3007*57
$PMSBATV,073835.10,2,2,0.56609,1.02876,-121.79560,0.033,0.009,0.000,-106.89502,0.000*47
$GPGGA,073835.20,3540.277973620,N,13954.291826487,E,5,02,99.90,-1943.139,M,36.070,M,3.2,3007*55
$PMSBATV,073835.20,2,2,0.56384,1.02768,-121.79517,0.032,0.009,0.000,-106.89502,0.000*45
$GPGGA,073835.30,3540.277973177,N,13954.291824686,E,5,02,99.90,-1943.139,M,36.070,M,3.3,3007*51
$PMSBATV,073835.30,2,2,0.55608,1.03097,-121.79005,0.033,0.009,0.000,-106.89502,0.000*47
$GPGGA,073835.40,3540.277972756,N,13954.291822865,E,5,02,99.90,-1943.139,M,36.070,M,3.4,3007*50
$PMSBATV,073835.40,2,2,0.56012,1.02519,-121.79166,0.032,0.009,0.000,-106.89502,0.000*49
$GPGGA,073835.50,3540.277972328,N,13954.291821054,E,5,02,99.90,-1943.139,M,36.070,M,3.5,3007*54
$PMSBATV,073835.50,2,2,0.55935,1.02389,-121.79080,0.033,0.009,0.000,-106.89502,0.000*40
$GPGGA,073835.60,3540.277971906,N,13954.291819234,E,5,02,99.90,-1943.139,M,36.070,M,3.6,3007*5E
$PMSBATV,073835.60,2,2,0.55369,1.02337,-121.79493,0.032,0.009,0.000,-106.89502,0.000*42
$GPGGA,073835.70,3540.277971478,N,13954.291817420,E,5,02,99.90,-1943.139,M,36.070,M,3.7,3007*57
$PMSBATV,073835.70,2,2,0.55784,1.02533,-121.79153,0.033,0.009,0.000,-106.89502,0.000*4E
$GPGGA,073835.80,3540.277971055,N,13954.291815605,E,5,02,99.90,-1943.139,M,36.070,M,3.8,3007*5B
$PMSBATV,073835.80,2,2,0.55648,1.02416,-121.79325,0.032,0.009,0.000,-106.89502,0.000*44
$GPGGA,073835.90,3540.277970622,N,13954.291813834,E,5,02,99.90,-1943.139,M,36.070,M,3.9,3007*56
$PMSBATV,073835.90,2,2,0.55000,1.02147,-121.79091,0.032,0.009,-0.000,-106.89502,0.000*6F
$GPGGA,073836.00,3540.277970211,N,13954.291812035,E,5,02,99.90,-1943.139,M,36.070,M,4.0,3007*5E
$PMSBATV,073836.00,2,2,0.55615,1.02153,-121.79164,0.032,0.009,0.000,-106.89502,0.000*44
$GPGGA,073836.10,3540.277969774,N,13954.291810224,E,5,02,99.90,-1943.139,M,36.070,M,4.1,3007*50
$PMSBATV,073836.10,2,2,0.55703,1.01581,-121.78726,0.033,0.009,0.000,-106.89502,0.000*4B
$GPGGA,073836.20,3540.277969329,N,13954.291808420,E,5,02,99.90,-1943.139,M,36.070,M,4.2,3007*57
$PMSBATV,073836.20,2,2,0.54387,1.01531,-121.78743,0.033,0.009,-0.000,-106.89502,0.000*64
$GPGGA,073836.30,3540.277968902,N,13954.291806595,E,5,02,99.90,-1943.138,M,36.070,M,4.3,3007*55
$PMSBATV,073836.30,2,2,0.54464,1.01417,-121.78571,0.032,0.009,0.000,-106.89502,0.000*45
$GPGGA,073836.40,3540.277968482,N,13954.291804787,E,5,02,99.90,-1943.138,M,36.070,M,4.4,3007*53
$PMSBATV,073836.40,2,2,0.55220,1.01408,-121.78429,0.033,0.009,-0.000,-106.89502,0.000*6B
$GPGGA,073836.50,3540.277968038,N,13954.291802973,E,5,02,99.90,-1943.138,M,36.070,M,4.5,3007*55
$PMSBATV,073836.50,2,2,0.54110,1.00795,-121.78308,0.033,0.009,0.000,-106.89502,0.000*44
$GPGGA,073836.60,3540.277967671,N,13954.291801141,E,5,02,99.90,-1943.138,M,36.070,M,4.6,3007*5B
$PMSBATV,073836.60,2,2,0.56000,1.01058,-121.79385,0.033,0.009,0.000,-106.89502,0.000*46
$GPGGA,073836.70,3540.277967227,N,13954.291799332,E,5,02,99.90,-1943.138,M,36.070,M,4.7,3007*54
$PMSBATV,073836.70,2,2,0.56413,1.01201,-121.78637,0.033,0.009,-0.000,-106.89502,0.000*6F
$GPGGA,073836.80,3540.277966775,N,13954.291797460,E,5,02,99.90,-1943.138,M,36.070,M,4.8,3007*59
$PMSBATV,073836.80,2,2,0.54824,1.01195,-121.78870,0.033,0.010,0.000,-106.89502,0.000*4C
$GPGGA,073836.90,3540.277966347,N,13954.291795609,E,5,02,99.90,-1943.138,M,36.070,M,4.9,3007*53
$PMSBATV,073836.90,2,2,0.56167,1.01090,-121.78275,0.033,0.009,0.000,-106.89502,0.000*42
$GPGGA,073837.00,3540.277965923,N,13954.291793727,E,5,02,99.90,-1943.138,M,36.070,M,5.0,3007*53
$PMSBATV,073837.00,2,2,0.56980,1.00862,-121.78525,0.034,0.009,-0.000,-106.89502,0.000*67
$GPGGA,073837.10,3540.277965451,N,13954.291791872,E,5,01,99.90,-1943.138,M,36.070,M,5.1,3007*55
$PMSBATV,073837.10,2,2,0.55143,1.00797,-121.78180,0.034,0.010,0.000,-106.89502,0.000*49
$GPGGA,073837.20,3540.277965039,N,13954.291789978,E,5,01,99.90,-1943.138,M,36.070,M,5.2,3007*5D
$PMSBATV,073837.20,2,2,0.56024,1.00764,-121.78683,0.034,0.009,0.000,-106.89502,0.000*49
$GPGGA,073837.30,3540.277964591,N,13954.291788085,E,5,01,99.90,-1943.138,M,36.070,M,5.3,3007*51
$PMSBATV,073837.30,2,2,0.56354,1.00853,-121.78578,0.034,0.010,-0.000,-106.89502,0.000*65
$GPGGA,073837.40,3540.277964137,N,13954.291786189,E,5,01,99.90,-1943.138,M,36.070,M,5.4,3007*5A
$PMSBATV,073837.40,2,2,0.55026,1.00697,-121.78822,0.034,0.010,0.000,-106.89502,0.000*4E
$GPGGA,073837.50,3540.277963695,N,13954.291784271,E,5,01,99.90,-1943.138,M,36.070,M,5.5,3007*54
$PMSBATV,073837.50,2,2,0.55496,0.99986,-121.78901,0.034,0.010,0.000,-106.89502,0.000*4E
$GPGGA,073837.60,3540.277963260,N,13954.291782335,E,5,01,99.90,-1943.138,M,36.070,M,5.6,3007*5D
