$GPGGA,080718.70,3542.293418862,N,13943.287865265,E,4,10,1.90,23.743,M,36.996,M,1.7,2007*4C
$PMSBATV,080718.70,2,2,0.04143,0.69729,-140.16613,0.001,0.000,0.000,-2.71694,0.000*45
$GPGGA,080718.80,3542.293418710,N,13943.287864723,E,4,10,1.90,23.742,M,36.996,M,1.8,2007*41
$PMSBATV,080718.80,2,2,0.03929,0.70457,-140.16989,0.001,-0.000,0.000,-2.71694,0.000*6A
$GPGGA,080718.90,3542.293418649,N,13943.287864716,E,4,10,1.90,23.742,M,36.996,M,1.9,2007*4A
$PMSBATV,080718.90,2,2,0.07050,0.68231,-140.17592,0.001,0.000,0.000,-2.71694,0.000*4D
$GPGGA,080719.00,3542.293418760,N,13943.287865191,E,4,10,1.90,23.742,M,36.996,M,2.0,2007*4A
$PMSBATV,080719.00,2,2,0.05137,0.70441,-140.17555,0.001,-0.000,0.000,-2.71694,0.000*69
$GPGGA,080719.10,3542.293418697,N,13943.287864930,E,4,10,1.90,23.742,M,36.996,M,2.1,2007*41
$PMSBATV,080719.10,2,2,0.04564,0.70150,-140.17445,0.001,-0.000,0.000,-2.71694,0.000*6E
$GPGGA,080719.20,3542.293418828,N,13943.287864910,E,4,10,1.90,23.741,M,36.996,M,2.2,2007*4A
$PMSBATV,080719.20,2,2,0.05325,0.68612,-140.17642,0.001,0.000,-0.000,-2.71694,0.000*62
$GPGGA,080719.30,3542.293418970,N,13943.287865227,E,4,10,1.90,23.741,M,36.996,M,2.3,2007*48
$PMSBATV,080719.30,2,2,0.01899,0.71199,-140.17673,0.001,-0.000,-0.000,-2.71694,0.000*48
$GPGGA,080719.40,3542.293418928,N,13943.287864732,E,4,10,1.90,23.741,M,36.996,M,2.4,2007*45
$PMSBATV,080719.40,2,2,0.01827,0.72606,-140.17756,0.001,0.000,0.000,-2.71694,0.000*4E
$GPGGA,080719.50,3542.293418833,N,13943.287864599,E,4,10,1.90,23.740,M,36.996,M,2.5,2007*4C
$PMSBATV,080719.50,2,2,-0.00139,0.73343,-140.17829,0.000,-0.000,-0.000,-2.71694,0.000*66
$GPGGA,080719.60,3542.293418895,N,13943.287864472,E,4,10,1.90,23.740,M,36.996,M,2.6,2007*44
$PMSBATV,080719.60,2,2,-0.00741,0.74923,-140.17237,0.000,-0.000,-0.000,-2.71694,0.000*62
$GPGGA,080719.70,3542.293418753,N,13943.287864304,E,4,10,1.90,23.740,M,36.996,M,2.7,2007*47
$PMSBATV,080719.70,2,2,-0.01203,0.74348,-140.17071,0.000,-0.000,0.000,-2.71694,0.000*4B
$GPGGA,080719.80,3542.293418878,N,13943.287864318,E,4,10,1.90,23.739,M,36.996,M,2.8,2007*42
$PMSBATV,080719.80,2,2,0.00746,0.73815,-140.17242,0.000,-0.000,-0.000,-2.71694,0.000*47
$GPGGA,080719.90,3542.293418870,N,13943.287864568,E,4,10,1.90,23.740,M,36.996,M,2.9,2007*45
$PMSBATV,080719.90,2,2,-0.00398,0.73965,-140.17297,0.000,-0.000,-0.000,-2.71694,0.000*62
$GPGGA,080720.00,3542.293418912,N,13943.287864493,E,4,10,1.90,23.739,M,36.996,M,3.0,2007*40
$PMSBATV,080720.00,2,2,0.01666,0.73614,-140.17486,0.000,0.000,0.000,-2.71694,0.000*46
$GPGGA,080720.10,3542.293418851,N,13943.287864782,E,4,10,1.90,23.739,M,36.996,M,3.1,2007*45
$PMSBATV,080720.10,2,2,-0.00389,0.73540,-140.17245,0.000,-0.000,0.000,-2.71694,0.000*49
$GPGGA,080720.20,3542.293418986,N,13943.287864654,E,4,10,1.90,23.738,M,36.996,M,3.2,2007*45
$PMSBATV,080720.20,2,2,-0.00524,0.76138,-140.17285,0.000,-0.000,-0.000,-2.71694,0.000*64
$GPGGA,080720.30,3542.293418784,N,13943.287864445,E,4,10,1.90,23.739,M,36.996,M,3.3,2007*4A
$PMSBATV,080720.30,2,2,-0.01044,0.75635,-140.17141,0.000,-0.000,-0.000,-2.71694,0.000*65
$GPGGA,080720.40,3542.293418918,N,13943.287864407,E,4,10,1.90,23.739,M,36.996,M,3.4,2007*47
$PMSBATV,080720.40,2,2,-0.01050,0.77296,-140.17550,0.000,0.000,0.000,-2.71694,0.000*6C
$GPGGA,080720.50,3542.293418751,N,13943.287864294,E,4,10,1.90,23.738,M,36.996,M,3.5,2007*49
$PMSBATV,080720.50,2,2,-0.02520,0.78823,-140.17354,0.000,-0.000,0.000,-2.71694,0.000*48
$GPGGA,080720.60,3542.293418714,N,13943.287864088,E,4,10,1.90,23.738,M,36.996,M,3.6,2007*47
$PMSBATV,080720.60,2,2,-0.02699,0.78361,-140.17373,0.000,-0.000,0.000,-2.71694,0.000*42
$GPGGA,080720.70,3542.293418820,N,13943.287864119,E,4,10,1.90,23.738,M,36.996,M,3.7,2007*46
$PMSBATV,080720.70,2,2,0.00959,0.75869,-140.16663,0.000,-0.000,0.000,-2.71694,0.000*64
$GPGGA,080720.80,3542.293418889,N,13943.287864750,E,4,10,1.90,23.738,M,36.996,M,3.8,2007*4E
$PMSBATV,080720.80,2,2,-0.04023,0.80290,-140.16410,0.000,-0.000,0.000,-2.71694,0.000*46
$GPGGA,080720.90,3542.293418725,N,13943.287863942,E,4,10,1.90,23.737,M,36.996,M,3.9,2007*42
$PMSBATV,080720.90,2,2,-0.02721,0.79494,-140.16384,0.000,-0.000,0.000,-2.71694,0.000*4A
$GPGGA,080721.00,3542.293418785,N,13943.287864085,E,4,10,1.90,23.737,M,36.996,M,4.0,2007*4B
$PMSBATV,080721.00,2,2,-0.02273,0.77932,-140.16350,0.000,-0.000,0.000,-2.71694,0.000*46
$GPGGA,080721.10,3542.293418942,N,13943.287864324,E,4,10,1.90,23.737,M,36.996,M,4.1,2007*46
$PMSBATV,080721.10,2,2,-0.00365,0.77394,-140.17161,0.000,0.000,0.000,-2.71694,0.000*69
$GPGGA,080721.20,3542.293418913,N,13943.287864577,E,4,10,1.91,23.737,M,36.996,M,4.2,2007*43
$PMSBATV,080721.20,2,2,-0.00575,0.77092,-140.16883,0.000,-0.000,-0.000,-2.71694,0.000*6C
$GPGGA,080721.30,3542.293419014,N,13943.287864592,E,4,10,1.91,23.737,M,36.996,M,4.3,2007*47
$PMSBATV,080721.30,2,2,-0.02547,0.78873,-140.16772,0.000,-0.000,0.000,-2.71694,0.000*4A
$GPGGA,080721.40,3542.293418943,N,13943.287864279,E,4,10,1.91,23.737,M,36.996,M,4.4,2007*4F
$PMSBATV,080721.40,2,2,-0.04464,0.78931,-140.16499,0.000,-0.000,0.000,-2.71694,0.000*4A
$GPGGA,080721.50,3542.293419093,N,13943.287864186,E,4,10,1.91,23.737,M,36.996,M,4.5,2007*49
$PMSBATV,080721.50,2,2,-0.02158,0.77686,-140.16664,0.000,0.000,-0.000,-2.71694,0.000*4B
$GPGGA,080721.60,3542.293419100,N,13943.287864439,E,4,10,1.91,23.736,M,36.996,M,4.6,2007*42
$PMSBATV,080721.60,2,2,-0.03101,0.76422,-140.16771,0.000,-0.000,0.000,-2.71694,0.000*4D
$GPGGA,080721.70,3542.293419314,N,13943.287864540,E,4,10,1.91,23.736,M,36.996,M,4.7,2007*4A
$PMSBATV,080721.70,2,2,-0.03600,0.78844,-140.16550,0.000,-0.000,0.000,-2.71694,0.000*49
$GPGGA,080721.80,3542.293419128,N,13943.287864318,E,4,10,1.91,23.736,M,36.996,M,4.8,2007*4C
$PMSBATV,080721.80,2,2,-0.01399,0.75201,-140.16339,0.000,-0.000,0.000,-2.71694,0.000*4E
$GPGGA,080721.90,3542.293419453,N,13943.287864844,E,4,10,1.91,23.736,M,36.996,M,4.9,2007*47
$PMSBATV,080721.90,2,2,-0.03359,0.77181,-140.17069,0.001,0.000,-0.000,-2.71694,0.000*4E
$GPGGA,080722.00,3542.293419401,N,13943.287864490,E,4,10,1.91,23.736,M,36.996,M,5.0,2007*47
$PMSBATV,080722.00,2,2,-0.02043,0.77593,-140.16690,0.000,-0.000,0.000,-2.71694,0.000*4A
$GPGGA,080722.10,3542.293419289,N,13943.287864632,E,4,10,1.91,23.736,M,36.996,M,5.1,2007*4B
$PMSBATV,080722.10,2,2,-0.00280,0.75712,-140.16259,0.000,-0.000,0.000,-2.71694,0.000*4C
$GPGGA,080722.20,3542.293419424,N,13943.287865018,E,4,10,1.91,23.736,M,36.996,M,5.2,2007*45
$PMSBATV,080722.20,2,2,0.00070,0.76241,-140.15767,0.000,0.000,0.000,-2.71694,0.000*49
$GPGGA,080722.30,3542.293419383,N,13943.287865009,E,4,10,1.91,23.736,M,36.996,M,5.3,2007*4F
$PMSBATV,080722.30,2,2,0.02274,0.75092,-140.16089,0.000,0.000,0.000,-2.71694,0.000*47
$GPGGA,080722.40,3542.293419383,N,13943.287865356,E,4,10,1.91,23.736,M,36.996,M,5.4,2007*46
$PMSBATV,080722.40,2,2,0.00576,0.77664,-140.16104,0.000,-0.000,0.000,-2.71694,0.000*63
$GPGGA,080722.50,3542.293419299,N,13943.287864999,E,4,10,1.91,23.736,M,36.996,M,5.5,2007*44
$PMSBATV,080722.50,2,2,-0.04145,0.78796,-140.16003,0.000,-0.000,-0.000,-2.71694,0.000*67
$GPGGA,080722.60,3542.293419458,N,13943.287864498,E,4,10,1.91,23.735,M,36.996,M,5.6,2007*40
$PMSBATV,080722.60,2,2,-0.03883,0.78982,-140.16274,0.001,0.000,0.000,-2.71694,0.000*68
$GPGGA,080722.70,3542.293419493,N,13943.287864506,E,4,10,1.91,23.735,M,36.996,M,5.7,2007*41
$PMSBATV,080722.70,2,2,-0.03347,0.79630,-140.16487,0.000,-0.000,-0.000,-2.71694,0.000*66
$GPGGA,080722.80,3542.293419411,N,13943.287864543,E,4,10,1.91,23.735,M,36.996,M,5.8,2007*4A
$PMSBATV,080722.80,2,2,-0.02930,0.78831,-140.16344,0.000,0.000,-0.000,-2.71694,0.000*49
$GPGGA,080722.90,3542.293419503,N,13943.287864619,E,4,10,1.91,23.735,M,36.996,M,5.9,2007*44
$PMSBATV,080722.90,2,2,-0.02019,0.78068,-140.16797,0.000,0.000,0.000,-2.71694,0.000*69
$GPGGA,080723.00,3542.293419580,N,13943.287864776,E,4,10,1.91,23.735,M,36.996,M,6.0,2007*45
$PMSBATV,080723.00,2,2,0.00744,0.76243,-140.16770,0.000,-0.000,0.000,-2.71694,0.000*60
$GPGGA,080723.10,3542.293419603,N,13943.287865263,E,4,10,1.91,23.735,M,36.996,M,1.1,2007*4A
$PMSBATV,080723.10,2,2,0.02299,0.78751,-140.16968,0.000,-0.000,0.000,-2.71694,0.000*69
$GPGGA,080723.20,3542.293419262,N,13943.287865180,E,4,10,1.91,23.735,M,36.996,M,1.2,2007*47
$PMSBATV,080723.20,2,2,0.02229,0.78984,-140.16737,0.000,-0.000,-0.000,-2.71694,0.000*4E
$GPGGA,080723.30,3542.293419256,N,13943.287865198,E,4,10,1.91,23.735,M,36.996,M,1.3,2007*49
$PMSBATV,080723.30,2,2,0.01380,0.80634,-140.16537,0.000,-0.000,0.000,-2.71694,0.000*62
$GPGGA,080723.40,3542.293419111,N,13943.287865034,E,4,10,1.91,23.735,M,36.996,M,1.4,2007*4E
$PMSBATV,080723.40,2,2,0.02715,0.80051,-140.16510,0.000,0.000,0.000,-2.71694,0.000*43
$GPGGA,080723.50,3542.293419147,N,13943.287865221,E,4,10,1.91,23.735,M,36.996,M,1.5,2007*4B
$PMSBATV,080723.50,2,2,0.04271,0.79609,-140.16115,0.000,0.000,0.000,-2.71694,0.000*4F
$GPGGA,080723.60,3542.293419093,N,13943.287865416,E,4,10,1.91,23.735,M,36.996,M,1.6,2007*41
$PMSBATV,080723.60,2,2,0.05048,0.80095,-140.16601,0.000,-0.000,0.000,-2.71694,0.000*6F
$GPGGA,080723.70,3542.293419029,N,13943.287865475,E,4,10,1.91,23.735,M,36.996,M,1.7,2007*45
$PMSBATV,080723.70,2,2,0.01503,0.81843,-140.16825,0.000,0.000,-0.000,-2.71694,0.000*6A
$GPGGA,080723.80,3542.293419106,N,13943.287865046,E,4,10,1.91,23.735,M,36.996,M,1.8,2007*4D
$PMSBATV,080723.80,2,2,-0.03976,0.83932,-140.16858,0.000,0.000,0.000,-2.71694,0.000*66
$GPGGA,080723.90,3542.293419283,N,13943.287864351,E,4,10,1.91,23.734,M,36.996,M,1.9,2007*46
$PMSBATV,080723.90,2,2,-0.05992,0.85588,-140.16895,0.000,-0.000,-0.000,-2.71694,0.000*61
$GPGGA,080724.00,3542.293419220,N,13943.287864046,E,4,10,1.91,23.734,M,36.996,M,2.0,2007*4E
$PMSBATV,080724.00,2,2,-0.06096,0.88027,-140.16546,0.000,-0.000,0.000,-2.71694,0.000*42
$GPGGA,080724.10,3542.293418980,N,13943.287863812,E,4,10,1.91,23.734,M,36.996,M,2.1,2007*40
$PMSBATV,080724.10,2,2,-0.06206,0.87690,-140.16820,0.000,-0.000,0.000,-2.71694,0.000*40
$GPGGA,080724.20,3542.293419004,N,13943.287863834,E,4,10,1.91,23.734,M,36.996,M,2.2,2007*40
$PMSBATV,080724.20,2,2,-0.05895,0.87497,-140.16644,0.000,-0.000,0.000,-2.71694,0.000*49
$GPGGA,080724.30,3542.293418966,N,13943.287863902,E,4,10,1.91,23.733,M,36.996,M,2.3,2007*4F
$PMSBATV,080724.30,2,2,-0.06747,0.90200,-140.16780,0.000,-0.000,0.000,-2.71694,0.000*4C
$GPGGA,080724.40,3542.293418757,N,13943.287863619,E,4,10,1.91,23.733,M,36.996,M,2.4,2007*46
$PMSBATV,080724.40,2,2,-0.03699,0.87394,-140.16800,-0.000,-0.000,0.000,-2.71694,0.000*6C
$GPGGA,080724.50,3542.293418867,N,13943.287864095,E,4,10,1.91,23.733,M,36.996,M,2.5,2007*4F
$PMSBATV,080724.50,2,2,-0.03614,0.88202,-140.16632,0.000,-0.000,0.000,-2.71694,0.000*4B
$GPGGA,080724.60,3542.293418745,N,13943.287864050,E,4,10,1.91,23.733,M,36.996,M,2.6,2007*49
$PMSBATV,080724.60,2,2,-0.04325,0.86675,-140.17288,0.000,0.000,0.000,-2.71694,0.000*6B
$GPGGA,080724.70,3542.293418969,N,13943.287864113,E,4,10,1.91,23.733,M,36.996,M,2.7,2007*4F
$PMSBATV,080724.70,2,2,-0.01669,0.85550,-140.17475,0.000,-0.000,0.000,-2.71694,0.000*4C
$GPGGA,080724.80,3542.293418989,N,13943.287864439,E,4,10,1.91,23.733,M,36.996,M,2.8,2007*4C
$PMSBATV,080724.80,2,2,-0.02080,0.87279,-140.17348,0.000,-0.000,-0.000,-2.71694,0.000*6B
$GPGGA,080724.90,3542.293418800,N,13943.287864236,E,4,10,1.91,23.733,M,36.996,M,2.9,2007*45
$PMSBATV,080724.90,2,2,-0.01558,0.85189,-140.17330,0.000,0.000,0.000,-2.71694,0.000*68
$GPGGA,080725.00,3542.293418990,N,13943.287864490,E,4,10,1.91,23.732,M,36.996,M,3.0,2007*46
$PMSBATV,080725.00,2,2,-0.01275,0.84209,-140.17405,0.000,0.000,-0.000,-2.71694,0.000*4E
$GPGGA,080725.10,3542.293419077,N,13943.287864561,E,4,10,1.91,23.732,M,36.996,M,3.1,2007*48
$PMSBATV,080725.10,2,2,-0.04711,0.86648,-140.17882,0.000,0.000,-0.000,-2.71694,0.000*4D
$GPGGA,080725.20,3542.293419010,N,13943.287864076,E,4,10,1.91,23.732,M,36.996,M,3.2,2007*4A
$PMSBATV,080725.20,2,2,-0.01074,0.84886,-140.18082,0.000,-0.000,0.000,-2.71694,0.000*46
$GPGGA,080725.30,3542.293418984,N,13943.287864597,E,4,10,1.91,23.732,M,36.996,M,3.3,2007*45
$PMSBATV,080725.30,2,2,-0.03075,0.86543,-140.17744,0.000,0.000,-0.000,-2.71694,0.000*40
$GPGGA,080725.40,3542.293418939,N,13943.287864306,E,4,10,1.91,23.732,M,36.996,M,3.4,2007*4D
$PMSBATV,080725.40,2,2,-0.04176,0.86154,-140.17560,0.000,-0.000,-0.000,-2.71694,0.000*69
$GPGGA,080725.50,3542.293419042,N,13943.287864189,E,4,10,1.91,23.731,M,36.996,M,3.5,2007*4F
$PMSBATV,080725.50,2,2,-0.02397,0.85774,-140.17580,0.000,0.000,0.000,-2.71694,0.000*6A
$GPGGA,080725.60,3542.293418974,N,13943.287864425,E,4,10,1.91,23.731,M,36.996,M,3.6,2007*41
$PMSBATV,080725.60,2,2,-0.03276,0.87231,-140.17202,0.000,-0.000,-0.000,-2.71694,0.000*6D
$GPGGA,080725.70,3542.293418834,N,13943.287864237,E,4,10,1.91,23.731,M,36.996,M,3.7,2007*41
$PMSBATV,080725.70,2,2,-0.06552,0.87538,-140.16729,0.000,0.000,0.000,-2.71694,0.000*6B
$GPGGA,080725.80,3542.293419050,N,13943.287863873,E,4,10,1.91,23.731,M,36.996,M,3.8,2007*47
$PMSBATV,080725.80,2,2,-0.03865,0.88565,-140.16923,-0.000,-0.000,0.000,-2.71694,0.000*6B
$GPGGA,080725.90,3542.293418722,N,13943.287864099,E,4,10,1.91,23.731,M,36.996,M,3.9,2007*4F
$PMSBATV,080725.90,2,2,-0.02115,0.88347,-140.16846,0.000,-0.000,0.000,-2.71694,0.000*4C
$GPGGA,080726.00,3542.293418598,N,13943.287864290,E,4,10,1.91,23.730,M,36.996,M,4.0,2007*42
$PMSBATV,080726.00,2,2,-0.02537,0.87483,-140.16791,-0.000,-0.000,0.000,-2.71694,0.000*6A
$GPGGA,080726.10,3542.293418752,N,13943.287864300,E,4,10,1.91,23.730,M,36.996,M,4.1,2007*4E
$PMSBATV,080726.10,2,2,-0.01761,0.86684,-140.16450,0.000,-0.000,0.000,-2.71694,0.000*4E
$GPGGA,080726.20,3542.293418793,N,13943.287864449,E,4,10,1.91,23.730,M,36.996,M,4.2,2007*49
$PMSBATV,080726.20,2,2,-0.02432,0.86475,-140.16609,0.000,0.000,0.000,-2.71694,0.000*64
$GPGGA,080726.30,3542.293418835,N,13943.287864408,E,4,10,1.91,23.729,M,36.996,M,4.3,2007*47
$PMSBATV,080726.30,2,2,-0.00983,0.84955,-140.16127,0.000,0.000,0.000,-2.71694,0.000*66
$GPGGA,080726.40,3542.293418920,N,13943.287864727,E,4,10,1.91,23.729,M,36.996,M,4.4,2007*4C
$PMSBATV,080726.40,2,2,-0.02019,0.87415,-140.15983,0.000,-0.000,0.000,-2.71694,0.000*4B
$GPGGA,080726.50,3542.293418658,N,13943.287864424,E,4,10,1.91,23.729,M,36.996,M,4.5,2007*4C
$PMSBATV,080726.50,2,2,0.00319,0.84355,-140.15222,-0.000,-0.000,-0.000,-2.71694,0.000*66
$GPGGA,080726.60,3542.293418876,N,13943.287864918,E,4,10,1.91,23.729,M,36.996,M,4.6,2007*4C
$PMSBATV,080726.60,2,2,0.02369,0.83178,-140.15325,0.000,-0.000,-0.000,-2.71694,0.000*41
$GPGGA,080726.70,3542.293418841,N,13943.287865245,E,4,10,1.91,23.729,M,36.996,M,4.7,2007*4A
$PMSBATV,080726.70,2,2,-0.00158,0.85106,-140.15111,0.000,0.000,-0.000,-2.71694,0.000*48
$GPGGA,080726.80,3542.293418750,N,13943.287864878,E,4,10,1.91,23.728,M,36.996,M,4.8,2007*41
$PMSBATV,080726.80,2,2,0.01052,0.82525,-140.15523,0.000,-0.000,0.000,-2.71694,0.000*67
$GPGGA,080726.90,3542.293418938,N,13943.287865252,E,4,10,1.91,23.728,M,36.996,M,4.9,2007*42
$PMSBATV,080726.90,2,2,-0.01586,0.85798,-140.15300,0.000,-0.000,-0.000,-2.71694,0.000*6E
$GPGGA,080727.00,3542.293418752,N,13943.287864746,E,4,10,1.91,23.728,M,36.996,M,5.0,2007*41
$PMSBATV,080727.00,2,2,-0.02062,0.85849,-140.15367,0.000,-0.000,0.000,-2.71694,0.000*45
$GPGGA,080727.10,3542.293418751,N,13943.287864707,E,4,10,1.91,23.727,M,36.996,M,5.1,2007*48
$PMSBATV,080727.10,2,2,-0.02367,0.85448,-140.15560,0.000,-0.000,0.000,-2.71694,0.000*4E
$GPGGA,080727.20,3542.293418819,N,13943.287864703,E,4,10,1.91,23.727,M,36.996,M,5.2,2007*4F
$PMSBATV,080727.20,2,2,-0.02407,0.83962,-140.15447,-0.000,-0.000,-0.000,-2.71694,0.000*4B
$GPGGA,080727.30,3542.293418989,N,13943.287864822,E,4,10,1.91,23.727,M,36.996,M,5.3,2007*4B
$PMSBATV,080727.30,2,2,-0.02216,0.82404,-140.14859,0.000,-0.000,-0.000,-2.71694,0.000*6F
$GPGGA,080727.40,3542.293419132,N,13943.287865017,E,4,10,1.91,23.727,M,36.996,M,5.4,2007*4D
$PMSBATV,080727.40,2,2,-0.01312,0.82368,-140.14766,0.000,-0.000,0.000,-2.71694,0.000*4D
$GPGGA,080727.50,3542.293419035,N,13943.287865140,E,4,10,1.91,23.726,M,36.996,M,5.5,2007*49
$PMSBATV,080727.50,2,2,-0.03380,0.81660,-140.14538,0.000,-0.000,-0.000,-2.71694,0.000*6F
$GPGGA,080727.60,3542.293419235,N,13943.287865032,E,4,10,1.91,23.726,M,36.996,M,5.6,2007*4F
$PMSBATV,080727.60,2,2,-0.01906,0.81902,-140.14045,0.000,-0.000,0.000,-2.71694,0.000*43
$GPGGA,080727.70,3542.293419088,N,13943.287865210,E,4,09,2.17,23.726,M,36.996,M,5.7,2007*4C
$PMSBATV,080727.70,2,2,-0.00038,0.80287,-140.14030,0.000,-0.000,0.000,-2.71694,0.000*42
$GPGGA,080727.80,3542.293419084,N,13943.287865572,E,4,09,2.17,23.725,M,36.996,M,5.8,2007*40
$PMSBATV,080727.80,2,2,0.00040,0.78695,-140.13990,0.000,-0.000,0.000,-2.71694,0.000*6B
$GPGGA,080727.90,3542.293419297,N,13943.287865711,E,4,09,2.17,23.725,M,36.996,M,5.9,2007*47
$PMSBATV,080727.90,2,2,-0.00784,0.79699,-140.14094,0.000,-0.000,-0.000,-2.71694,0.000*62
$GPGGA,080728.00,3542.293419217,N,13943.287865568,E,4,09,2.17,23.725,M,36.996,M,6.0,2007*4F
$PMSBATV,080728.00,2,2,0.00984,0.79216,-140.14009,0.000,-0.000,0.000,-2.71694,0.000*6D
$GPGGA,080728.10,3542.293419212,N,13943.287865795,E,4,09,2.17,23.724,M,36.996,M,1.1,2007*4C
$PMSBATV,080728.10,2,2,0.03333,0.77716,-140.13594,0.000,-0.000,-0.000,-2.71694,0.000*49
$GPGGA,080728.20,3542.293419254,N,13943.287866197,E,4,09,2.17,23.725,M,36.996,M,1.2,2007*48
$PMSBATV,080728.20,2,2,0.03299,0.77969,-140.13213,0.000,-0.000,0.000,-2.71694,0.000*68
$GPGGA,080728.30,3542.293419268,N,13943.287866165,E,4,09,2.17,23.725,M,36.996,M,1.3,2007*4A
$PMSBATV,080728.30,2,2,0.02646,0.82468,-140.13726,0.000,-0.000,0.000,-2.71694,0.000*6B
$GPGGA,080728.40,3542.293418862,N,13943.287865733,E,4,09,2.17,23.725,M,36.996,M,1.4,2007*4D
$PMSBATV,080728.40,2,2,0.04724,0.81374,-140.13979,0.000,-0.000,-0.000,-2.71694,0.000*4F
$GPGGA,080728.50,3542.293418887,N,13943.287866014,E,4,09,2.17,23.725,M,36.996,M,1.5,2007*47
$PMSBATV,080728.50,2,2,0.05344,0.80325,-140.14025,0.000,0.000,0.000,-2.71694,0.000*4F
$GPGGA,080728.60,3542.293418992,N,13943.287866199,E,4,09,2.17,23.725,M,36.996,M,1.6,2007*46
$PMSBATV,080728.60,2,2,0.07051,0.80670,-140.14533,0.000,-0.000,0.000,-2.71694,0.000*63
$GPGGA,080728.70,3542.293418854,N,13943.287866350,E,4,09,2.17,23.725,M,36.996,M,1.7,2007*4A
$PMSBATV,080728.70,2,2,0.08286,0.81152,-140.14722,0.000,0.000,0.000,-2.71694,0.000*4C
$GPGGA,080728.80,3542.293418824,N,13943.287866395,E,4,09,2.17,23.725,M,36.996,M,1.8,2007*44
$PMSBATV,080728.80,2,2,0.08888,0.81544,-140.15046,0.000,0.000,0.000,-2.71694,0.000*40
$GPGGA,080728.90,3542.293418744,N,13943.287866460,E,4,09,2.17,23.726,M,36.996,M,1.9,2007*43
$PMSBATV,080728.90,2,2,0.10971,0.79445,-140.15123,0.000,0.000,0.000,-2.71694,0.000*4A
$GPGGA,080729.00,3542.293418877,N,13943.287866890,E,4,09,2.17,23.726,M,36.996,M,2.0,2007*4D
$PMSBATV,080729.00,2,2,0.11898,0.79467,-140.14807,0.000,-0.000,0.000,-2.71694,0.000*66
$GPGGA,080729.10,3542.293418832,N,13943.287866968,E,4,09,2.17,23.726,M,36.996,M,2.1,2007*4A
$PMSBATV,080729.10,2,2,0.12876,0.81227,-140.14906,0.000,-0.000,0.000,-2.71694,0.000*61
$GPGGA,080729.20,3542.293418591,N,13943.287866962,E,4,09,2.17,23.726,M,36.996,M,2.2,2007*44
$PMSBATV,080729.20,2,2,0.14691,0.80250,-140.14579,0.000,0.000,-0.000,-2.71694,0.000*66
$GPGGA,080729.30,3542.293418578,N,13943.287867218,E,4,09,2.17,23.726,M,36.996,M,2.3,2007*44
$PMSBATV,080729.30,2,2,0.13259,0.81002,-140.14954,0.000,0.000,0.000,-2.71694,0.000*4A
$GPGGA,080729.40,3542.293418593,N,13943.287867053,E,4,09,2.17,23.726,M,36.996,M,2.4,2007*4C
$PMSBATV,080729.40,2,2,0.16333,0.77164,-140.14803,0.000,0.000,0.000,-2.71694,0.000*4E
$GPGGA,080729.50,3542.293418809,N,13943.287867729,E,4,09,2.17,23.726,M,36.996,M,2.5,2007*48
$PMSBATV,080729.50,2,2,0.19364,0.77340,-140.15437,0.000,0.000,0.000,-2.71694,0.000*4C
$GPGGA,080729.60,3542.293418613,N,13943.287868010,E,4,09,2.17,23.726,M,36.996,M,2.6,2007*4F
$PMSBATV,080729.60,2,2,0.17116,0.78643,-140.15223,0.000,0.000,0.000,-2.71694,0.000*4C
$GPGGA,080729.70,3542.293418622,N,13943.287867744,E,4,09,2.17,23.726,M,36.996,M,2.7,2007*44
$PMSBATV,080729.70,2,2,0.13487,0.81813,-140.15214,0.000,-0.000,-0.000,-2.71694,0.000*4D
$GPGGA,080729.80,3542.293418516,N,13943.287867167,E,4,09,2.17,23.726,M,36.996,M,2.8,2007*47
$PMSBATV,080729.80,2,2,0.15511,0.81782,-140.14915,0.000,0.000,-0.000,-2.71694,0.000*6B
$GPGGA,080729.90,3542.293418404,N,13943.287867402,E,4,09,2.17,23.726,M,36.996,M,2.9,2007*43
$PMSBATV,080729.90,2,2,0.14894,0.84213,-140.15470,0.000,0.000,-0.000,-2.71694,0.000*6C
$GPGGA,080730.00,3542.293418160,N,13943.287867116,E,4,09,2.17,23.726,M,36.996,M,3.0,2007*4D
$PMSBATV,080730.00,2,2,0.11664,0.83796,-140.15203,0.000,0.000,0.000,-2.71694,0.000*49
$GPGGA,080730.10,3542.293418415,N,13943.287866892,E,4,09,2.17,23.726,M,36.996,M,3.1,2007*4E
$PMSBATV,080730.10,2,2,0.04588,0.88395,-140.15013,0.000,-0.000,0.000,-2.71694,0.000*6F
$GPGGA,080730.20,3542.293418375,N,13943.287865933,E,4,09,2.17,23.725,M,36.996,M,3.2,2007*45
$PMSBATV,080730.20,2,2,-0.05278,0.95402,-140.14874,0.000,-0.000,0.000,-2.71694,0.000*45
$GPGGA,080730.30,3542.293418265,N,13943.287864422,E,4,09,2.17,23.725,M,36.996,M,3.3,2007*49
$PMSBATV,080730.30,2,2,-0.16676,1.01800,-140.14885,-0.000,-0.000,0.000,-2.71694,0.000*6D
$GPGGA,080730.40,3542.293418295,N,13943.287862843,E,4,09,2.17,23.725,M,36.996,M,3.4,2007*4B
$PMSBATV,080730.40,2,2,-0.24422,1.08870,-140.15038,-0.000,-0.000,0.000,-2.71694,0.000*69
$GPGGA,080730.50,3542.293418094,N,13943.287861420,E,4,09,2.17,23.725,M,36.996,M,3.5,2007*42
$PMSBATV,080730.50,2,2,-0.32766,1.13037,-140.14402,-0.001,-0.000,-0.000,-2.71694,0.000*4D
$GPGGA,080730.60,3542.293418125,N,13943.287860308,E,4,09,2.17,23.724,M,36.996,M,3.6,2007*44
$PMSBATV,080730.60,2,2,-0.37749,1.16054,-140.14533,-0.001,-0.001,0.000,-2.71694,0.000*69
$GPGGA,080730.70,3542.293418086,N,13943.287859530,E,4,09,2.17,23.724,M,36.996,M,3.7,2007*4B
$PMSBATV,080730.70,2,2,-0.37943,1.12886,-140.14194,-0.001,-0.001,-0.000,-2.71694,0.000*4B
$GPGGA,080730.80,3542.293418481,N,13943.287859668,E,4,09,2.17,23.724,M,36.996,M,3.8,2007*46
$PMSBATV,080730.80,2,2,-0.41697,1.16277,-140.14374,-0.001,-0.000,-0.000,-2.71694,0.000*4E
$GPGGA,080730.90,3542.293418315,N,13943.287858903,E,4,09,2.17,23.724,M,36.996,M,3.9,2007*4F
$PMSBATV,080730.90,2,2,-0.40848,1.16871,-140.14026,-0.001,-0.001,0.000,-2.71694,0.000*66
$GPGGA,080731.00,3542.293418093,N,13943.287859022,E,4,09,2.17,23.724,M,36.996,M,4.0,2007*4F
$PMSBATV,080731.00,2,2,-0.42533,1.18029,-140.13725,-0.001,-0.001,0.000,-2.71694,0.000*65
$GPGGA,080731.10,3542.293418099,N,13943.287858564,E,4,09,2.17,23.723,M,36.996,M,4.1,2007*44
$PMSBATV,080731.10,2,2,-0.48151,1.19891,-140.13658,-0.001,-0.000,0.000,-2.71694,0.000*6E
$GPGGA,080731.20,3542.293418227,N,13943.287857778,E,4,09,2.17,23.723,M,36.996,M,4.2,2007*43
$PMSBATV,080731.20,2,2,-0.51791,1.20066,-140.13802,-0.001,-0.001,0.000,-2.71694,0.000*65
$GPGGA,080731.30,3542.293418392,N,13943.287857393,E,4,09,2.17,23.723,M,36.996,M,4.3,2007*4D
$PMSBATV,080731.30,2,2,-0.52981,1.20862,-140.14047,-0.001,-0.001,-0.000,-2.71694,0.000*47
$GPGGA,080731.40,3542.293418354,N,13943.287857093,E,4,09,2.17,23.722,M,36.996,M,4.4,2007*45
$PMSBATV,080731.40,2,2,-0.51440,1.18013,-140.13854,-0.001,-0.000,-0.000,-2.71694,0.000*4A
$GPGGA,080731.50,3542.293418498,N,13943.287857409,E,4,09,2.17,23.722,M,36.996,M,4.5,2007*45
$PMSBATV,080731.50,2,2,-0.53707,1.19520,-140.13487,-0.001,-0.001,0.000,-2.71694,0.000*63
$GPGGA,080731.60,3542.293418407,N,13943.287857046,E,4,09,2.17,23.722,M,36.996,M,4.6,2007*4C
$PMSBATV,080731.60,2,2,-0.53855,1.20892,-140.13336,-0.001,-0.001,-0.000,-2.71694,0.000*46
$GPGGA,080731.70,3542.293418278,N,13943.287856717,E,4,09,2.17,23.721,M,36.996,M,4.7,2007*43
$PMSBATV,080731.70,2,2,-0.55565,1.19224,-140.13626,-0.001,-0.001,-0.000,-2.71694,0.000*46
$GPGGA,080731.80,3542.293418516,N,13943.287856586,E,4,09,2.17,23.721,M,36.996,M,4.8,2007*46
$PMSBATV,080731.80,2,2,-0.58291,1.23974,-140.13526,-0.001,-0.001,0.000,-2.71694,0.000*61
$GPGGA,080731.90,3542.293418171,N,13943.287855846,E,4,09,2.17,23.721,M,36.996,M,4.9,2007*41
$PMSBATV,080731.90,2,2,-0.57158,1.20262,-140.13569,-0.001,-0.001,-0.000,-2.71694,0.000*40
$GPGGA,080732.00,3542.293418455,N,13943.287856182,E,4,09,2.17,23.721,M,36.996,M,5.0,2007*42
$PMSBATV,080732.00,2,2,-0.60358,1.20232,-140.13764,-0.001,-0.000,0.000,-2.71694,0.000*6A
$GPGGA,080732.10,3542.293418624,N,13943.287855757,E,4,09,2.17,23.720,M,36.996,M,5.1,2007*4A
$PMSBATV,080732.10,2,2,-0.61812,1.21539,-140.13573,-0.001,-0.001,0.000,-2.71694,0.000*67
$GPGGA,080732.20,3542.293418527,N,13943.287855440,E,4,09,2.17,23.720,M,36.996,M,5.2,2007*4F
$PMSBATV,080732.20,2,2,-0.62780,1.21880,-140.13354,-0.001,-0.001,0.000,-2.71694,0.000*6F
$GPGGA,080732.30,3542.293418532,N,13943.287855222,E,4,09,2.17,23.720,M,36.996,M,5.3,2007*49
$PMSBATV,080732.30,2,2,-0.65194,1.22330,-140.12787,-0.001,-0.001,-0.000,-2.71694,0.000*4F
$GPGGA,080732.40,3542.293418607,N,13943.287854842,E,4,09,2.17,23.719,M,36.996,M,5.4,2007*4B
$PMSBATV,080732.40,2,2,-0.63866,1.21937,-140.12863,-0.001,-0.001,-0.000,-2.71694,0.000*41
$GPGGA,080732.50,3542.293418538,N,13943.287854896,E,4,09,2.17,23.719,M,36.996,M,5.5,2007*4D
$PMSBATV,080732.50,2,2,-0.62644,1.20313,-140.12936,-0.001,-0.001,0.000,-2.71694,0.000*6E
$GPGGA,080732.60,3542.293418647,N,13943.287855007,E,4,09,2.17,23.719,M,36.996,M,5.6,2007*47
$PMSBATV,080732.60,2,2,-0.62930,1.19659,-140.13195,-0.001,-0.001,-0.000,-2.71694,0.000*4D
$GPGGA,080732.70,3542.293418707,N,13943.287854945,E,4,09,2.17,23.719,M,36.996,M,5.7,2007*4C
$PMSBATV,080732.70,2,2,-0.65551,1.18544,-140.12873,-0.001,-0.001,-0.000,-2.71694,0.000*4E
$GPGGA,080732.80,3542.293418924,N,13943.287854754,E,4,09,2.17,23.718,M,36.996,M,5.8,2007*4C
$PMSBATV,080732.80,2,2,-0.60025,1.16633,-140.13012,-0.001,-0.001,-0.000,-2.71694,0.000*41
$GPGGA,080732.90,3542.293418783,N,13943.287855242,E,4,09,2.17,23.718,M,36.996,M,5.9,2007*4C
$PMSBATV,080732.90,2,2,-0.60820,1.17845,-140.12852,-0.001,-0.001,-0.000,-2.71694,0.000*4E
$GPGGA,080733.00,3542.293418725,N,13943.287854938,E,4,09,2.17,23.718,M,36.996,M,6.0,2007*45
$PMSBATV,080733.00,2,2,-0.62532,1.17089,-140.12252,-0.001,-0.001,-0.000,-2.71694,0.000*48
$GPGGA,080733.10,3542.293418839,N,13943.287854829,E,4,09,2.17,23.718,M,36.996,M,1.1,2007*41
$PMSBATV,080733.10,2,2,-0.58462,1.17155,-140.12420,-0.001,-0.001,0.000,-2.71694,0.000*6A
$GPGGA,080733.20,3542.293418566,N,13943.287854990,E,4,09,2.17,23.718,M,36.996,M,1.2,2007*45
$PMSBATV,080733.20,2,2,-0.57505,1.15647,-140.12525,-0.001,-0.001,0.000,-2.71694,0.000*64
$GPGGA,080733.30,3542.293418662,N,13943.287855116,E,4,09,2.17,23.717,M,36.996,M,1.3,2007*4A
$PMSBATV,080733.30,2,2,-0.55115,1.13064,-140.12927,-0.001,-0.001,0.000,-2.71694,0.000*6D
$GPGGA,080733.40,3542.293418746,N,13943.287855486,E,4,09,2.17,23.717,M,36.996,M,1.4,2007*41
$PMSBATV,080733.40,2,2,-0.54199,1.12065,-140.12839,-0.001,-0.001,0.000,-2.71694,0.000*61
$GPGGA,080733.50,3542.293418839,N,13943.287855571,E,4,09,2.17,23.717,M,36.996,M,1.5,2007*4F
$PMSBATV,080733.50,2,2,-0.52080,1.10778,-140.12746,-0.001,-0.001,0.000,-2.71694,0.000*61
$GPGGA,080733.60,3542.293418837,N,13943.287855755,E,4,09,2.17,23.717,M,36.996,M,1.6,2007*45
$PMSBATV,080733.60,2,2,-0.48433,1.09438,-140.12417,-0.001,-0.001,-0.000,-2.71694,0.000*40
$GPGGA,080733.70,3542.293418683,N,13943.287856153,E,4,09,2.17,23.717,M,36.996,M,1.7,2007*47
$PMSBATV,080733.70,2,2,-0.46789,1.08059,-140.12844,-0.000,-0.000,0.000,-2.71694,0.000*68
$GPGGA,080733.80,3542.293418761,N,13943.287856347,E,4,09,2.17,23.717,M,36.996,M,1.8,2007*4D
$PMSBATV,080733.80,2,2,-0.42877,1.04839,-140.13094,-0.001,-0.000,0.000,-2.71694,0.000*6A
$GPGGA,080733.90,3542.293418854,N,13943.287856881,E,4,09,2.17,23.717,M,36.996,M,1.9,2007*45
$PMSBATV,080733.90,2,2,-0.43122,1.06665,-140.13521,-0.000,-0.000,-0.000,-2.71694,0.000*41
$GPGGA,080734.00,3542.293418639,N,13943.287856630,E,4,09,2.17,23.716,M,36.996,M,2.0,2007*41
$PMSBATV,080734.00,2,2,-0.40595,1.06888,-140.13548,-0.000,-0.000,-0.000,-2.71694,0.000*46
$GPGGA,080734.10,3542.293418482,N,13943.287856778,E,4,09,2.17,23.716,M,36.996,M,2.1,2007*4E
$PMSBATV,080734.10,2,2,-0.38982,1.04810,-140.13408,-0.001,-0.000,-0.000,-2.71694,0.000*45
$GPGGA,080734.20,3542.293418577,N,13943.287857054,E,4,09,2.17,23.716,M,36.996,M,2.2,2007*4D
$PMSBATV,080734.20,2,2,-0.36244,1.02538,-140.13805,-0.000,-0.000,0.000,-2.71694,0.000*65
$GPGGA,080734.30,3542.293418638,N,13943.287857410,E,4,09,2.17,23.716,M,36.996,M,2.3,2007*41
$PMSBATV,080734.30,2,2,-0.36644,1.04538,-140.13682,-0.000,-0.000,0.000,-2.71694,0.000*67
$GPGGA,080734.40,3542.293418462,N,13943.287857147,E,4,09,2.17,23.716,M,36.996,M,2.4,2007*4B
$PMSBATV,080734.40,2,2,-0.34042,1.03258,-140.13916,-0.000,-0.000,-0.000,-2.71694,0.000*4B
$GPGGA,080734.50,3542.293418466,N,13943.287857421,E,4,09,2.17,23.716,M,36.996,M,2.5,2007*4A
$PMSBATV,080734.50,2,2,-0.32840,1.00194,-140.13745,-0.000,-0.000,-0.000,-2.71694,0.000*4E
$GPGGA,080734.60,3542.293418693,N,13943.287857814,E,4,09,2.17,23.716,M,36.996,M,2.6,2007*48
$PMSBATV,080734.60,2,2,-0.32901,1.02915,-140.13603,-0.000,-0.001,0.000,-2.71694,0.000*65
$GPGGA,080734.70,3542.293418347,N,13943.287857578,E,4,09,2.17,23.716,M,36.996,M,2.7,2007*43
$PMSBATV,080734.70,2,2,-0.33970,1.05218,-140.13805,-0.000,-0.000,0.000,-2.71694,0.000*6B
$GPGGA,080734.80,3542.293418287,N,13943.287857097,E,4,09,2.17,23.716,M,36.996,M,2.8,2007*4A
$PMSBATV,080734.80,2,2,-0.29867,1.03528,-140.13678,-0.001,-0.001,-0.000,-2.71694,0.000*43
$GPGGA,080734.90,3542.293418161,N,13943.287857618,E,4,09,2.17,23.716,M,36.996,M,2.9,2007*40
$PMSBATV,080734.90,2,2,-0.29985,1.01536,-140.13638,-0.001,-0.001,0.000,-2.71694,0.000*6B
$GPGGA,080735.00,3542.293418369,N,13943.287857806,E,4,09,2.17,23.716,M,36.996,M,3.0,2007*4B
$PMSBATV,080735.00,2,2,-0.31122,1.01860,-140.13135,-0.000,-0.001,-0.000,-2.71694,0.000*47
$GPGGA,080735.10,3542.293418401,N,13943.287857594,E,4,09,2.17,23.715,M,36.996,M,3.1,2007*47
$PMSBATV,080735.10,2,2,-0.29692,1.01998,-140.12998,-0.000,-0.000,0.000,-2.71694,0.000*67
$GPGGA,080735.20,3542.293418312,N,13943.287857623,E,4,09,2.17,23.715,M,36.996,M,3.2,2007*4D
$PMSBATV,080735.20,2,2,-0.30612,1.02680,-140.12903,-0.000,-0.000,0.000,-2.71694,0.000*63
$GPGGA,080735.30,3542.293418284,N,13943.287857490,E,4,09,2.17,23.715,M,36.996,M,3.3,2007*49
$PMSBATV,080735.30,2,2,-0.30353,1.05316,-140.13086,-0.000,-0.001,-0.000,-2.71694,0.000*46
$GPGGA,080735.40,3542.293418011,N,13943.287857228,E,4,09,2.17,23.715,M,36.996,M,3.4,2007*42
$PMSBATV,080735.40,2,2,-0.29141,1.03026,-140.12687,-0.001,-0.000,-0.000,-2.71694,0.000*48
$GPGGA,080735.50,3542.293418163,N,13943.287857474,E,4,09,2.17,23.715,M,36.996,M,3.5,2007*49
$PMSBATV,080735.50,2,2,-0.28707,1.02944,-140.12577,-0.000,-0.000,0.000,-2.71694,0.000*60
$GPGGA,080735.60,3542.293418104,N,13943.287857524,E,4,09,2.17,23.715,M,36.996,M,3.6,2007*4C
$PMSBATV,080735.60,2,2,-0.27003,1.03591,-140.12599,-0.000,-0.000,-0.000,-2.71694,0.000*47
$GPGGA,080735.70,3542.293417934,N,13943.287857549,E,4,09,2.17,23.715,M,36.996,M,3.7,2007*43
$PMSBATV,080735.70,2,2,-0.25485,1.01354,-140.12683,-0.000,-0.000,0.000,-2.71694,0.000*66
$GPGGA,080735.80,3542.293418056,N,13943.287857884,E,4,09,2.17,23.715,M,36.996,M,3.8,2007*4D
$PMSBATV,080735.80,2,2,-0.28046,1.01015,-140.12534,-0.000,-0.001,0.000,-2.71694,0.000*67
$GPGGA,080735.90,3542.293418272,N,13943.287857656,E,4,09,2.17,23.715,M,36.996,M,3.9,2007*48
$PMSBATV,080735.90,2,2,-0.26521,1.02238,-140.12263,-0.000,-0.000,0.000,-2.71694,0.000*66
$GPGGA,080736.00,3542.293418033,N,13943.287857627,E,4,09,2.17,23.714,M,36.996,M,4.0,2007*4C
$PMSBATV,080736.00,2,2,-0.24942,1.02511,-140.12312,-0.000,-0.000,0.000,-2.71694,0.000*6C
$GPGGA,080736.10,3542.293417909,N,13943.287857722,E,4,09,2.17,23.714,M,36.996,M,4.1,2007*47
$PMSBATV,080736.10,2,2,-0.24539,1.01279,-140.12520,-0.000,-0.000,0.000,-2.71694,0.000*60
$GPGGA,080736.20,3542.293418019,N,13943.287857824,E,4,09,2.17,23.714,M,36.996,M,4.2,2007*49
$PMSBATV,080736.20,2,2,-0.23398,1.00002,-140.12618,-0.000,-0.000,0.000,-2.71694,0.000*6E
$GPGGA,080736.30,3542.293418046,N,13943.287858050,E,4,09,2.17,23.714,M,36.996,M,4.3,2007*47
$PMSBATV,080736.30,2,2,-0.23155,0.99164,-140.12237,-0.000,-0.001,0.000,-2.71694,0.000*64
$GPGGA,080736.40,3542.293418104,N,13943.287858125,E,4,09,2.17,23.714,M,36.996,M,4.4,2007*43
$PMSBATV,080736.40,2,2,-0.21701,0.99882,-140.12162,-0.000,-0.000,0.000,-2.71694,0.000*65
$GPGGA,080736.50,3542.293417984,N,13943.287858110,E,4,09,2.17,23.714,M,36.996,M,4.5,2007*4A
$PMSBATV,080736.50,2,2,-0.20363,0.99090,-140.12298,-0.000,-0.000,0.000,-2.71694,0.000*68
$GPGGA,080736.60,3542.293417977,N,13943.287858276,E,4,09,2.17,23.714,M,36.996,M,4.6,2007*45
$PMSBATV,080736.60,2,2,-0.20085,0.98545,-140.12369,-0.000,-0.000,-0.000,-2.71694,0.000*4E
$GPGGA,080736.70,3542.293418042,N,13943.287858339,E,4,09,2.17,23.714,M,36.996,M,4.7,2007*4F
$PMSBATV,080736.70,2,2,-0.16366,0.96223,-140.12403,-0.000,-0.000,-0.000,-2.71694,0.000*46
$GPGGA,080736.80,3542.293418036,N,13943.287858859,E,4,09,2.17,23.714,M,36.996,M,4.8,2007*41
$PMSBATV,080736.80,2,2,-0.16662,0.97562,-140.12212,-0.000,-0.000,-0.000,-2.71694,0.000*4D
$GPGGA,080736.90,3542.293417915,N,13943.287858726,E,4,09,2.17,23.714,M,36.996,M,4.9,2007*41
$PMSBATV,080736.90,2,2,-0.15005,0.98631,-140.12230,-0.000,-0.000,-0.000,-2.71694,0.000*42
$GPGGA,080737.00,3542.293417701,N,13943.287858759,E,4,10,1.91,23.714,M,36.996,M,5.0,2007*47
$PMSBATV,080737.00,2,2,-0.14916,0.95344,-140.12282,-0.000,-0.000,0.000,-2.71694,0.000*6E
$GPGGA,080737.10,3542.293418041,N,13943.287859046,E,4,10,1.91,23.714,M,36.996,M,5.1,2007*43
$PMSBATV,080737.10,2,2,-0.15642,0.96523,-140.12496,-0.000,-0.000,0.000,-2.71694,0.000*67
$GPGGA,080737.20,3542.293417975,N,13943.287858853,E,4,10,1.91,23.714,M,36.996,M,5.2,2007*4F
$PMSBATV,080737.20,2,2,-0.13689,0.95473,-140.12438,-0.000,-0.000,0.000,-2.71694,0.000*66
$GPGGA,080737.30,3542.293417976,N,13943.287859140,E,4,10,1.91,23.714,M,36.996,M,5.3,2007*46
$PMSBATV,080737.30,2,2,-0.14598,0.95295,-140.12498,-0.000,-0.000,-0.000,-2.71694,0.000*4A
$GPGGA,080737.40,3542.293418033,N,13943.287859087,E,4,10,1.91,23.714,M,36.996,M,5.4,2007*4B
$PMSBATV,080737.40,2,2,-0.14394,0.96103,-140.12529,-0.000,-0.000,0.000,-2.71694,0.000*6E
$GPGGA,080737.50,3542.293417985,N,13943.287858961,E,4,10,1.91,23.715,M,36.996,M,5.5,2007*41
$PMSBATV,080737.50,2,2,-0.13900,0.93976,-140.12681,-0.000,-0.001,0.000,-2.71694,0.000*60
$GPGGA,080737.60,3542.293418188,N,13943.287859214,E,4,10,1.91,23.714,M,36.996,M,5.6,2007*42
$PMSBATV,080737.60,2,2,-0.14283,0.94300,-140.12675,-0.000,-0.000,0.000,-2.71694,0.000*62
$GPGGA,080737.70,3542.293418208,N,13943.287859140,E,4,10,1.91,23.714,M,36.996,M,5.7,2007*4B
$PMSBATV,080737.70,2,2,-0.13282,0.95083,-140.12722,-0.000,-0.000,0.000,-2.71694,0.000*6F
$GPGGA,080737.80,3542.293418067,N,13943.287859107,E,4,10,1.91,23.715,M,36.996,M,5.8,2007*42
$PMSBATV,080737.80,2,2,-0.15326,0.97417,-140.13136,-0.000,-0.000,0.000,-2.71694,0.000*60
$GPGGA,080737.90,3542.293417964,N,13943.287858761,E,4,10,1.91,23.715,M,36.996,M,5.9,2007*40
$PMSBATV,080737.90,2,2,-0.15239,0.95874,-140.13671,-0.000,-0.000,0.000,-2.71694,0.000*61
$GPGGA,080738.00,3542.293418128,N,13943.287858916,E,4,10,1.91,23.715,M,36.996,M,6.0,2007*4D
$PMSBATV,080738.00,2,2,-0.17929,0.96475,-140.13794,-0.000,-0.000,-0.000,-2.71694,0.000*46
$GPGGA,080738.10,3542.293418278,N,13943.287858599,E,4,10,1.91,23.715,M,36.996,M,1.1,2007*47
$PMSBATV,080738.10,2,2,-0.13845,0.93815,-140.13319,-0.000,-0.000,0.000,-2.71694,0.000*6B
$GPGGA,080738.20,3542.293418341,N,13943.287859177,E,4,10,1.91,23.715,M,36.996,M,1.2,2007*49
$PMSBATV,080738.20,2,2,-0.12704,0.93375,-140.13794,-0.000,-0.000,-0.000,-2.71694,0.000*42
$GPGGA,080738.30,3542.293418297,N,13943.287859343,E,4,10,1.91,23.715,M,36.996,M,1.3,2007*46
$PMSBATV,080738.30,2,2,-0.12205,0.92796,-140.14077,-0.000,-0.000,0.000,-2.71694,0.000*6F
$GPGGA,080738.40,3542.293418373,N,13943.287859416,E,4,10,1.91,23.715,M,36.996,M,1.4,2007*4A
$PMSBATV,080738.40,2,2,-0.12331,0.92276,-140.13790,-0.000,-0.000,-0.000,-2.71694,0.000*41
$GPGGA,080738.50,3542.293418443,N,13943.287859492,E,4,10,1.91,23.715,M,36.996,M,1.5,2007*42
$PMSBATV,080738.50,2,2,-0.10458,0.89213,-140.14117,-0.000,-0.000,0.000,-2.71694,0.000*60
$GPGGA,080738.60,3542.293418658,N,13943.287859916,E,4,10,1.91,23.715,M,36.996,M,1.6,2007*4B
$PMSBATV,080738.60,2,2,-0.11517,0.93281,-140.14655,0.000,-0.000,0.000,-2.71694,0.000*44
$GPGGA,080738.70,3542.293418315,N,13943.287859428,E,4,10,1.91,23.715,M,36.996,M,1.7,2007*47
$PMSBATV,080738.70,2,2,-0.11921,0.96723,-140.15177,-0.000,-0.000,0.000,-2.71694,0.000*6F
$GPGGA,080738.80,3542.293417991,N,13943.287859086,E,4,10,1.91,23.715,M,36.996,M,1.8,2007*4E
$PMSBATV,080738.80,2,2,-0.12336,0.97816,-140.15121,-0.000,-0.000,0.000,-2.71694,0.000*64
$GPGGA,080738.90,3542.293417925,N,13943.287858956,E,4,10,1.91,23.715,M,36.996,M,1.9,2007*44
$PMSBATV,080738.90,2,2,-0.12526,0.99496,-140.15289,-0.000,0.000,-0.000,-2.71694,0.000*69
$GPGGA,080739.00,3542.293417805,N,13943.287858732,E,4,10,1.91,23.715,M,36.996,M,2.0,2007*49
$PMSBATV,080739.00,2,2,-0.10840,0.96107,-140.14935,-0.000,-0.000,-0.000,-2.71694,0.000*4C
$GPGGA,080739.10,3542.293418040,N,13943.287859168,E,4,10,1.91,23.715,M,36.996,M,2.1,2007*47
$PMSBATV,080739.10,2,2,-0.13406,0.97011,-140.14631,-0.000,-0.000,0.000,-2.71694,0.000*61
$GPGGA,080739.20,3542.293418100,N,13943.287858892,E,4,10,1.91,23.715,M,36.996,M,2.2,2007*4F
$PMSBATV,080739.20,2,2,-0.15033,0.97716,-140.14838,-0.000,-0.000,-0.000,-2.71694,0.000*4C
$GPGGA,080739.30,3542.293418133,N,13943.287858675,E,4,10,1.91,23.715,M,36.996,M,2.3,2007*48
$PMSBATV,080739.30,2,2,-0.13255,0.98549,-140.15211,-0.000,-0.000,0.000,-2.71694,0.000*63
$GPGGA,080739.40,3542.293417933,N,13943.287858679,E,4,10,1.91,23.715,M,36.996,M,2.4,2007*43
$PMSBATV,080739.40,2,2,-0.13899,1.00345,-140.15096,-0.000,-0.000,0.000,-2.71694,0.000*69
$GPGGA,080739.50,3542.293417762,N,13943.287858532,E,4,10,1.91,23.715,M,36.996,M,2.5,2007*45
$PMSBATV,080739.50,2,2,-0.12576,0.97477,-140.14722,-0.000,-0.000,0.000,-2.71694,0.000*65
$GPGGA,080739.60,3542.293418004,N,13943.287858847,E,4,10,1.91,23.715,M,36.996,M,2.6,2007*42
$PMSBATV,080739.60,2,2,-0.10178,0.99034,-140.14902,-0.000,-0.000,0.000,-2.71694,0.000*6F
$GPGGA,080739.70,3542.293417625,N,13943.287858928,E,4,10,1.91,23.715,M,36.996,M,2.7,2007*40
$PMSBATV,080739.70,2,2,-0.09458,0.99061,-140.15041,-0.000,-0.000,0.000,-2.71694,0.000*6E
$GPGGA,080739.80,3542.293417585,N,13943.287858984,E,4,10,1.91,23.715,M,36.996,M,2.8,2007*4F
$PMSBATV,080739.80,2,2,-0.08532,1.00423,-140.14577,-0.000,-0.000,0.000,-2.71694,0.000*6F
$GPGGA,080739.90,3542.293417342,N,13943.287858937,E,4,10,1.91,23.715,M,36.996,M,2.9,2007*4A
$PMSBATV,080739.90,2,2,-0.05954,0.96440,-140.14782,-0.000,-0.000,0.000,-2.71694,0.000*6C
$GPGGA,080740.00,3542.293417615,N,13943.287859529,E,4,10,1.91,23.715,M,36.996,M,3.0,2007*40
$PMSBATV,080740.00,2,2,-0.01959,0.92617,-140.14701,-0.000,-0.000,-0.000,-2.71694,0.000*40
$GPGGA,080740.10,3542.293417756,N,13943.287860173,E,4,10,1.91,23.715,M,36.996,M,3.1,2007*47
$PMSBATV,080740.10,2,2,-0.02029,0.93767,-140.15013,-0.000,0.000,0.000,-2.71694,0.000*4E
$GPGGA,080740.20,3542.293417665,N,13943.287860025,E,4,10,1.91,23.715,M,36.996,M,3.2,2007*44
$PMSBATV,080740.20,2,2,-0.06473,0.96402,-140.14824,-0.000,-0.000,-0.000,-2.71694,0.000*4A
$GPGGA,080740.30,3542.293417639,N,13943.287859490,E,4,10,1.91,23.715,M,36.996,M,3.3,2007*4D
$PMSBATV,080740.30,2,2,-0.04022,0.93898,-140.14566,-0.000,0.000,0.000,-2.71694,0.000*48
$GPGGA,080740.40,3542.293417816,N,13943.287859923,E,4,10,1.91,23.715,M,36.996,M,3.4,2007*4B
$PMSBATV,080740.40,2,2,-0.04863,0.95932,-140.14487,-0.000,-0.000,0.000,-2.71694,0.000*66
$GPGGA,080740.50,3542.293417604,N,13943.287859674,E,4,10,1.91,23.715,M,36.996,M,3.5,2007*4B
$PMSBATV,080740.50,2,2,-0.07390,0.98491,-140.14696,-0.000,0.000,0.000,-2.71694,0.000*45
$GPGGA,080740.60,3542.293417502,N,13943.287859227,E,4,10,1.91,23.715,M,36.996,M,3.6,2007*4C
$PMSBATV,080740.60,2,2,-0.07891,0.99051,-140.14901,-0.000,-0.000,0.000,-2.71694,0.000*69
$GPGGA,080740.70,3542.293417493,N,13943.287859123,E,4,10,1.91,23.715,M,36.996,M,3.7,2007*42
$PMSBATV,080740.70,2,2,-0.06947,1.02318,-140.14908,-0.000,-0.000,-0.000,-2.71694,0.000*4A
$GPGGA,080740.80,3542.293417006,N,13943.287858891,E,4,10,1.91,23.715,M,36.996,M,3.8,2007*4B
$PMSBATV,080740.80,2,2,-0.04292,1.01037,-140.15491,-0.000,0.000,0.000,-2.71694,0.000*45
$GPGGA,080740.90,3542.293416978,N,13943.287859184,E,4,10,1.91,23.715,M,36.996,M,3.9,2007*46
$PMSBATV,080740.90,2,2,-0.07001,0.99382,-140.15205,-0.000,-0.000,0.000,-2.71694,0.000*64
$GPGGA,080741.00,3542.293417298,N,13943.287859181,E,4,10,1.91,23.715,M,36.996,M,4.0,2007*41
$PMSBATV,080741.00,2,2,-0.06400,1.00282,-140.15367,-0.000,-0.000,-0.000,-2.71694,0.000*40
$GPGGA,080741.10,3542.293417149,N,13943.287859103,E,4,10,1.91,23.715,M,36.996,M,4.1,2007*44
$PMSBATV,080741.10,2,2,-0.04035,0.98708,-140.14909,-0.000,-0.000,0.000,-2.71694,0.000*68
$GPGGA,080741.20,3542.293417166,N,13943.287859469,E,4,10,1.91,23.715,M,36.996,M,4.2,2007*40
$PMSBATV,080741.20,2,2,-0.05069,0.98320,-140.15185,-0.000,0.000,-0.000,-2.71694,0.000*60
$GPGGA,080741.30,3542.293417251,N,13943.287859378,E,4,10,1.91,23.715,M,36.996,M,4.3,2007*40
$PMSBATV,080741.30,2,2,-0.04896,0.99223,-140.15180,-0.000,0.000,-0.000,-2.71694,0.000*6E
$GPGGA,080741.40,3542.293417144,N,13943.287859307,E,4,10,1.91,23.715,M,36.996,M,4.4,2007*4F
$PMSBATV,080741.40,2,2,-0.04300,0.98156,-140.15525,-0.000,-0.000,-0.000,-2.71694,0.000*4B
$GPGGA,080741.50,3542.293417178,N,13943.287859462,E,4,10,1.91,23.715,M,36.996,M,4.5,2007*44
$PMSBATV,080741.50,2,2,-0.05016,0.98832,-140.14864,-0.000,-0.001,0.000,-2.71694,0.000*61
$GPGGA,080741.60,3542.293417123,N,13943.287859394,E,4,10,1.91,23.715,M,36.996,M,4.6,2007*44
$PMSBATV,080741.60,2,2,-0.07124,0.99460,-140.14931,-0.000,-0.000,0.000,-2.71694,0.000*6A
$GPGGA,080741.70,3542.293417218,N,13943.287859040,E,4,10,1.91,23.715,M,36.996,M,4.7,2007*45
$PMSBATV,080741.70,2,2,-0.05573,0.97277,-140.14718,-0.000,-0.000,0.000,-2.71694,0.000*64
$GPGGA,080741.80,3542.293417357,N,13943.287859428,E,4,10,1.91,23.715,M,36.996,M,4.8,2007*45
$PMSBATV,080741.80,2,2,-0.09447,1.00062,-140.14504,-0.000,-0.000,-0.000,-2.71694,0.000*4A
$GPGGA,080741.90,3542.293417285,N,13943.287858866,E,4,10,1.91,23.715,M,36.996,M,4.9,2007*4C
$PMSBATV,080741.90,2,2,-0.06419,0.94851,-140.14355,-0.000,-0.000,0.000,-2.71694,0.000*64
$GPGGA,080742.00,3542.293417632,N,13943.287859562,E,4,10,1.91,23.715,M,36.996,M,5.0,2007*4E
$PMSBATV,080742.00,2,2,-0.08658,0.94822,-140.14637,-0.000,-0.000,-0.000,-2.71694,0.000*4F
$GPGGA,080742.10,3542.293417777,N,13943.287859394,E,4,10,1.91,23.715,M,36.996,M,5.1,2007*41
$PMSBATV,080742.10,2,2,-0.07002,0.92929,-140.14533,-0.000,-0.000,0.000,-2.71694,0.000*6E
$GPGGA,080742.20,3542.293417900,N,13943.287859698,E,4,10,1.91,23.715,M,36.996,M,5.2,2007*46
$PMSBATV,080742.20,2,2,-0.09318,0.95969,-140.14306,-0.000,-0.000,-0.000,-2.71694,0.000*45
$GPGGA,080742.30,3542.293417739,N,13943.287859254,E,4,10,1.91,23.715,M,36.996,M,5.3,2007*46
$PMSBATV,080742.30,2,2,-0.07632,0.93910,-140.14791,-0.000,-0.000,-0.000,-2.71694,0.000*45
$GPGGA,080742.40,3542.293417851,N,13943.287859575,E,4,10,1.91,23.715,M,36.996,M,5.4,2007*43
$PMSBATV,080742.40,2,2,-0.05533,0.95697,-140.14596,-0.000,-0.000,0.000,-2.71694,0.000*6C
$GPGGA,080742.50,3542.293417542,N,13943.287859582,E,4,10,1.91,23.715,M,36.996,M,5.5,2007*44
$PMSBATV,080742.50,2,2,-0.08642,0.97942,-140.14814,0.000,0.000,0.000,-2.71694,0.000*67
$GPGGA,080742.60,3542.293417481,N,13943.287859139,E,4,10,1.91,23.715,M,36.996,M,5.6,2007*4E
$PMSBATV,080742.60,2,2,-0.06269,0.97046,-140.14964,-0.000,0.000,0.000,-2.71694,0.000*41
$GPGGA,080742.70,3542.293417454,N,13943.287859415,E,4,10,1.91,23.715,M,36.996,M,5.7,2007*4D
$PMSBATV,080742.70,2,2,-0.05504,0.97065,-140.14647,-0.000,-0.000,0.000,-2.71694,0.000*6D
$GPGGA,080742.80,3542.293417387,N,13943.287859505,E,4,10,1.91,23.715,M,36.996,M,5.8,2007*44
$PMSBATV,080742.80,2,2,-0.03197,0.95626,-140.14631,-0.000,-0.000,0.000,-2.71694,0.000*68
$GPGGA,080742.90,3542.293417423,N,13943.287859853,E,4,10,1.91,23.715,M,36.996,M,5.9,2007*43
$PMSBATV,080742.90,2,2,-0.04059,0.98521,-140.14289,-0.000,-0.000,-0.000,-2.71694,0.000*4E
$GPGGA,080743.00,3542.293417146,N,13943.287859480,E,4,10,1.91,23.715,M,36.996,M,6.0,2007*45
$PMSBATV,080743.00,2,2,0.00299,0.96499,-140.14471,-0.000,0.000,0.000,-2.71694,0.000*6C
$GPGGA,080743.10,3542.293417090,N,13943.287860038,E,4,10,1.91,23.716,M,36.996,M,6.1,2007*41
$PMSBATV,080743.10,2,2,0.01739,0.96325,-140.14609,-0.000,0.000,0.000,-2.71694,0.000*6E
$GPGGA,080743.20,3542.293417012,N,13943.287860156,E,4,10,1.91,23.716,M,36.996,M,6.2,2007*42
$PMSBATV,080743.20,2,2,-0.03132,0.98922,-140.14308,-0.000,-0.000,0.000,-2.71694,0.000*65
$GPGGA,080743.30,3542.293417080,N,13943.287859524,E,4,10,1.92,23.716,M,36.996,M,6.3,2007*41
$PMSBATV,080743.30,2,2,0.02575,0.96889,-140.14253,-0.000,-0.000,-0.000,-2.71694,0.000*63
$GPGGA,080743.40,3542.293416867,N,13943.287860261,E,4,10,1.92,23.716,M,36.996,M,6.4,2007*4D
$PMSBATV,080743.40,2,2,0.01335,0.98992,-140.13526,-0.000,-0.000,0.000,-2.71694,0.000*4F
$GPGGA,080743.50,3542.293416686,N,13943.287859943,E,4,10,1.92,23.715,M,36.996,M,6.5,2007*4E
$PMSBATV,080743.50,2,2,0.02499,0.95540,-140.13850,-0.000,0.000,-0.000,-2.71694,0.000*4E
$GPGGA,080743.60,3542.293416998,N,13943.287860297,E,4,10,1.92,23.716,M,36.996,M,6.6,2007*45
$PMSBATV,080743.60,2,2,0.02197,0.95689,-140.13681,-0.000,-0.000,0.000,-2.71694,0.000*42
$GPGGA,080743.70,3542.293416944,N,13943.287860369,E,4,10,1.92,23.716,M,36.996,M,6.7,2007*44
$PMSBATV,080743.70,2,2,0.01624,0.96125,-140.13638,-0.000,0.000,-0.000,-2.71694,0.000*4F
$GPGGA,080743.80,3542.293416970,N,13943.287860265,E,4,10,1.92,23.716,M,36.996,M,6.8,2007*4E
$PMSBATV,080743.80,2,2,0.03540,0.94491,-140.13545,-0.000,0.000,-0.000,-2.71694,0.000*42
$GPGGA,080743.90,3542.293417001,N,13943.287860579,E,4,10,1.92,23.716,M,36.996,M,6.9,2007*4A
$PMSBATV,080743.90,2,2,0.01087,0.95877,-140.13679,-0.000,0.000,0.000,-2.71694,0.000*6B
$GPGGA,080744.00,3542.293416944,N,13943.287860269,E,4,10,1.92,23.716,M,36.996,M,7.0,2007*43
$PMSBATV,080744.00,2,2,0.01856,0.96895,-140.13707,-0.000,0.000,0.000,-2.71694,0.000*66
$GPGGA,080744.10,3542.293416801,N,13943.287860224,E,4,10,1.92,23.716,M,36.996,M,2.1,2007*4F
$PMSBATV,080744.10,2,2,0.00875,0.97407,-140.13960,-0.000,0.000,-0.000,-2.71694,0.000*43
$GPGGA,080744.20,3542.293416800,N,13943.287860138,E,4,10,1.92,23.716,M,36.996,M,2.2,2007*40
$PMSBATV,080744.20,2,2,-0.01951,0.99474,-140.13573,-0.000,-0.000,0.000,-2.71694,0.000*6F
$GPGGA,080744.30,3542.293416731,N,13943.287859673,E,4,10,1.92,23.716,M,36.996,M,2.3,2007*4F
$PMSBATV,080744.30,2,2,0.01761,0.96496,-140.13441,-0.000,-0.000,0.000,-2.71694,0.000*4D
$GPGGA,080744.40,3542.293416857,N,13943.287860318,E,4,10,1.92,23.716,M,36.996,M,2.4,2007*42
$PMSBATV,080744.40,2,2,-0.02042,1.00249,-140.13402,-0.000,-0.000,-0.000,-2.71694,0.000*42
$GPGGA,080744.50,3542.293416658,N,13943.287859681,E,4,10,1.92,23.716,M,36.996,M,2.5,2007*4C
$PMSBATV,080744.50,2,2,0.00216,0.96752,-140.13697,-0.000,0.000,0.000,-2.71694,0.000*60
$GPGGA,080744.60,3542.293416874,N,13943.287860176,E,4,10,1.92,23.716,M,36.996,M,2.6,2007*49
$PMSBATV,080744.60,2,2,-0.02613,0.96114,-140.13723,-0.000,-0.000,0.000,-2.71694,0.000*6A
$GPGGA,080744.70,3542.293417143,N,13943.287859952,E,4,10,1.92,23.716,M,36.996,M,2.7,2007*41
$PMSBATV,080744.70,2,2,-0.07642,0.95876,-140.13504,-0.000,-0.000,0.000,-2.71694,0.000*63
$GPGGA,080744.80,3542.293417456,N,13943.287859586,E,4,10,1.92,23.716,M,36.996,M,2.8,2007*45
$PMSBATV,080744.80,2,2,-0.04890,0.93339,-140.13865,-0.000,-0.000,0.000,-2.71694,0.000*62
$GPGGA,080744.90,3542.293417573,N,13943.287860080,E,4,10,1.92,23.716,M,36.996,M,2.9,2007*4A
$PMSBATV,080744.90,2,2,-0.10802,0.98343,-140.13946,-0.000,0.000,-0.000,-2.71694,0.000*6B
$GPGGA,080745.00,3542.293417438,N,13943.287859085,E,4,10,1.92,23.716,M,36.996,M,3.0,2007*4B
$PMSBATV,080745.00,2,2,-0.10166,0.97080,-140.14504,-0.000,0.000,0.000,-2.71694,0.000*4B
$GPGGA,080745.10,3542.293417538,N,13943.287859243,E,4,10,1.92,23.716,M,36.996,M,3.1,2007*42
$PMSBATV,080745.10,2,2,-0.14660,0.95590,-140.14816,-0.000,-0.000,-0.000,-2.71694,0.000*47
$GPGGA,080745.20,3542.293417992,N,13943.287858981,E,4,10,1.92,23.716,M,36.996,M,3.2,2007*4A
$PMSBATV,080745.20,2,2,-0.12899,0.92793,-140.14989,-0.000,-0.000,0.000,-2.71694,0.000*66
$GPGGA,080745.30,3542.293418221,N,13943.287859345,E,4,10,1.92,23.716,M,36.996,M,3.3,2007*45
$PMSBATV,080745.30,2,2,-0.14698,0.94151,-140.15069,-0.000,-0.000,-0.000,-2.71694,0.000*4B
$GPGGA,080745.40,3542.293418197,N,13943.287859103,E,4,10,1.92,23.716,M,36.996,M,3.4,2007*4B
$PMSBATV,080745.40,2,2,-0.17498,0.92954,-140.15221,-0.000,-0.001,0.000,-2.71694,0.000*64
$GPGGA,080745.50,3542.293418542,N,13943.287858987,E,4,10,1.92,23.716,M,36.996,M,3.5,2007*42
$PMSBATV,080745.50,2,2,-0.16483,0.91121,-140.15057,-0.000,-0.000,-0.000,-2.71694,0.000*48
$GPGGA,080745.60,3542.293418725,N,13943.287859204,E,4,10,1.92,23.716,M,36.996,M,3.6,2007*40
$PMSBATV,080745.60,2,2,-0.17201,0.90575,-140.14915,0.000,-0.000,0.000,-2.71694,0.000*4C
$GPGGA,080745.70,3542.293418857,N,13943.287859205,E,4,10,1.92,23.716,M,36.996,M,3.7,2007*4B
$PMSBATV,080745.70,2,2,-0.20134,0.93288,-140.14480,-0.000,-0.001,0.000,-2.71694,0.000*67
$GPGGA,080745.80,3542.293418778,N,13943.287858715,E,4,10,1.92,23.716,M,36.996,M,3.8,2007*4C
$PMSBATV,080745.80,2,2,-0.23291,0.96261,-140.13924,-0.000,-0.000,0.000,-2.71694,0.000*60
$GPGGA,080745.90,3542.293418639,N,13943.287858222,E,4,10,1.92,23.716,M,36.996,M,3.9,2007*49
$PMSBATV,080745.90,2,2,-0.18868,0.91517,-140.14208,-0.000,-0.001,0.000,-2.71694,0.000*67
$GPGGA,080746.00,3542.293418911,N,13943.287859016,E,4,10,1.92,23.716,M,36.996,M,4.0,2007*4C
$PMSBATV,080746.00,2,2,-0.18561,0.91230,-140.13942,-0.000,-0.000,0.000,-2.71694,0.000*68
$GPGGA,080746.10,3542.293418999,N,13943.287859076,E,4,10,1.92,23.716,M,36.996,M,4.1,2007*4A
$PMSBATV,080746.10,2,2,-0.20663,0.93286,-140.14275,-0.000,-0.000,0.000,-2.71694,0.000*64
$GPGGA,080746.20,3542.293418877,N,13943.287858792,E,4,10,1.92,23.716,M,36.996,M,4.2,2007*47
$PMSBATV,080746.20,2,2,-0.14456,0.88734,-140.14442,-0.000,-0.000,0.000,-2.71694,0.000*60
$GPGGA,080746.30,3542.293419098,N,13943.287859644,E,4,10,1.92,23.716,M,36.996,M,4.3,2007*44
$PMSBATV,080746.30,2,2,-0.16640,0.90993,-140.14166,0.000,-0.000,-0.000,-2.71694,0.000*6F
$GPGGA,080746.40,3542.293419070,N,13943.287859198,E,4,10,1.92,23.716,M,36.996,M,4.4,2007*44
$PMSBATV,080746.40,2,2,-0.18522,0.91622,-140.14104,-0.000,-0.000,-0.000,-2.71694,0.000*4C
$GPGGA,080746.50,3542.293419062,N,13943.287859102,E,4,10,1.92,23.717,M,36.996,M,4.5,2007*45
$PMSBATV,080746.50,2,2,-0.16227,0.91299,-140.13823,-0.000,-0.001,0.000,-2.71694,0.000*62
$GPGGA,080746.60,3542.293419054,N,13943.287859287,E,4,10,1.92,23.717,M,36.996,M,4.6,2007*4E
$PMSBATV,080746.60,2,2,-0.16087,0.91950,-140.13523,-0.000,-0.000,-0.000,-2.71694,0.000*46
$GPGGA,080746.70,3542.293419034,N,13943.287859204,E,4,10,1.92,23.717,M,36.996,M,4.7,2007*43
$PMSBATV,080746.70,2,2,-0.20424,0.90797,-140.13480,-0.000,-0.000,-0.000,-2.71694,0.000*43
$GPGGA,080746.80,3542.293419370,N,13943.287859046,E,4,10,1.92,23.717,M,36.996,M,4.8,2007*44
$PMSBATV,080746.80,2,2,-0.18231,0.90182,-140.14414,0.000,0.000,0.000,-2.71694,0.000*60
$GPGGA,080746.90,3542.293419389,N,13943.287859205,E,4,10,1.92,23.717,M,36.996,M,4.9,2007*47
$PMSBATV,080746.90,2,2,-0.18291,0.87656,-140.14350,-0.000,-0.000,-0.000,-2.71694,0.000*49
$GPGGA,080747.00,3542.293419740,N,13943.287859399,E,4,09,2.17,23.717,M,36.996,M,5.0,2007*44
$PMSBATV,080747.00,2,2,-0.22010,0.90747,-140.14446,0.000,-0.000,0.000,-2.71694,0.000*44
$GPGGA,080747.10,3542.293419626,N,13943.287858828,E,4,09,2.17,23.717,M,36.996,M,5.1,2007*45
$PMSBATV,080747.10,2,2,-0.26160,0.95413,-140.14320,-0.000,-0.001,0.000,-2.71694,0.000*6B
$GPGGA,080747.20,3542.293419468,N,13943.287858019,E,4,09,2.17,23.717,M,36.996,M,5.2,2007*47
$PMSBATV,080747.20,2,2,-0.24969,0.92472,-140.14473,-0.000,-0.000,-0.000,-2.71694,0.000*46
$GPGGA,080747.30,3542.293419769,N,13943.287858341,E,4,09,2.17,23.717,M,36.996,M,5.3,2007*4B
$PMSBATV,080747.30,2,2,-0.27227,0.95426,-140.14592,-0.000,-0.000,0.000,-2.71694,0.000*60
$GPGGA,080747.40,3542.293419567,N,13943.287857954,E,4,09,2.17,23.717,M,36.996,M,5.4,2007*46
$PMSBATV,080747.40,2,2,-0.23631,0.92931,-140.14643,-0.000,-0.000,0.000,-2.71694,0.000*63
$GPGGA,080747.50,3542.293419666,N,13943.287858491,E,4,09,2.17,23.717,M,36.996,M,5.5,2007*4F
$PMSBATV,080747.50,2,2,-0.25307,0.95449,-140.15124,-0.000,-0.000,0.000,-2.71694,0.000*66
$GPGGA,080747.60,3542.293419547,N,13943.287858024,E,4,09,2.17,23.717,M,36.996,M,5.6,2007*45
$PMSBATV,080747.60,2,2,-0.24488,0.95381,-140.15149,-0.000,-0.000,-0.000,-2.71694,0.000*41
$GPGGA,080747.70,3542.293419514,N,13943.287858133,E,4,09,2.17,23.717,M,36.996,M,5.7,2007*44
$PMSBATV,080747.70,2,2,-0.25015,0.96167,-140.14924,-0.000,-0.000,0.000,-2.71694,0.000*67
$GPGGA,080747.80,3542.293419545,N,13943.287858021,E,4,09,2.17,23.717,M,36.996,M,5.8,2007*42
$PMSBATV,080747.80,2,2,-0.27279,0.95601,-140.14471,-0.000,-0.000,-0.000,-2.71694,0.000*46
$GPGGA,080747.90,3542.293419817,N,13943.287857829,E,4,09,2.17,23.717,M,36.996,M,5.9,2007*47
$PMSBATV,080747.90,2,2,-0.27221,0.94006,-140.14675,-0.000,-0.000,0.000,-2.71694,0.000*61
$GPGGA,080748.00,3542.293420011,N,13943.287857977,E,4,09,2.17,23.717,M,36.996,M,6.0,2007*45
$PMSBATV,080748.00,2,2,-0.24952,0.95585,-140.14811,-0.000,-0.000,-0.000,-2.71694,0.000*45
$GPGGA,080748.10,3542.293419730,N,13943.287858026,E,4,09,2.17,23.717,M,36.996,M,1.1,2007*4E
$PMSBATV,080748.10,2,2,-0.25669,0.95618,-140.14677,-0.000,-0.000,-0.000,-2.71694,0.000*4B
$GPGGA,080748.20,3542.293419833,N,13943.287857892,E,4,09,2.17,23.718,M,36.996,M,1.2,2007*45
$PMSBATV,080748.20,2,2,-0.29665,0.97225,-140.14811,-0.000,-0.000,-0.000,-2.71694,0.000*4E
$GPGGA,080748.30,3542.293419927,N,13943.287857396,E,4,09,2.17,23.717,M,36.996,M,1.3,2007*41
$PMSBATV,080748.30,2,2,-0.25460,0.95454,-140.15044,-0.000,-0.001,0.000,-2.71694,0.000*63
$GPGGA,080748.40,3542.293419889,N,13943.287857924,E,4,10,1.92,23.718,M,36.996,M,1.4,2007*4E
$PMSBATV,080748.40,2,2,-0.20205,0.92288,-140.15245,-0.000,-0.000,-0.000,-2.71694,0.000*4B
$GPGGA,080748.50,3542.293419945,N,13943.287858628,E,4,10,1.92,23.718,M,36.996,M,1.5,2007*43
$PMSBATV,080748.50,2,2,-0.24038,0.94397,-140.15239,0.000,0.000,0.000,-2.71694,0.000*6D
$GPGGA,080748.60,3542.293419973,N,13943.287858110,E,4,10,1.92,23.718,M,36.996,M,1.6,2007*4A
$PMSBATV,080748.60,2,2,-0.23560,0.97492,-140.15130,-0.000,-0.001,0.000,-2.71694,0.000*6B
$GPGGA,080748.70,3542.293419657,N,13943.287857870,E,4,10,1.92,23.718,M,36.996,M,1.7,2007*43
$PMSBATV,080748.70,2,2,-0.19407,0.95552,-140.15176,-0.000,-0.000,-0.000,-2.71694,0.000*42
$GPGGA,080748.80,3542.293419620,N,13943.287858378,E,4,10,1.92,23.718,M,36.996,M,1.8,2007*4F
$PMSBATV,080748.80,2,2,-0.16700,0.90746,-140.15270,-0.000,-0.001,0.000,-2.71694,0.000*6D
$GPGGA,080748.90,3542.293419954,N,13943.287859066,E,4,10,1.92,23.718,M,36.996,M,1.9,2007*4E
$PMSBATV,080748.90,2,2,-0.17741,0.91073,-140.15231,0.000,-0.000,0.000,-2.71694,0.000*41
$GPGGA,080749.00,3542.293420070,N,13943.287858922,E,4,10,1.92,23.718,M,36.996,M,2.0,2007*41
$PMSBATV,080749.00,2,2,-0.17807,0.91712,-140.14784,-0.000,-0.000,-0.000,-2.71694,0.000*4E
$GPGGA,080749.10,3542.293420063,N,13943.287858831,E,4,10,1.92,23.718,M,36.996,M,2.1,2007*40
$PMSBATV,080749.10,2,2,-0.17506,0.91792,-140.14767,-0.000,-0.000,-0.000,-2.71694,0.000*46
$GPGGA,080749.20,3542.293420021,N,13943.287858885,E,4,10,1.92,23.718,M,36.996,M,2.2,2007*49
$PMSBATV,080749.20,2,2,-0.16146,0.89139,-140.14537,-0.000,-0.000,0.000,-2.71694,0.000*60
$GPGGA,080749.30,3542.293420298,N,13943.287859260,E,4,09,2.17,23.718,M,36.996,M,2.3,2007*4F
$PMSBATV,080749.30,2,2,-0.20054,0.93200,-140.14136,0.000,-0.000,0.000,-2.71694,0.000*4C
$GPGGA,080749.40,3542.293420117,N,13943.287858563,E,4,09,2.17,23.718,M,36.996,M,2.4,2007*4E
$PMSBATV,080749.40,2,2,-0.18550,0.91852,-140.14313,-0.000,-0.000,0.000,-2.71694,0.000*66
$GPGGA,080749.50,3542.293420261,N,13943.287858773,E,4,09,2.17,23.719,M,36.996,M,2.5,2007*4E
$PMSBATV,080749.50,2,2,-0.17495,0.89383,-140.13999,-0.000,-0.000,0.000,-2.71694,0.000*61
$GPGGA,080749.60,3542.293420481,N,13943.287859104,E,4,09,2.17,23.719,M,36.996,M,2.6,2007*41
$PMSBATV,080749.60,2,2,-0.20170,0.92836,-140.13937,0.000,-0.000,0.000,-2.71694,0.000*4E
$GPGGA,080749.70,3542.293420325,N,13943.287858538,E,4,09,2.17,23.719,M,36.996,M,2.7,2007*42
$PMSBATV,080749.70,2,2,-0.22189,0.92016,-140.13931,-0.000,-0.000,-0.000,-2.71694,0.000*47
$GPGGA,080749.80,3542.293420580,N,13943.287858487,E,4,10,1.92,23.719,M,36.996,M,2.8,2007*48
$PMSBATV,080749.80,2,2,-0.18611,0.90648,-140.13887,-0.000,-0.000,0.000,-2.71694,0.000*69
$GPGGA,080749.90,3542.293420547,N,13943.287858884,E,4,09,2.17,23.719,M,36.996,M,2.9,2007*4A
$PMSBATV,080749.90,2,2,-0.18598,0.90591,-140.13721,-0.000,-0.000,0.000,-2.71694,0.000*6E
$GPGGA,080750.00,3542.293420578,N,13943.287858919,E,4,10,1.92,23.719,M,36.996,M,3.0,2007*4C
$PMSBATV,080750.00,2,2,-0.19330,0.91728,-140.13508,-0.000,-0.000,0.000,-2.71694,0.000*62
$GPGGA,080750.10,3542.293420580,N,13943.287858750,E,4,10,1.92,23.719,M,36.996,M,3.1,2007*48
$PMSBATV,080750.10,2,2,-0.17221,0.91680,-140.13465,-0.000,-0.000,-0.000,-2.71694,0.000*48
$GPGGA,080750.20,3542.293420454,N,13943.287858950,E,4,10,1.92,23.719,M,36.996,M,3.2,2007*4E
$PMSBATV,080750.20,2,2,-0.18417,0.90824,-140.13020,-0.000,-0.000,0.000,-2.71694,0.000*6E
$GPGGA,080750.30,3542.293420669,N,13943.287858950,E,4,10,1.92,23.719,M,36.996,M,3.3,2007*42
$PMSBATV,080750.30,2,2,-0.18876,0.90913,-140.12689,-0.000,-0.000,0.000,-2.71694,0.000*65
$GPGGA,080750.40,3542.293420744,N,13943.287858900,E,4,10,1.92,23.719,M,36.996,M,3.4,2007*49
$PMSBATV,080750.40,2,2,-0.18687,0.92452,-140.13045,-0.000,-0.000,-0.000,-2.71694,0.000*42
$GPGGA,080750.50,3542.293420591,N,13943.287858780,E,4,10,1.92,23.719,M,36.996,M,3.5,2007*45
$PMSBATV,080750.50,2,2,-0.15077,0.90419,-140.12331,-0.000,-0.001,-0.000,-2.71694,0.000*4A
$GPGGA,080750.60,3542.293420570,N,13943.287859291,E,4,10,1.92,23.719,M,36.996,M,3.6,2007*4E
$PMSBATV,080750.60,2,2,-0.16061,0.91218,-140.12272,-0.000,-0.000,0.000,-2.71694,0.000*61
$GPGGA,080750.70,3542.293420590,N,13943.287859133,E,4,10,1.92,23.719,M,36.996,M,3.7,2007*4B
$PMSBATV,080750.70,2,2,-0.15788,0.93071,-140.12070,-0.000,-0.000,0.000,-2.71694,0.000*6C
$GPGGA,080750.80,3542.293420409,N,13943.287858986,E,4,10,1.92,23.719,M,36.996,M,3.8,2007*4D
$PMSBATV,080750.80,2,2,-0.16750,0.91944,-140.12278,-0.000,-0.000,-0.000,-2.71694,0.000*4F
$GPGGA,080750.90,3542.293420685,N,13943.287859020,E,4,10,1.92,23.719,M,36.996,M,3.9,2007*4F
$PMSBATV,080750.90,2,2,-0.16338,0.93010,-140.12325,-0.000,-0.000,-0.000,-2.71694,0.000*47
$GPGGA,080751.00,3542.293420521,N,13943.287858947,E,4,10,1.92,23.719,M,36.996,M,4.0,2007*4D
$PMSBATV,080751.00,2,2,-0.16294,0.94130,-140.12861,-0.000,-0.000,0.000,-2.71694,0.000*6A
$GPGGA,080751.10,3542.293420426,N,13943.287858849,E,4,10,1.92,23.719,M,36.996,M,4.1,2007*44
$PMSBATV,080751.10,2,2,-0.17669,0.95266,-140.13052,-0.000,0.000,0.000,-2.71694,0.000*49
$GPGGA,080751.20,3542.293420434,N,13943.287858589,E,4,10,1.92,23.719,M,36.996,M,4.2,2007*46
$PMSBATV,080751.20,2,2,-0.20398,0.98866,-140.13205,-0.000,-0.000,-0.000,-2.71694,0.000*42
$GPGGA,080751.30,3542.293420241,N,13943.287858051,E,4,10,1.92,23.719,M,36.996,M,4.3,2007*42
$PMSBATV,080751.30,2,2,-0.19872,0.96064,-140.13226,-0.000,-0.000,-0.000,-2.71694,0.000*43
$GPGGA,080751.40,3542.293420523,N,13943.287858345,E,4,10,1.92,23.719,M,36.996,M,4.4,2007*47
$PMSBATV,080751.40,2,2,-0.21717,0.98835,-140.12657,-0.000,-0.000,0.000,-2.71694,0.000*6F
$GPGGA,080751.50,3542.293420382,N,13943.287857923,E,4,10,1.92,23.719,M,36.996,M,4.5,2007*4F
$PMSBATV,080751.50,2,2,-0.19563,0.97294,-140.12797,-0.000,-0.000,0.000,-2.71694,0.000*67
$GPGGA,080751.60,3542.293420445,N,13943.287858205,E,4,10,1.92,23.720,M,36.996,M,4.6,2007*49
$PMSBATV,080751.60,2,2,-0.18205,0.96427,-140.12945,-0.000,-0.000,0.000,-2.71694,0.000*6C
$GPGGA,080751.70,3542.293420501,N,13943.287858402,E,4,10,1.92,23.720,M,36.996,M,4.7,2007*49
$PMSBATV,080751.70,2,2,-0.18554,0.98937,-140.13258,-0.000,-0.000,-0.000,-2.71694,0.000*47
$GPGGA,080751.80,3542.293420265,N,13943.287858087,E,4,10,1.92,23.720,M,36.996,M,4.8,2007*45
$PMSBATV,080751.80,2,2,-0.15939,0.95625,-140.12747,-0.000,-0.001,-0.000,-2.71694,0.000*48
