$GPGGA,075236.30,3542.294153435,N,13943.288169482,E,5,07,2.04,24.420,M,36.996,M,4.3,3007*45
$PMSBATV,075236.30,2,2,2.20746,1.30492,176.15943,-0.000,0.000,0.000,-164.14622,0.000*49
$GPGGA,075236.40,3542.294153412,N,13943.288169480,E,5,07,2.04,24.420,M,36.996,M,4.4,3007*42
$PMSBATV,075236.40,2,2,2.20725,1.29787,176.15621,0.000,0.000,0.000,-164.14622,0.000*62
$GPGGA,075236.50,3542.294153386,N,13943.288169486,E,5,07,2.04,24.420,M,36.996,M,4.5,3007*4E
$PMSBATV,075236.50,2,2,2.21284,1.29543,176.15597,0.000,-0.000,0.000,-164.14622,0.000*45
$GPGGA,075236.60,3542.294153357,N,13943.288169495,E,5,07,2.04,24.420,M,36.996,M,4.6,3007*40
$PMSBATV,075236.60,2,2,2.21688,1.29451,176.15214,0.000,-0.000,0.000,-164.14622,0.000*40
$GPGGA,075236.70,3542.294153335,N,13943.288169493,E,5,07,2.04,24.420,M,36.996,M,4.7,3007*42
$PMSBATV,075236.70,2,2,2.21600,1.28972,176.15115,0.000,0.000,0.000,-164.14622,0.000*63
$GPGGA,075236.80,3542.294153311,N,13943.288169500,E,5,07,2.04,24.420,M,36.996,M,4.8,3007*4F
$PMSBATV,075236.80,2,2,2.21845,1.28922,176.14909,0.000,0.000,0.000,-164.14622,0.000*62
$GPGGA,075236.90,3542.294153276,N,13943.288169506,E,5,07,2.04,24.420,M,36.996,M,4.9,3007*49
$PMSBATV,075236.90,2,2,2.21236,1.29690,176.14884,0.000,0.000,0.000,-164.14622,0.000*6E
$GPGGA,075237.00,3542.294153247,N,13943.288169516,E,5,07,2.04,24.420,M,36.996,M,5.0,3007*4A
$PMSBATV,075237.00,2,2,2.21550,1.29784,176.15171,0.000,-0.000,0.000,-164.14622,0.000*4A
$GPGGA,075237.10,3542.294153215,N,13943.288169530,E,5,07,2.04,24.420,M,36.996,M,5.1,3007*49
$PMSBATV,075237.10,2,2,2.21959,1.29952,176.15391,0.000,-0.000,0.000,-164.14622,0.000*47
$GPGGA,075237.20,3542.294153188,N,13943.288169539,E,5,07,2.04,24.420,M,36.996,M,5.2,3007*47
$PMSBATV,075237.20,2,2,2.21568,1.29520,176.15518,0.000,-0.000,0.000,-164.14622,0.000*44
$GPGGA,075237.30,3542.294153163,N,13943.288169550,E,5,07,2.04,24.420,M,36.996,M,5.3,3007*4D
$PMSBATV,075237.30,2,2,2.21322,1.29337,176.15274,0.000,0.000,0.000,-164.14622,0.000*6D
$GPGGA,075237.40,3542.294153133,N,13943.288169558,E,5,07,2.04,24.420,M,36.996,M,5.4,3007*40
$PMSBATV,075237.40,2,2,2.21177,1.29476,176.15762,0.000,-0.000,0.000,-164.14622,0.000*45
$GPGGA,075237.50,3542.294153103,N,13943.288169564,E,5,07,2.04,24.420,M,36.996,M,5.5,3007*4C
$PMSBATV,075237.50,2,2,2.20936,1.29507,176.15513,-0.000,0.000,0.000,-164.14622,0.000*4B
$GPGGA,075237.60,3542.294153074,N,13943.288169574,E,5,07,2.04,24.420,M,36.996,M,5.6,3007*4C
$PMSBATV,075237.60,2,2,2.21204,1.29764,176.15326,0.000,0.000,0.000,-164.14622,0.000*69
$GPGGA,075237.70,3542.294153043,N,13943.288169584,E,5,07,2.04,24.420,M,36.996,M,5.7,3007*47
$PMSBATV,075237.70,2,2,2.20906,1.29629,176.15881,0.000,0.000,0.000,-164.14622,0.000*6E
$GPGGA,075237.80,3542.294153016,N,13943.288169597,E,5,07,2.04,24.420,M,36.996,M,5.8,3007*45
$PMSBATV,075237.80,2,2,2.20927,1.29842,176.15591,-0.000,-0.000,0.000,-164.14622,0.000*6D
$GPGGA,075237.90,3542.294152989,N,13943.288169608,E,5,07,2.04,24.420,M,36.996,M,5.9,3007*4E
$PMSBATV,075237.90,2,2,2.20861,1.29488,176.15730,0.000,-0.000,0.000,-164.14622,0.000*41
$GPGGA,075238.00,3542.294152956,N,13943.288169620,E,5,07,2.04,24.420,M,36.996,M,6.0,3007*4A
$PMSBATV,075238.00,2,2,2.20761,1.29455,176.15702,0.000,0.000,0.000,-164.14622,0.000*64
$GPGGA,075238.10,3542.294152923,N,13943.288169633,E,5,07,2.04,24.420,M,36.996,M,1.1,3007*4D
$PMSBATV,075238.10,2,2,2.21103,1.30366,176.15599,0.000,-0.000,0.000,-164.14622,0.000*44
$GPGGA,075238.20,3542.294152900,N,13943.288169640,E,5,07,2.04,24.420,M,36.996,M,1.2,3007*48
$PMSBATV,075238.20,2,2,2.20973,1.30369,176.15247,0.000,-0.000,0.000,-164.14622,0.000*42
$GPGGA,075238.30,3542.294152875,N,13943.288169646,E,5,07,2.04,24.420,M,36.996,M,1.3,3007*4D
$PMSBATV,075238.30,2,2,2.20962,1.29827,176.15156,0.000,0.000,0.000,-164.14622,0.000*64
$GPGGA,075238.40,3542.294152845,N,13943.288169648,E,5,07,2.04,24.420,M,36.996,M,1.4,3007*40
$PMSBATV,075238.40,2,2,2.20725,1.29852,176.15269,0.000,0.000,0.000,-164.14622,0.000*63
$GPGGA,075238.50,3542.294152829,N,13943.288169649,E,5,07,2.04,24.420,M,36.996,M,1.5,3007*4B
$PMSBATV,075238.50,2,2,2.20386,1.29244,176.14988,-0.000,0.000,0.000,-164.14622,0.000*4A
$GPGGA,075238.60,3542.294152799,N,13943.288169657,E,5,07,2.04,24.420,M,36.996,M,1.6,3007*40
$PMSBATV,075238.60,2,2,2.20134,1.29221,176.14671,0.000,-0.000,0.000,-164.14622,0.000*48
$GPGGA,075238.70,3542.294152772,N,13943.288169660,E,5,07,2.04,24.420,M,36.996,M,1.7,3007*41
$PMSBATV,075238.70,2,2,2.20313,1.29501,176.14433,0.000,0.000,0.000,-164.14622,0.000*62
$GPGGA,075238.80,3542.294152752,N,13943.288169660,E,5,07,2.04,24.420,M,36.996,M,1.8,3007*43
$PMSBATV,075238.80,2,2,2.20286,1.29273,176.14532,-0.000,-0.000,0.000,-164.14622,0.000*62
$GPGGA,075238.90,3542.294152725,N,13943.288169662,E,5,07,2.04,24.420,M,36.996,M,1.9,3007*41
$PMSBATV,075238.90,2,2,2.20146,1.29484,176.14337,0.000,0.000,0.000,-164.14622,0.000*61
$GPGGA,075239.00,3542.294152694,N,13943.288169659,E,5,07,2.04,24.420,M,36.996,M,2.0,3007*40
$PMSBATV,075239.00,2,2,2.19568,1.29516,176.14340,0.000,0.000,0.000,-164.14622,0.000*61
$GPGGA,075239.10,3542.294152669,N,13943.288169660,E,5,07,2.04,24.420,M,36.996,M,2.1,3007*48
$PMSBATV,075239.10,2,2,2.19923,1.29464,176.14782,-0.000,0.000,0.000,-164.14622,0.000*40
$GPGGA,075239.20,3542.294152647,N,13943.288169665,E,5,07,2.04,24.420,M,36.996,M,2.2,3007*41
$PMSBATV,075239.20,2,2,2.18865,1.28767,176.14520,0.000,-0.000,0.000,-164.14622,0.000*4A
$GPGGA,075239.30,3542.294152619,N,13943.288169667,E,5,07,2.04,24.420,M,36.996,M,2.3,3007*48
$PMSBATV,075239.30,2,2,2.19056,1.28919,176.14650,0.000,0.000,0.000,-164.14622,0.000*6C
$GPGGA,075239.40,3542.294152593,N,13943.288169670,E,5,07,2.04,24.420,M,36.996,M,2.4,3007*4F
$PMSBATV,075239.40,2,2,2.19930,1.28845,176.14666,0.000,-0.000,0.000,-164.14622,0.000*42
$GPGGA,075239.50,3542.294152572,N,13943.288169674,E,5,07,2.04,24.420,M,36.996,M,2.5,3007*44
$PMSBATV,075239.50,2,2,2.19628,1.28433,176.14887,-0.000,0.000,0.000,-164.14622,0.000*49
$GPGGA,075239.60,3542.294152554,N,13943.288169676,E,5,07,2.04,24.420,M,36.996,M,2.6,3007*42
$PMSBATV,075239.60,2,2,2.19933,1.28240,176.14694,-0.000,0.000,0.000,-164.14622,0.000*41
$GPGGA,075239.70,3542.294152530,N,13943.288169681,E,5,07,2.04,24.420,M,36.996,M,2.7,3007*48
$PMSBATV,075239.70,2,2,2.20355,1.28155,176.14742,0.000,-0.000,0.000,-164.14622,0.000*4D
$GPGGA,075239.80,3542.294152504,N,13943.288169687,E,5,07,2.04,24.420,M,36.996,M,2.8,3007*49
$PMSBATV,075239.80,2,2,2.19710,1.28370,176.14258,0.000,-0.000,0.000,-164.14622,0.000*46
$GPGGA,075239.90,3542.294152487,N,13943.288169688,E,5,07,2.04,24.420,M,36.996,M,2.9,3007*4C
$PMSBATV,075239.90,2,2,2.19236,1.28146,176.13888,-0.000,0.000,0.000,-164.14622,0.000*41
$GPGGA,075240.00,3542.294152458,N,13943.288169701,E,5,07,2.04,24.421,M,36.996,M,3.0,3007*40
$PMSBATV,075240.00,2,2,2.20362,1.28247,176.14004,0.000,-0.000,0.000,-164.14622,0.000*45
$GPGGA,075240.10,3542.294152432,N,13943.288169703,E,5,07,2.04,24.421,M,36.996,M,3.1,3007*4E
$PMSBATV,075240.10,2,2,2.20407,1.28526,176.13936,0.000,0.000,0.000,-164.14622,0.000*62
$GPGGA,075240.20,3542.294152406,N,13943.288169706,E,5,07,2.04,24.421,M,36.996,M,3.2,3007*4C
$PMSBATV,075240.20,2,2,2.19997,1.28983,176.13906,0.000,-0.000,0.000,-164.14622,0.000*42
$GPGGA,075240.30,3542.294152384,N,13943.288169712,E,5,07,2.04,24.421,M,36.996,M,3.3,3007*44
$PMSBATV,075240.30,2,2,2.20729,1.28911,176.13743,-0.000,-0.000,0.000,-164.14622,0.000*6B
$GPGGA,075240.40,3542.294152358,N,13943.288169716,E,5,07,2.04,24.421,M,36.996,M,3.4,3007*41
$PMSBATV,075240.40,2,2,2.20779,1.28906,176.13401,0.000,-0.000,0.000,-164.14622,0.000*47
$GPGGA,075240.50,3542.294152333,N,13943.288169721,E,5,07,2.04,24.421,M,36.996,M,3.5,3007*48
$PMSBATV,075240.50,2,2,2.21162,1.29402,176.13530,0.000,-0.000,0.000,-164.14622,0.000*40
$GPGGA,075240.60,3542.294152310,N,13943.288169726,E,5,07,2.04,24.421,M,36.996,M,3.6,3007*4E
$PMSBATV,075240.60,2,2,2.21910,1.29242,176.13399,-0.000,-0.000,0.000,-164.14622,0.000*64
$GPGGA,075240.70,3542.294152292,N,13943.288169727,E,5,07,2.04,24.421,M,36.996,M,3.7,3007*44
$PMSBATV,075240.70,2,2,2.21612,1.29194,176.13816,0.000,0.000,0.000,-164.14622,0.000*6C
$GPGGA,075240.80,3542.294152254,N,13943.288169728,E,5,07,2.04,24.421,M,36.996,M,3.8,3007*41
$PMSBATV,075240.80,2,2,2.21615,1.29677,176.14073,0.001,0.000,0.000,-164.14622,0.000*63
$GPGGA,075240.90,3542.294152233,N,13943.288169727,E,5,07,2.04,24.421,M,36.996,M,3.9,3007*4F
$PMSBATV,075240.90,2,2,2.21369,1.29355,176.13376,-0.000,0.000,0.000,-164.14622,0.000*44
$GPGGA,075241.00,3542.294152213,N,13943.288169729,E,5,07,2.04,24.421,M,36.996,M,4.0,3007*45
$PMSBATV,075241.00,2,2,2.21302,1.29340,176.12891,0.000,0.000,0.000,-164.14622,0.000*6B
$GPGGA,075241.10,3542.294152182,N,13943.288169733,E,5,07,2.04,24.421,M,36.996,M,4.1,3007*45
$PMSBATV,075241.10,2,2,2.21271,1.29912,176.12869,0.000,0.000,0.000,-164.14622,0.000*65
$GPGGA,075241.20,3542.294152152,N,13943.288169739,E,5,07,2.04,24.421,M,36.996,M,4.2,3007*42
$PMSBATV,075241.20,2,2,2.22159,1.29776,176.12765,0.000,-0.000,0.000,-164.14622,0.000*4E
$GPGGA,075241.30,3542.294152132,N,13943.288169740,E,5,07,2.04,24.421,M,36.996,M,4.3,3007*4A
$PMSBATV,075241.30,2,2,2.22532,1.29376,176.12979,0.000,-0.000,0.000,-164.14622,0.000*41
$GPGGA,075241.40,3542.294152102,N,13943.288169743,E,5,07,2.04,24.421,M,36.996,M,4.4,3007*4A
$PMSBATV,075241.40,2,2,2.22513,1.29056,176.13748,0.000,0.000,0.000,-164.14622,0.000*64
$GPGGA,075241.50,3542.294152084,N,13943.288169743,E,5,07,2.04,24.421,M,36.996,M,4.5,3007*45
$PMSBATV,075241.50,2,2,2.21502,1.29037,176.13625,-0.000,-0.000,0.000,-164.14622,0.000*6B
$GPGGA,075241.60,3542.294152077,N,13943.288169742,E,5,07,2.04,24.421,M,36.996,M,4.6,3007*48
$PMSBATV,075241.60,2,2,2.21930,1.28352,176.14063,-0.000,-0.000,0.000,-164.14622,0.000*67
$GPGGA,075241.70,3542.294152042,N,13943.288169747,E,5,07,2.04,24.421,M,36.996,M,4.7,3007*4B
$PMSBATV,075241.70,2,2,2.22348,1.28977,176.14398,0.000,-0.000,0.000,-164.14622,0.000*47
$GPGGA,075241.80,3542.294152011,N,13943.288169753,E,5,07,2.04,24.421,M,36.996,M,4.8,3007*48
$PMSBATV,075241.80,2,2,2.22170,1.28612,176.14059,0.001,-0.000,-0.000,-164.14622,0.000*6F
$GPGGA,075241.90,3542.294151984,N,13943.288169754,E,5,07,2.04,24.421,M,36.996,M,4.9,3007*49
$PMSBATV,075241.90,2,2,2.22353,1.28795,176.13678,-0.000,-0.000,0.000,-164.14622,0.000*60
$GPGGA,075242.00,3542.294151982,N,13943.288169755,E,5,07,2.04,24.421,M,36.996,M,5.0,3007*4C
$PMSBATV,075242.00,2,2,2.23101,1.27753,176.13866,-0.000,0.000,0.000,-164.14622,0.000*47
$GPGGA,075242.10,3542.294151957,N,13943.288169753,E,5,07,2.04,24.421,M,36.996,M,5.1,3007*42
$PMSBATV,075242.10,2,2,2.23055,1.28030,176.13844,-0.000,0.000,0.000,-164.14622,0.000*4B
$GPGGA,075242.20,3542.294151923,N,13943.288169752,E,5,07,2.04,24.421,M,36.996,M,5.2,3007*40
$PMSBATV,075242.20,2,2,2.23215,1.28651,176.14097,0.000,0.000,0.000,-164.14622,0.000*63
$GPGGA,075242.30,3542.294151889,N,13943.288169757,E,5,07,2.04,24.421,M,36.996,M,5.3,3007*44
$PMSBATV,075242.30,2,2,2.22989,1.28938,176.14189,0.000,0.000,0.000,-164.14622,0.000*63
$GPGGA,075242.40,3542.294151879,N,13943.288169765,E,5,07,2.04,24.421,M,36.996,M,5.4,3007*4A
$PMSBATV,075242.40,2,2,2.23576,1.28187,176.14134,-0.001,0.000,0.000,-164.14622,0.000*4F
$GPGGA,075242.50,3542.294151859,N,13943.288169766,E,5,07,2.04,24.421,M,36.996,M,5.5,3007*4B
$PMSBATV,075242.50,2,2,2.23258,1.27017,176.14005,0.000,-0.000,0.000,-164.14622,0.000*40
$GPGGA,075242.60,3542.294151828,N,13943.288169766,E,5,07,2.04,24.421,M,36.996,M,5.6,3007*4D
$PMSBATV,075242.60,2,2,2.23413,1.27620,176.13631,0.000,0.000,0.000,-164.14622,0.000*63
$GPGGA,075242.70,3542.294151801,N,13943.288169776,E,5,07,2.04,24.421,M,36.996,M,5.7,3007*47
$PMSBATV,075242.70,2,2,2.24131,1.27455,176.13709,0.000,-0.000,0.000,-164.14622,0.000*47
$GPGGA,075242.80,3542.294151785,N,13943.288169776,E,5,07,2.04,24.421,M,36.996,M,5.8,3007*44
$PMSBATV,075242.80,2,2,2.24283,1.27470,176.13169,-0.000,0.000,0.000,-164.14622,0.000*45
$GPGGA,075242.90,3542.294151759,N,13943.288169774,E,5,07,2.04,24.421,M,36.996,M,5.9,3007*47
$PMSBATV,075242.90,2,2,2.23606,1.26785,176.13658,0.000,-0.000,0.000,-164.14622,0.000*47
$GPGGA,075243.00,3542.294151733,N,13943.288169771,E,5,07,2.04,24.421,M,36.996,M,6.0,3007*4C
$PMSBATV,075243.00,2,2,2.23154,1.27269,176.13697,0.000,0.000,0.000,-164.14622,0.000*67
$GPGGA,075243.10,3542.294151706,N,13943.288169772,E,5,07,2.04,24.421,M,36.996,M,6.1,3007*49
$PMSBATV,075243.10,2,2,2.23635,1.26939,176.14063,0.000,0.000,0.000,-164.14622,0.000*63
$GPGGA,075243.20,3542.294151678,N,13943.288169769,E,5,07,2.04,24.421,M,36.996,M,6.2,3007*4B
$PMSBATV,075243.20,2,2,2.23099,1.27205,176.13758,0.000,0.000,0.000,-164.14622,0.000*6D
$GPGGA,075243.30,3542.294151660,N,13943.288169768,E,5,07,2.04,24.421,M,36.996,M,6.3,3007*43
$PMSBATV,075243.30,2,2,2.23044,1.26734,176.13922,-0.000,-0.000,0.000,-164.14622,0.000*69
$GPGGA,075243.40,3542.294151636,N,13943.288169768,E,5,07,2.04,24.421,M,36.996,M,6.4,3007*40
$PMSBATV,075243.40,2,2,2.22888,1.26389,176.13510,0.000,0.000,0.000,-164.14622,0.000*68
$GPGGA,075243.50,3542.294151612,N,13943.288169764,E,5,07,2.04,24.421,M,36.996,M,6.5,3007*4A
$PMSBATV,075243.50,2,2,2.22748,1.26322,176.13030,0.000,0.000,0.000,-164.14622,0.000*6C
$GPGGA,075243.60,3542.294151578,N,13943.288169771,E,5,07,2.04,24.421,M,36.996,M,6.6,3007*41
$PMSBATV,075243.60,2,2,2.22521,1.26663,176.12904,0.000,-0.000,0.000,-164.14622,0.000*40
$GPGGA,075243.70,3542.294151551,N,13943.288169768,E,5,07,2.04,24.421,M,36.996,M,6.7,3007*42
$PMSBATV,075243.70,2,2,2.22614,1.26718,176.13045,0.000,0.000,0.000,-164.14622,0.000*69
$GPGGA,075243.80,3542.294151522,N,13943.288169773,E,5,07,2.04,24.421,M,36.996,M,6.8,3007*4C
$PMSBATV,075243.80,2,2,2.23094,1.27332,176.13326,0.000,-0.000,0.000,-164.14622,0.000*4F
$GPGGA,075243.90,3542.294151494,N,13943.288169775,E,5,07,2.04,24.421,M,36.996,M,6.9,3007*46
$PMSBATV,075243.90,2,2,2.22981,1.27449,176.13049,-0.000,-0.000,0.000,-164.14622,0.000*6E
$GPGGA,075244.00,3542.294151472,N,13943.288169784,E,5,07,2.04,24.421,M,36.996,M,7.0,3007*46
$PMSBATV,075244.00,2,2,2.23458,1.27192,176.12462,0.000,-0.000,0.000,-164.14622,0.000*4A
$GPGGA,075244.10,3542.294151432,N,13943.288169789,E,5,07,2.04,24.421,M,36.996,M,2.1,3007*4A
$PMSBATV,075244.10,2,2,2.23086,1.27560,176.12695,0.000,0.000,0.000,-164.14622,0.000*62
$GPGGA,075244.20,3542.294151415,N,13943.288169778,E,5,07,2.04,24.421,M,36.996,M,2.2,3007*41
$PMSBATV,075244.20,2,2,2.22933,1.27209,176.12380,-0.000,0.000,0.000,-164.14622,0.000*43
$GPGGA,075244.30,3542.294151396,N,13943.288169777,E,5,07,2.04,24.421,M,36.996,M,2.3,3007*42
$PMSBATV,075244.30,2,2,2.23206,1.27394,176.12507,0.000,-0.000,0.000,-164.14622,0.000*42
$GPGGA,075244.40,3542.294151371,N,13943.288169773,E,5,07,2.04,24.421,M,36.996,M,2.4,3007*4F
$PMSBATV,075244.40,2,2,2.22672,1.27335,176.12721,0.000,-0.000,0.000,-164.14622,0.000*4E
$GPGGA,075244.50,3542.294151350,N,13943.288169773,E,5,07,2.04,24.421,M,36.996,M,2.5,3007*4C
$PMSBATV,075244.50,2,2,2.22653,1.27403,176.12595,0.000,-0.000,0.000,-164.14622,0.000*43
$GPGGA,075244.60,3542.294151329,N,13943.288169769,E,5,07,2.04,24.421,M,36.996,M,2.6,3007*49
$PMSBATV,075244.60,2,2,2.23413,1.27517,176.12774,0.000,0.000,0.000,-164.14622,0.000*63
$GPGGA,075244.70,3542.294151307,N,13943.288169758,E,5,07,2.04,24.421,M,36.996,M,2.7,3007*47
$PMSBATV,075244.70,2,2,2.22363,1.27621,176.12215,0.000,0.000,0.000,-164.14622,0.000*67
$GPGGA,075244.80,3542.294151279,N,13943.288169758,E,5,07,2.04,24.421,M,36.996,M,2.8,3007*4F
$PMSBATV,075244.80,2,2,2.22724,1.27807,176.12856,0.000,0.000,0.000,-164.14622,0.000*68
$GPGGA,075244.90,3542.294151253,N,13943.288169761,E,5,07,2.04,24.421,M,36.996,M,2.9,3007*4D
$PMSBATV,075244.90,2,2,2.22789,1.28008,176.13027,0.000,-0.000,0.000,-164.14622,0.000*44
$GPGGA,075245.00,3542.294151231,N,13943.288169758,E,5,07,2.04,24.421,M,36.996,M,3.0,3007*43
$PMSBATV,075245.00,2,2,2.22291,1.27755,176.12690,0.000,0.000,0.000,-164.14622,0.000*66
$GPGGA,075245.10,3542.294151202,N,13943.288169759,E,5,07,2.04,24.421,M,36.996,M,3.1,3007*42
$PMSBATV,075245.10,2,2,2.21933,1.27731,176.13033,0.000,-0.000,0.000,-164.14622,0.000*46
$GPGGA,075245.20,3542.294151183,N,13943.288169753,E,5,07,2.04,24.421,M,36.996,M,3.2,3007*42
$PMSBATV,075245.20,2,2,2.21939,1.27841,176.12947,-0.000,0.000,0.000,-164.14622,0.000*4C
$GPGGA,075245.30,3542.294151158,N,13943.288169751,E,5,07,2.04,24.421,M,36.996,M,3.3,3007*46
$PMSBATV,075245.30,2,2,2.22538,1.27570,176.13409,0.000,-0.000,0.000,-164.14622,0.000*4A
$GPGGA,075245.40,3542.294151134,N,13943.288169756,E,5,07,2.04,24.421,M,36.996,M,3.4,3007*4B
$PMSBATV,075245.40,2,2,2.22686,1.27751,176.12925,0.000,-0.000,0.000,-164.14622,0.000*48
$GPGGA,075245.50,3542.294151114,N,13943.288169757,E,5,07,2.04,24.421,M,36.996,M,3.5,3007*48
$PMSBATV,075245.50,2,2,2.22449,1.27678,176.13058,0.000,0.000,0.000,-164.14622,0.000*6D
$GPGGA,075245.60,3542.294151091,N,13943.288169751,E,5,07,2.04,24.421,M,36.996,M,3.6,3007*42
$PMSBATV,075245.60,2,2,2.22715,1.27974,176.12650,0.000,-0.000,0.000,-164.14622,0.000*45
$GPGGA,075245.70,3542.294151065,N,13943.288169759,E,5,07,2.04,24.421,M,36.996,M,3.7,3007*41
$PMSBATV,075245.70,2,2,2.22366,1.27501,176.12659,0.001,-0.000,0.000,-164.14622,0.000*42
$GPGGA,075245.80,3542.294151037,N,13943.288169756,E,5,07,2.04,24.421,M,36.996,M,3.8,3007*49
$PMSBATV,075245.80,2,2,2.21997,1.27703,176.12278,-0.000,0.000,0.000,-164.14622,0.000*4C
$GPGGA,075245.90,3542.294151031,N,13943.288169756,E,5,07,2.04,24.421,M,36.996,M,3.9,3007*4F
$PMSBATV,075245.90,2,2,2.22818,1.27384,176.12489,-0.000,-0.000,0.000,-164.14622,0.000*66
$GPGGA,075246.00,3542.294151012,N,13943.288169750,E,5,07,2.04,24.421,M,36.996,M,4.0,3007*4C
$PMSBATV,075246.00,2,2,2.22260,1.27768,176.12441,-0.000,0.000,0.000,-164.14622,0.000*46
$GPGGA,075246.10,3542.294150989,N,13943.288169742,E,5,07,2.04,24.421,M,36.996,M,4.1,3007*45
$PMSBATV,075246.10,2,2,2.22591,1.27917,176.12449,0.000,0.000,0.000,-164.14622,0.000*6D
$GPGGA,075246.20,3542.294150969,N,13943.288169735,E,5,07,2.04,24.421,M,36.996,M,4.2,3007*4B
$PMSBATV,075246.20,2,2,2.22605,1.27891,176.12927,-0.000,-0.000,0.000,-164.14622,0.000*6A
$GPGGA,075246.30,3542.294150954,N,13943.288169728,E,5,07,2.04,24.421,M,36.996,M,4.3,3007*49
$PMSBATV,075246.30,2,2,2.22200,1.27494,176.12384,0.000,0.000,0.000,-164.14622,0.000*60
$GPGGA,075246.40,3542.294150929,N,13943.288169725,E,5,07,2.04,24.421,M,36.996,M,4.4,3007*4E
$PMSBATV,075246.40,2,2,2.22451,1.27835,176.11637,0.000,-0.000,0.000,-164.14622,0.000*41
$GPGGA,075246.50,3542.294150911,N,13943.288169723,E,5,07,2.04,24.421,M,36.996,M,4.5,3007*43
$PMSBATV,075246.50,2,2,2.22285,1.27965,176.11470,0.000,-0.000,0.000,-164.14622,0.000*4A
$GPGGA,075246.60,3542.294150883,N,13943.288169715,E,5,07,2.04,24.421,M,36.996,M,4.6,3007*4C
$PMSBATV,075246.60,2,2,2.21682,1.27984,176.11975,0.000,0.000,0.000,-164.14622,0.000*63
$GPGGA,075246.70,3542.294150865,N,13943.288169714,E,5,07,2.04,24.421,M,36.996,M,4.7,3007*45
$PMSBATV,075246.70,2,2,2.22324,1.28278,176.11817,-0.000,-0.000,0.000,-164.14622,0.000*6A
$GPGGA,075246.80,3542.294150847,N,13943.288169714,E,5,07,2.04,24.421,M,36.996,M,4.8,3007*45
$PMSBATV,075246.80,2,2,2.22322,1.28622,176.12334,0.000,-0.000,0.000,-164.14622,0.000*4C
$GPGGA,075246.90,3542.294150824,N,13943.288169708,E,5,07,2.04,24.421,M,36.996,M,4.9,3007*4D
$PMSBATV,075246.90,2,2,2.22012,1.29024,176.12105,0.000,0.000,0.000,-164.14622,0.000*61
$GPGGA,075247.00,3542.294150810,N,13943.288169703,E,5,07,2.04,24.421,M,36.996,M,5.0,3007*41
$PMSBATV,075247.00,2,2,2.22345,1.28351,176.12225,-0.000,0.000,0.000,-164.14622,0.000*44
$GPGGA,075247.10,3542.294150779,N,13943.288169699,E,5,07,2.04,24.421,M,36.996,M,5.1,3007*43
$PMSBATV,075247.10,2,2,2.21251,1.28611,176.12795,0.000,0.000,0.000,-164.14622,0.000*60
$GPGGA,075247.20,3542.294150764,N,13943.288169702,E,5,07,2.04,24.421,M,36.996,M,5.2,3007*4C
$PMSBATV,075247.20,2,2,2.21409,1.27905,176.12736,-0.000,-0.000,0.000,-164.14622,0.000*64
$GPGGA,075247.30,3542.294150737,N,13943.288169702,E,5,07,2.04,24.421,M,36.996,M,5.3,3007*4A
$PMSBATV,075247.30,2,2,2.21846,1.28202,176.12791,0.000,0.000,0.000,-164.14622,0.000*6C
$GPGGA,075247.40,3542.294150709,N,13943.288169712,E,5,07,2.04,24.421,M,36.996,M,5.4,3007*46
$PMSBATV,075247.40,2,2,2.21566,1.28293,176.12679,0.000,-0.000,0.000,-164.14622,0.000*46
$GPGGA,075247.50,3542.294150679,N,13943.288169716,E,5,07,2.04,24.421,M,36.996,M,5.5,3007*44
$PMSBATV,075247.50,2,2,2.20967,1.28736,176.12718,0.000,-0.000,0.000,-164.14622,0.000*47
$GPGGA,075247.60,3542.294150657,N,13943.288169711,E,5,07,2.04,24.421,M,36.996,M,5.6,3007*4F
$PMSBATV,075247.60,2,2,2.20996,1.28585,176.11779,0.000,0.000,-0.000,-164.14622,0.000*44
$GPGGA,075247.70,3542.294150632,N,13943.288169712,E,5,07,2.04,24.421,M,36.996,M,5.7,3007*4F
$PMSBATV,075247.70,2,2,2.20836,1.29239,176.11569,0.000,-0.000,0.000,-164.14622,0.000*4C
$GPGGA,075247.80,3542.294150609,N,13943.288169709,E,5,07,2.04,24.421,M,36.996,M,5.8,3007*4D
$PMSBATV,075247.80,2,2,2.20771,1.29327,176.11451,0.000,0.000,0.000,-164.14622,0.000*66
$GPGGA,075247.90,3542.294150579,N,13943.288169708,E,5,07,2.04,24.421,M,36.996,M,5.9,3007*48
$PMSBATV,075247.90,2,2,2.21233,1.29224,176.11394,0.000,-0.000,0.000,-164.14622,0.000*44
$GPGGA,075248.00,3542.294150556,N,13943.288169715,E,5,07,2.04,24.421,M,36.996,M,6.0,3007*45
$PMSBATV,075248.00,2,2,2.21517,1.29202,176.11378,0.000,-0.000,0.000,-164.14622,0.000*45
$GPGGA,075248.10,3542.294150534,N,13943.288169717,E,5,07,2.04,24.421,M,36.996,M,1.1,3007*44
$PMSBATV,075248.10,2,2,2.21171,1.28964,176.11916,0.000,0.000,0.000,-164.14622,0.000*65
$GPGGA,075248.20,3542.294150516,N,13943.288169719,E,5,07,2.04,24.421,M,36.996,M,1.2,3007*4A
$PMSBATV,075248.20,2,2,2.21635,1.28331,176.12409,0.000,-0.000,0.000,-164.14622,0.000*46
$GPGGA,075248.30,3542.294150499,N,13943.288169718,E,5,07,2.04,24.421,M,36.996,M,1.3,3007*4D
$PMSBATV,075248.30,2,2,2.21768,1.27969,176.12149,0.000,0.000,0.000,-164.14622,0.000*6A
$GPGGA,075248.40,3542.294150481,N,13943.288169712,E,5,07,2.04,24.421,M,36.996,M,1.4,3007*4E
$PMSBATV,075248.40,2,2,2.21629,1.28096,176.12247,-0.000,0.000,0.000,-164.14622,0.000*4F
$GPGGA,075248.50,3542.294150461,N,13943.288169704,E,5,07,2.04,24.421,M,36.996,M,1.5,3007*47
$PMSBATV,075248.50,2,2,2.21365,1.28375,176.11763,0.000,0.000,0.000,-164.14622,0.000*60
$GPGGA,075248.60,3542.294150444,N,13943.288169700,E,5,07,2.04,24.421,M,36.996,M,1.6,3007*44
$PMSBATV,075248.60,2,2,2.21620,1.28503,176.11913,0.000,-0.000,0.000,-164.14622,0.000*44
$GPGGA,075248.70,3542.294150423,N,13943.288169700,E,5,07,2.04,24.421,M,36.996,M,1.7,3007*45
$PMSBATV,075248.70,2,2,2.21870,1.28635,176.12029,0.000,0.000,0.000,-164.14622,0.000*66
$GPGGA,075248.80,3542.294150403,N,13943.288169694,E,5,07,2.04,24.421,M,36.996,M,1.8,3007*4B
$PMSBATV,075248.80,2,2,2.21779,1.28436,176.12051,-0.000,0.000,0.000,-164.14622,0.000*4C
$GPGGA,075248.90,3542.294150379,N,13943.288169695,E,5,07,2.04,24.421,M,36.996,M,1.9,3007*40
$PMSBATV,075248.90,2,2,2.22010,1.28542,176.12001,0.000,-0.000,0.000,-164.14622,0.000*41
$GPGGA,075249.00,3542.294150359,N,13943.288169682,E,5,07,2.04,24.421,M,36.996,M,2.0,3007*46
$PMSBATV,075249.00,2,2,2.21130,1.28925,176.11517,0.000,0.000,0.000,-164.14622,0.000*68
$GPGGA,075249.10,3542.294150341,N,13943.288169680,E,5,07,2.04,24.421,M,36.996,M,2.1,3007*4D
$PMSBATV,075249.10,2,2,2.21621,1.28558,176.11749,-0.000,-0.000,0.000,-164.14622,0.000*61
$GPGGA,075249.20,3542.294150322,N,13943.288169682,E,5,07,2.04,24.421,M,36.996,M,2.2,3007*4A
$PMSBATV,075249.20,2,2,2.21916,1.29163,176.11755,0.000,-0.000,0.000,-164.14622,0.000*44
$GPGGA,075249.30,3542.294150303,N,13943.288169677,E,5,07,2.04,24.421,M,36.996,M,2.3,3007*43
$PMSBATV,075249.30,2,2,2.21697,1.29027,176.11770,0.000,-0.000,0.000,-164.14622,0.000*45
$GPGGA,075249.40,3542.294150282,N,13943.288169686,E,5,07,2.04,24.421,M,36.996,M,2.4,3007*45
$PMSBATV,075249.40,2,2,2.22685,1.28525,176.11100,-0.000,-0.000,0.000,-164.14622,0.000*68
$GPGGA,075249.50,3542.294150256,N,13943.288169687,E,5,07,2.04,24.421,M,36.996,M,2.5,3007*4D
$PMSBATV,075249.50,2,2,2.22673,1.28490,176.11143,0.000,0.000,0.000,-164.14622,0.000*68
$GPGGA,075249.60,3542.294150235,N,13943.288169677,E,5,07,2.04,24.421,M,36.996,M,2.6,3007*47
$PMSBATV,075249.60,2,2,2.22464,1.28601,176.10941,0.000,0.000,0.000,-164.14622,0.000*6E
$GPGGA,075249.70,3542.294150214,N,13943.288169678,E,5,07,2.04,24.421,M,36.996,M,2.7,3007*4B
$PMSBATV,075249.70,2,2,2.22661,1.28888,176.11223,0.000,-0.000,0.000,-164.14622,0.000*44
$GPGGA,075249.80,3542.294150192,N,13943.288169683,E,5,07,2.04,24.421,M,36.996,M,2.8,3007*42
$PMSBATV,075249.80,2,2,2.23109,1.28841,176.11162,-0.000,-0.000,0.000,-164.14622,0.000*6D
$GPGGA,075249.90,3542.294150169,N,13943.288169680,E,5,07,2.04,24.421,M,36.996,M,2.9,3007*45
$PMSBATV,075249.90,2,2,2.23138,1.28540,176.10900,0.000,0.000,0.000,-164.14622,0.000*6F
$GPGGA,075250.00,3542.294150146,N,13943.288169681,E,5,07,2.04,24.421,M,36.996,M,3.0,3007*40
$PMSBATV,075250.00,2,2,2.23834,1.28797,176.10969,0.000,-0.000,0.000,-164.14622,0.000*41
$GPGGA,075250.10,3542.294150126,N,13943.288169678,E,5,07,2.04,24.421,M,36.996,M,3.1,3007*40
$PMSBATV,075250.10,2,2,2.23495,1.29229,176.11258,0.000,0.000,0.000,-164.14622,0.000*63
$GPGGA,075250.20,3542.294150107,N,13943.288169669,E,5,07,2.04,24.421,M,36.996,M,3.2,3007*43
$PMSBATV,075250.20,2,2,2.23378,1.29135,176.10872,0.000,0.000,0.000,-164.14622,0.000*69
$GPGGA,075250.30,3542.294150085,N,13943.288169667,E,5,07,2.04,24.421,M,36.996,M,3.3,3007*46
$PMSBATV,075250.30,2,2,2.23354,1.29380,176.10461,0.000,0.000,0.000,-164.14622,0.000*64
$GPGGA,075250.40,3542.294150061,N,13943.288169660,E,5,07,2.04,24.421,M,36.996,M,3.4,3007*4B
$PMSBATV,075250.40,2,2,2.23169,1.29782,176.10134,0.000,0.000,0.000,-164.14622,0.000*6C
$GPGGA,075250.50,3542.294150045,N,13943.288169657,E,5,07,2.04,24.421,M,36.996,M,3.5,3007*49
$PMSBATV,075250.50,2,2,2.23390,1.29629,176.10321,0.000,-0.000,0.000,-164.14622,0.000*42
$GPGGA,075250.60,3542.294150021,N,13943.288169654,E,5,07,2.04,24.421,M,36.996,M,3.6,3007*48
$PMSBATV,075250.60,2,2,2.23798,1.29977,176.10229,0.000,-0.000,0.000,-164.14622,0.000*40
$GPGGA,075250.70,3542.294150001,N,13943.288169647,E,5,07,2.04,24.421,M,36.996,M,3.7,3007*48
$PMSBATV,075250.70,2,2,2.24054,1.29582,176.10457,0.000,0.000,0.000,-164.14622,0.000*65
$GPGGA,075250.80,3542.294149985,N,13943.288169639,E,5,07,2.04,24.421,M,36.996,M,3.8,3007*4C
$PMSBATV,075250.80,2,2,2.23941,1.29675,176.10078,-0.000,-0.000,0.000,-164.14622,0.000*62
$GPGGA,075250.90,3542.294149963,N,13943.288169635,E,5,07,2.04,24.421,M,36.996,M,3.9,3007*48
$PMSBATV,075250.90,2,2,2.23816,1.29543,176.09992,0.000,-0.000,0.000,-164.14622,0.000*4E
$GPGGA,075251.00,3542.294149946,N,13943.288169627,E,5,07,2.04,24.421,M,36.996,M,4.0,3007*4A
$PMSBATV,075251.00,2,2,2.23523,1.29285,176.10348,-0.000,0.000,0.000,-164.14622,0.000*45
$GPGGA,075251.10,3542.294149927,N,13943.288169623,E,5,07,2.04,24.421,M,36.996,M,4.1,3007*49
$PMSBATV,075251.10,2,2,2.23971,1.29019,176.10035,0.000,0.000,0.000,-164.14622,0.000*6C
$GPGGA,075251.20,3542.294149909,N,13943.288169620,E,5,07,2.04,24.421,M,36.996,M,4.2,3007*46
$PMSBATV,075251.20,2,2,2.23917,1.28780,176.09972,0.000,-0.000,0.000,-164.14622,0.000*46
$GPGGA,075251.30,3542.294149893,N,13943.288169615,E,5,07,2.04,24.421,M,36.996,M,4.3,3007*42
$PMSBATV,075251.30,2,2,2.23371,1.28642,176.10365,-0.000,-0.000,0.000,-164.14622,0.000*6B
$GPGGA,075251.40,3542.294149877,N,13943.288169612,E,5,07,2.04,24.421,M,36.996,M,4.4,3007*4F
$PMSBATV,075251.40,2,2,2.23408,1.28405,176.10612,0.000,0.000,0.000,-164.14622,0.000*61
$GPGGA,075251.50,3542.294149859,N,13943.288169607,E,5,07,2.04,24.421,M,36.996,M,4.5,3007*47
$PMSBATV,075251.50,2,2,2.23676,1.28179,176.10198,0.000,0.000,0.000,-164.14622,0.000*60
$GPGGA,075251.60,3542.294149832,N,13943.288169603,E,5,07,2.04,24.421,M,36.996,M,4.6,3007*4E
$PMSBATV,075251.60,2,2,2.23401,1.28477,176.10715,0.000,0.000,0.000,-164.14622,0.000*69
$GPGGA,075251.70,3542.294149810,N,13943.288169607,E,5,07,2.04,24.421,M,36.996,M,4.7,3007*4A
$PMSBATV,075251.70,2,2,2.24028,1.28831,176.10557,-0.000,-0.000,0.000,-164.14622,0.000*6A
$GPGGA,075251.80,3542.294149788,N,13943.288169609,E,5,07,2.04,24.421,M,36.996,M,4.8,3007*4A
$PMSBATV,075251.80,2,2,2.23074,1.28730,176.11207,-0.000,0.000,0.000,-164.14622,0.000*4B
$GPGGA,075251.90,3542.294149764,N,13943.288169606,E,5,07,2.04,24.421,M,36.996,M,4.9,3007*47
$PMSBATV,075251.90,2,2,2.22693,1.28897,176.10940,0.000,0.000,0.000,-164.14622,0.000*62
$GPGGA,075252.00,3542.294149740,N,13943.288169601,E,5,07,2.04,24.421,M,36.996,M,5.0,3007*44
$PMSBATV,075252.00,2,2,2.23634,1.28920,176.11199,-0.000,-0.000,0.000,-164.14622,0.000*64
$GPGGA,075252.10,3542.294149723,N,13943.288169606,E,5,07,2.04,24.421,M,36.996,M,5.1,3007*46
$PMSBATV,075252.10,2,2,2.23105,1.28657,176.11341,-0.000,-0.000,0.000,-164.14622,0.000*68
$GPGGA,075252.20,3542.294149704,N,13943.288169598,E,5,07,2.04,24.421,M,36.996,M,5.2,3007*47
$PMSBATV,075252.20,2,2,2.22302,1.28500,176.10933,0.000,0.000,0.000,-164.14622,0.000*60
$GPGGA,075252.30,3542.294149673,N,13943.288169599,E,5,07,2.04,24.421,M,36.996,M,5.3,3007*47
$PMSBATV,075252.30,2,2,2.22776,1.29158,176.11152,0.000,-0.000,0.000,-164.14622,0.000*4D
$GPGGA,075252.40,3542.294149654,N,13943.288169599,E,5,07,2.04,24.421,M,36.996,M,5.4,3007*42
$PMSBATV,075252.40,2,2,2.22145,1.28557,176.11120,0.000,-0.000,0.000,-164.14622,0.000*43
$GPGGA,075252.50,3542.294149628,N,13943.288169596,E,5,07,2.04,24.421,M,36.996,M,5.5,3007*46
$PMSBATV,075252.50,2,2,2.22155,1.28358,176.10758,0.000,0.000,0.000,-164.14622,0.000*6F
$GPGGA,075252.60,3542.294149602,N,13943.288169596,E,5,07,2.04,24.421,M,36.996,M,5.6,3007*4E
$PMSBATV,075252.60,2,2,2.22709,1.28294,176.10434,0.000,-0.000,0.000,-164.14622,0.000*46
$GPGGA,075252.70,3542.294149582,N,13943.288169596,E,5,07,2.04,24.421,M,36.996,M,5.7,3007*45
$PMSBATV,075252.70,2,2,2.22390,1.27603,176.10297,-0.000,0.000,0.000,-164.14622,0.000*49
$GPGGA,075252.80,3542.294149562,N,13943.288169590,E,5,07,2.04,24.421,M,36.996,M,5.8,3007*4D
$PMSBATV,075252.80,2,2,2.22305,1.27266,176.10584,0.000,0.000,0.000,-164.14622,0.000*65
$GPGGA,075252.90,3542.294149532,N,13943.288169589,E,5,07,2.04,24.421,M,36.996,M,5.9,3007*40
$PMSBATV,075252.90,2,2,2.22822,1.27060,176.10273,0.000,-0.000,0.000,-164.14622,0.000*4C
$GPGGA,075253.00,3542.294149505,N,13943.288169598,E,5,07,2.04,24.421,M,36.996,M,6.0,3007*46
$PMSBATV,075253.00,2,2,2.22970,1.26692,176.09909,0.000,-0.000,0.000,-164.14622,0.000*46
$GPGGA,075253.10,3542.294149478,N,13943.288169597,E,5,07,2.04,24.421,M,36.996,M,1.1,3007*45
$PMSBATV,075253.10,2,2,2.23158,1.26976,176.10785,0.000,-0.000,0.000,-164.14622,0.000*43
$GPGGA,075253.20,3542.294149452,N,13943.288169590,E,5,07,2.04,24.421,M,36.996,M,1.2,3007*4A
$PMSBATV,075253.20,2,2,2.23475,1.27488,176.10566,0.000,0.000,0.000,-164.14622,0.000*65
$GPGGA,075253.30,3542.294149433,N,13943.288169584,E,5,07,2.04,24.421,M,36.996,M,1.3,3007*48
$PMSBATV,075253.30,2,2,2.23198,1.27552,176.10371,-0.000,0.000,0.000,-164.14622,0.000*49
$GPGGA,075253.40,3542.294149411,N,13943.288169579,E,5,07,2.04,24.421,M,36.996,M,1.4,3007*4A
$PMSBATV,075253.40,2,2,2.23424,1.28138,176.10285,0.000,-0.000,0.000,-164.14622,0.000*41
$GPGGA,075253.50,3542.294149391,N,13943.288169577,E,5,07,2.04,24.421,M,36.996,M,1.5,3007*4B
$PMSBATV,075253.50,2,2,2.23830,1.28617,176.10277,0.000,0.000,0.000,-164.14622,0.000*63
$GPGGA,075253.60,3542.294149368,N,13943.288169573,E,5,07,2.04,24.421,M,36.996,M,1.6,3007*49
$PMSBATV,075253.60,2,2,2.23144,1.28905,176.10506,0.000,0.000,0.000,-164.14622,0.000*67
$GPGGA,075253.70,3542.294149348,N,13943.288169568,E,5,07,2.04,24.421,M,36.996,M,1.7,3007*41
$PMSBATV,075253.70,2,2,2.23149,1.28113,176.10534,0.000,0.000,0.000,-164.14622,0.000*65
$GPGGA,075253.80,3542.294149331,N,13943.288169565,E,5,07,2.04,24.421,M,36.996,M,1.8,3007*42
$PMSBATV,075253.80,2,2,2.23360,1.27364,176.10454,0.000,0.000,0.000,-164.14622,0.000*69
$GPGGA,075253.90,3542.294149303,N,13943.288169559,E,5,07,2.04,24.421,M,36.996,M,1.9,3007*4C
$PMSBATV,075253.90,2,2,2.23252,1.27527,176.10563,0.000,0.000,0.000,-164.14622,0.000*6C
$GPGGA,075254.00,3542.294149281,N,13943.288169554,E,5,07,2.04,24.421,M,36.996,M,2.0,3007*4E
$PMSBATV,075254.00,2,2,2.23533,1.27215,176.10377,0.000,0.000,0.000,-164.14622,0.000*67
$GPGGA,075254.10,3542.294149258,N,13943.288169554,E,5,07,2.04,24.421,M,36.996,M,2.1,3007*4A
$PMSBATV,075254.10,2,2,2.23503,1.27129,176.09921,0.000,-0.000,0.000,-164.14622,0.000*45
$GPGGA,075254.20,3542.294149233,N,13943.288169550,E,5,07,2.04,24.421,M,36.996,M,2.2,3007*43
$PMSBATV,075254.20,2,2,2.23014,1.27348,176.09906,0.000,0.000,0.000,-164.14622,0.000*68
$GPGGA,075254.30,3542.294149213,N,13943.288169546,E,5,07,2.04,24.421,M,36.996,M,2.3,3007*46
$PMSBATV,075254.30,2,2,2.23244,1.27197,176.10441,0.000,0.000,0.000,-164.14622,0.000*68
$GPGGA,075254.40,3542.294149186,N,13943.288169539,E,5,07,2.04,24.421,M,36.996,M,2.4,3007*41
$PMSBATV,075254.40,2,2,2.23234,1.26997,176.10661,0.000,0.000,0.000,-164.14622,0.000*61
$GPGGA,075254.50,3542.294149163,N,13943.288169536,E,5,07,2.04,24.421,M,36.996,M,2.5,3007*45
$PMSBATV,075254.50,2,2,2.22889,1.26914,176.10468,0.000,0.000,0.000,-164.14622,0.000*6D
$GPGGA,075254.60,3542.294149132,N,13943.288169533,E,5,07,2.04,24.421,M,36.996,M,2.6,3007*44
$PMSBATV,075254.60,2,2,2.22956,1.27203,176.10168,0.000,-0.000,0.000,-164.14622,0.000*49
$GPGGA,075254.70,3542.294149101,N,13943.288169533,E,5,07,2.04,24.421,M,36.996,M,2.7,3007*44
$PMSBATV,075254.70,2,2,2.23062,1.27538,176.10035,0.000,-0.000,0.000,-164.14622,0.000*41
$GPGGA,075254.80,3542.294149078,N,13943.288169531,E,5,07,2.04,24.421,M,36.996,M,2.8,3007*49
$PMSBATV,075254.80,2,2,2.22514,1.28002,176.10163,0.000,0.000,0.000,-164.14622,0.000*67
$GPGGA,075254.90,3542.294149055,N,13943.288169534,E,5,07,2.04,24.421,M,36.996,M,2.9,3007*43
$PMSBATV,075254.90,2,2,2.22728,1.28576,176.10191,0.000,-0.000,0.000,-164.14622,0.000*4D
$GPGGA,075255.00,3542.294149037,N,13943.288169534,E,5,07,2.04,24.421,M,36.996,M,3.0,3007*47
$PMSBATV,075255.00,2,2,2.23319,1.28123,176.10631,-0.000,0.000,0.000,-164.14622,0.000*4B
$GPGGA,075255.10,3542.294149014,N,13943.288169527,E,5,07,2.04,24.421,M,36.996,M,3.1,3007*44
$PMSBATV,075255.10,2,2,2.22861,1.27649,176.10542,0.000,-0.000,0.000,-164.14622,0.000*4C
$GPGGA,075255.20,3542.294148987,N,13943.288169530,E,5,07,2.04,24.421,M,36.996,M,3.2,3007*40
$PMSBATV,075255.20,2,2,2.23410,1.27546,176.10238,0.000,0.000,0.000,-164.14622,0.000*6F
$GPGGA,075255.30,3542.294148965,N,13943.288169526,E,5,07,2.04,24.421,M,36.996,M,3.3,3007*4B
$PMSBATV,075255.30,2,2,2.22996,1.27634,176.09795,-0.000,0.000,0.000,-164.14622,0.000*4D
$GPGGA,075255.40,3542.294148934,N,13943.288169527,E,5,07,2.04,24.421,M,36.996,M,3.4,3007*4E
$PMSBATV,075255.40,2,2,2.22753,1.27744,176.09906,0.000,0.000,0.000,-164.14622,0.000*62
$GPGGA,075255.50,3542.294148909,N,13943.288169520,E,5,07,2.04,24.421,M,36.996,M,3.5,3007*47
$PMSBATV,075255.50,2,2,2.22171,1.28189,176.09949,0.000,0.000,0.000,-164.14622,0.000*66
$GPGGA,075255.60,3542.294148890,N,13943.288169524,E,5,07,2.04,24.421,M,36.996,M,3.6,3007*42
$PMSBATV,075255.60,2,2,2.22652,1.28014,176.10023,-0.000,-0.000,0.000,-164.14622,0.000*6B
$GPGGA,075255.70,3542.294148868,N,13943.288169528,E,5,07,2.04,24.421,M,36.996,M,3.7,3007*49
$PMSBATV,075255.70,2,2,2.23253,1.28057,176.09657,-0.000,-0.000,0.000,-164.14622,0.000*64
$GPGGA,075255.80,3542.294148842,N,13943.288169533,E,5,07,2.04,24.421,M,36.996,M,3.8,3007*4B
$PMSBATV,075255.80,2,2,2.23532,1.28201,176.10082,0.000,-0.000,0.000,-164.14622,0.000*41
$GPGGA,075255.90,3542.294148817,N,13943.288169530,E,5,07,2.04,24.421,M,36.996,M,3.9,3007*48
$PMSBATV,075255.90,2,2,2.23445,1.28342,176.10292,0.000,0.000,0.000,-164.14622,0.000*69
$GPGGA,075256.00,3542.294148796,N,13943.288169538,E,5,07,2.04,24.421,M,36.996,M,4.0,3007*42
$PMSBATV,075256.00,2,2,2.23902,1.27887,176.10264,0.000,-0.000,0.000,-164.14622,0.000*44
$GPGGA,075256.10,3542.294148766,N,13943.288169535,E,5,07,2.04,24.421,M,36.996,M,4.1,3007*40
$PMSBATV,075256.10,2,2,2.24051,1.27876,176.10772,0.000,0.000,0.000,-164.14622,0.000*6C
$GPGGA,075256.20,3542.294148739,N,13943.288169528,E,5,07,2.04,24.421,M,36.996,M,4.2,3007*46
$PMSBATV,075256.20,2,2,2.23662,1.27630,176.10592,0.000,0.000,0.000,-164.14622,0.000*6E
$GPGGA,075256.30,3542.294148712,N,13943.288169527,E,5,07,2.04,24.421,M,36.996,M,4.3,3007*40
$PMSBATV,075256.30,2,2,2.23688,1.27374,176.10204,0.000,0.000,0.000,-164.14622,0.000*66
$GPGGA,075256.40,3542.294148685,N,13943.288169526,E,5,07,2.04,24.421,M,36.996,M,4.4,3007*4E
$PMSBATV,075256.40,2,2,2.24178,1.27431,176.10506,0.000,0.000,0.000,-164.14622,0.000*6D
$GPGGA,075256.50,3542.294148656,N,13943.288169526,E,5,07,2.04,24.421,M,36.996,M,4.5,3007*40
$PMSBATV,075256.50,2,2,2.24545,1.27440,176.10416,0.000,-0.000,0.000,-164.14622,0.000*4D
$GPGGA,075256.60,3542.294148628,N,13943.288169528,E,5,07,2.04,24.421,M,36.996,M,4.6,3007*47
$PMSBATV,075256.60,2,2,2.24574,1.27694,176.10361,-0.000,-0.000,0.000,-164.14622,0.000*6D
$GPGGA,075256.70,3542.294148607,N,13943.288169531,E,5,07,2.04,24.421,M,36.996,M,4.7,3007*42
$PMSBATV,075256.70,2,2,2.25068,1.26977,176.10139,-0.000,-0.000,0.000,-164.14622,0.000*69
$GPGGA,075256.80,3542.294148583,N,13943.288169533,E,5,07,2.04,24.421,M,36.996,M,4.8,3007*4F
$PMSBATV,075256.80,2,2,2.24829,1.26670,176.10266,0.000,-0.000,0.000,-164.14622,0.000*46
$GPGGA,075256.90,3542.294148556,N,13943.288169526,E,5,07,2.04,24.421,M,36.996,M,4.9,3007*43
$PMSBATV,075256.90,2,2,2.24061,1.26598,176.10169,0.000,0.000,0.000,-164.14622,0.000*67
$GPGGA,075257.00,3542.294148527,N,13943.288169525,E,5,07,2.04,24.421,M,36.996,M,5.0,3007*46
$PMSBATV,075257.00,2,2,2.24150,1.26559,176.10113,0.000,-0.000,0.000,-164.14622,0.000*41
$GPGGA,075257.10,3542.294148500,N,13943.288169528,E,5,07,2.04,24.421,M,36.996,M,5.1,3007*4E
$PMSBATV,075257.10,2,2,2.24856,1.26691,176.10121,0.000,-0.000,0.000,-164.14622,0.000*49
$GPGGA,075257.20,3542.294148473,N,13943.288169527,E,5,07,2.04,24.421,M,36.996,M,5.2,3007*44
$PMSBATV,075257.20,2,2,2.24929,1.27546,176.10641,0.000,0.000,0.000,-164.14622,0.000*67
$GPGGA,075257.30,3542.294148446,N,13943.288169525,E,5,07,2.04,24.421,M,36.996,M,5.3,3007*40
$PMSBATV,075257.30,2,2,2.24904,1.27788,176.10961,0.000,0.000,0.000,-164.14622,0.000*64
$GPGGA,075257.40,3542.294148418,N,13943.288169524,E,5,07,2.04,24.421,M,36.996,M,5.4,3007*4A
$PMSBATV,075257.40,2,2,2.25078,1.28184,176.10723,0.000,0.000,0.000,-164.14622,0.000*6D
$GPGGA,075257.50,3542.294148394,N,13943.288169527,E,5,07,2.04,24.421,M,36.996,M,5.5,3007*4A
$PMSBATV,075257.50,2,2,2.25710,1.28288,176.10459,-0.000,-0.000,0.000,-164.14622,0.000*64
$GPGGA,075257.60,3542.294148367,N,13943.288169517,E,5,07,2.04,24.421,M,36.996,M,5.6,3007*45
$PMSBATV,075257.60,2,2,2.25246,1.28356,176.10367,0.000,0.000,0.000,-164.14622,0.000*69
$GPGGA,075257.70,3542.294148341,N,13943.288169513,E,5,07,2.04,24.421,M,36.996,M,5.7,3007*45
$PMSBATV,075257.70,2,2,2.24861,1.28414,176.10732,0.000,0.000,0.000,-164.14622,0.000*63
$GPGGA,075257.80,3542.294148313,N,13943.288169509,E,5,07,2.04,24.421,M,36.996,M,5.8,3007*49
$PMSBATV,075257.80,2,2,2.24936,1.28615,176.10888,0.000,-0.000,0.000,-164.14622,0.000*4F
$GPGGA,075257.90,3542.294148285,N,13943.288169510,E,5,07,2.04,24.421,M,36.996,M,5.9,3007*4F
$PMSBATV,075257.90,2,2,2.25355,1.28557,176.11104,0.000,0.000,0.000,-164.14622,0.000*64
$GPGGA,075258.00,3542.294148260,N,13943.288169508,E,5,07,2.04,24.421,M,36.996,M,6.0,3007*41
$PMSBATV,075258.00,2,2,2.25678,1.28468,176.11554,0.000,0.000,0.000,-164.14622,0.000*64
$GPGGA,075258.10,3542.294148237,N,13943.288169502,E,5,07,2.04,24.421,M,36.996,M,1.1,3007*4E
$PMSBATV,075258.10,2,2,2.25035,1.27995,176.11615,0.000,-0.000,0.000,-164.14622,0.000*41
$GPGGA,075258.20,3542.294148214,N,13943.288169498,E,5,07,2.04,24.421,M,36.996,M,1.2,3007*4D
$PMSBATV,075258.20,2,2,2.24261,1.27910,176.11040,0.000,0.000,0.000,-164.14622,0.000*66
$GPGGA,075258.30,3542.294148190,N,13943.288169502,E,5,07,2.04,24.421,M,36.996,M,1.3,3007*40
$PMSBATV,075258.30,2,2,2.24223,1.28045,176.10932,0.000,-0.000,0.000,-164.14622,0.000*47
$GPGGA,075258.40,3542.294148164,N,13943.288169495,E,5,07,2.04,24.421,M,36.996,M,1.4,3007*44
$PMSBATV,075258.40,2,2,2.24120,1.27636,176.11088,-0.000,0.000,0.000,-164.14622,0.000*44
$GPGGA,075258.50,3542.294148138,N,13943.288169497,E,5,07,2.04,24.421,M,36.996,M,1.5,3007*4F
$PMSBATV,075258.50,2,2,2.23754,1.27695,176.11261,0.000,-0.000,0.000,-164.14622,0.000*4B
$GPGGA,075258.60,3542.294148110,N,13943.288169497,E,5,07,2.04,24.421,M,36.996,M,1.6,3007*45
$PMSBATV,075258.60,2,2,2.23669,1.27681,176.11307,0.000,0.000,0.000,-164.14622,0.000*6E
$GPGGA,075258.70,3542.294148081,N,13943.288169494,E,5,07,2.04,24.421,M,36.996,M,1.7,3007*4F
$PMSBATV,075258.70,2,2,2.23755,1.28019,176.11523,0.000,-0.000,0.000,-164.14622,0.000*44
$GPGGA,075258.80,3542.294148051,N,13943.288169486,E,5,07,2.04,24.421,M,36.996,M,1.8,3007*41
$PMSBATV,075258.80,2,2,2.23228,1.27669,176.11471,0.000,0.000,0.000,-164.14622,0.000*61
$GPGGA,075258.90,3542.294148022,N,13943.288169487,E,5,07,2.04,24.421,M,36.996,M,1.9,3007*44
$PMSBATV,075258.90,2,2,2.23339,1.27795,176.11715,0.000,0.000,0.000,-164.14622,0.000*62
$GPGGA,075259.00,3542.294147996,N,13943.288169481,E,5,07,2.04,24.421,M,36.996,M,2.0,3007*49
$PMSBATV,075259.00,2,2,2.23021,1.27955,176.11340,0.000,0.000,0.000,-164.14622,0.000*66
$GPGGA,075259.10,3542.294147974,N,13943.288169481,E,5,07,2.04,24.421,M,36.996,M,2.1,3007*45
$PMSBATV,075259.10,2,2,2.23146,1.28217,176.10694,0.000,-0.000,0.000,-164.14622,0.000*45
$GPGGA,075259.20,3542.294147952,N,13943.288169478,E,5,07,2.04,24.421,M,36.996,M,2.2,3007*47
$PMSBATV,075259.20,2,2,2.23082,1.28404,176.10689,0.000,0.000,0.000,-164.14622,0.000*6A
$GPGGA,075259.30,3542.294147928,N,13943.288169473,E,5,07,2.04,24.421,M,36.996,M,2.3,3007*41
$PMSBATV,075259.30,2,2,2.23225,1.28162,176.10816,0.000,0.000,0.000,-164.14622,0.000*69
$GPGGA,075259.40,3542.294147907,N,13943.288169473,E,5,07,2.04,24.421,M,36.996,M,2.4,3007*4C
$PMSBATV,075259.40,2,2,2.23299,1.28094,176.10557,0.000,-0.000,0.000,-164.14622,0.000*44
$GPGGA,075259.50,3542.294147887,N,13943.288169469,E,5,07,2.04,24.421,M,36.996,M,2.5,3007*4E
$PMSBATV,075259.50,2,2,2.23123,1.28373,176.10446,-0.000,-0.000,0.000,-164.14622,0.000*61
$GPGGA,075259.60,3542.294147864,N,13943.288169469,E,5,07,2.04,24.421,M,36.996,M,2.6,3007*43
$PMSBATV,075259.60,2,2,2.23509,1.28697,176.10653,0.000,-0.000,0.000,-164.14622,0.000*4A
$GPGGA,075259.70,3542.294147847,N,13943.288169463,E,5,07,2.04,24.420,M,36.996,M,2.7,3007*49
$PMSBATV,075259.70,2,2,2.22826,1.28346,176.10888,-0.000,0.000,0.000,-164.14622,0.000*4B
$GPGGA,075259.80,3542.294147827,N,13943.288169460,E,5,07,2.04,24.420,M,36.996,M,2.8,3007*4C
$PMSBATV,075259.80,2,2,2.22523,1.27805,176.10897,0.000,0.000,0.000,-164.14622,0.000*6C
$GPGGA,075259.90,3542.294147805,N,13943.288169456,E,5,07,2.04,24.420,M,36.996,M,2.9,3007*49
$PMSBATV,075259.90,2,2,2.21834,1.27949,176.10646,0.000,0.000,0.000,-164.14622,0.000*6E
$GPGGA,075300.00,3542.294147780,N,13943.288169453,E,5,07,2.04,24.420,M,36.996,M,3.0,3007*42
$PMSBATV,075300.00,2,2,2.21975,1.28296,176.10464,0.000,0.000,0.000,-164.14622,0.000*6A
$GPGGA,075300.10,3542.294147759,N,13943.288169443,E,5,07,2.04,24.420,M,36.996,M,3.1,3007*47
$PMSBATV,075300.10,2,2,2.21395,1.28488,176.10646,0.000,0.000,0.000,-164.14622,0.000*64
$GPGGA,075300.20,3542.294147739,N,13943.288169442,E,5,07,2.05,24.420,M,36.996,M,3.2,3007*41
$PMSBATV,075300.20,2,2,2.21587,1.28827,176.10872,-0.000,-0.000,0.000,-164.14622,0.000*62
$GPGGA,075300.30,3542.294147721,N,13943.288169438,E,5,07,2.05,24.420,M,36.996,M,3.3,3007*45
$PMSBATV,075300.30,2,2,2.21031,1.28813,176.11167,0.000,0.000,0.000,-164.14622,0.000*60
$GPGGA,075300.40,3542.294147698,N,13943.288169435,E,5,07,2.05,24.420,M,36.996,M,3.4,3007*4B
$PMSBATV,075300.40,2,2,2.21177,1.28768,176.11427,0.000,0.000,0.000,-164.14622,0.000*66
$GPGGA,075300.50,3542.294147678,N,13943.288169429,E,5,07,2.05,24.420,M,36.996,M,3.5,3007*48
$PMSBATV,075300.50,2,2,2.21150,1.28857,176.12022,0.000,0.000,0.000,-164.14622,0.000*63
$GPGGA,075300.60,3542.294147655,N,13943.288169425,E,5,07,2.05,24.420,M,36.996,M,3.6,3007*4B
$PMSBATV,075300.60,2,2,2.21036,1.29125,176.12154,0.000,0.000,0.000,-164.14622,0.000*6C
$GPGGA,075300.70,3542.294147638,N,13943.288169427,E,5,07,2.05,24.420,M,36.996,M,3.7,3007*42
$PMSBATV,075300.70,2,2,2.21651,1.29256,176.12366,0.000,-0.000,0.000,-164.14622,0.000*43
$GPGGA,075300.80,3542.294147620,N,13943.288169423,E,5,07,2.05,24.420,M,36.996,M,3.8,3007*4F
$PMSBATV,075300.80,2,2,2.21147,1.29155,176.12217,0.000,-0.000,0.000,-164.14622,0.000*4B
$GPGGA,075300.90,3542.294147599,N,13943.288169421,E,5,07,2.05,24.420,M,36.996,M,3.9,3007*4C
$PMSBATV,075300.90,2,2,2.21278,1.29264,176.11950,0.000,0.000,0.000,-164.14622,0.000*62
$GPGGA,075301.00,3542.294147578,N,13943.288169417,E,5,07,2.05,24.420,M,36.996,M,4.0,3007*40
$PMSBATV,075301.00,2,2,2.21467,1.29581,176.11817,-0.000,0.000,0.000,-164.14622,0.000*41
$GPGGA,075301.10,3542.294147560,N,13943.288169411,E,5,07,2.05,24.420,M,36.996,M,4.1,3007*4F
$PMSBATV,075301.10,2,2,2.21298,1.29710,176.12079,-0.000,-0.000,0.000,-164.14622,0.000*62
$GPGGA,075301.20,3542.294147542,N,13943.288169415,E,5,07,2.05,24.420,M,36.996,M,4.2,3007*4B
$PMSBATV,075301.20,2,2,2.22215,1.30018,176.12023,-0.000,-0.000,0.000,-164.14622,0.000*6F
$GPGGA,075301.30,3542.294147520,N,13943.288169416,E,5,07,2.05,24.420,M,36.996,M,4.3,3007*4C
$PMSBATV,075301.30,2,2,2.22293,1.29618,176.12293,0.000,-0.000,0.000,-164.14622,0.000*4A
$GPGGA,075301.40,3542.294147501,N,13943.288169414,E,5,07,2.05,24.420,M,36.996,M,4.4,3007*4D
$PMSBATV,075301.40,2,2,2.22373,1.29684,176.11756,-0.000,-0.000,0.000,-164.14622,0.000*65
$GPGGA,075301.50,3542.294147482,N,13943.288169411,E,5,07,2.05,24.420,M,36.996,M,4.5,3007*42
$PMSBATV,075301.50,2,2,2.22744,1.29346,176.11741,0.000,0.000,0.000,-164.14622,0.000*69
$GPGGA,075301.60,3542.294147461,N,13943.288169404,E,5,07,2.05,24.420,M,36.996,M,4.6,3007*4B
$PMSBATV,075301.60,2,2,2.22441,1.29084,176.11627,-0.000,0.000,0.000,-164.14622,0.000*4D
$GPGGA,075301.70,3542.294147440,N,13943.288169402,E,5,07,2.05,24.420,M,36.996,M,4.7,3007*4E
$PMSBATV,075301.70,2,2,2.22235,1.28162,176.11654,-0.000,-0.000,0.000,-164.14622,0.000*68
$GPGGA,075301.80,3542.294147414,N,13943.288169395,E,5,07,2.05,24.420,M,36.996,M,4.8,3007*46
$PMSBATV,075301.80,2,2,2.22037,1.28697,176.11804,0.000,0.000,0.000,-164.14622,0.000*61
$GPGGA,075301.90,3542.294147388,N,13943.288169388,E,5,07,2.05,24.420,M,36.996,M,4.9,3007*48
$PMSBATV,075301.90,2,2,2.21557,1.28635,176.11968,0.000,-0.000,0.000,-164.14622,0.000*4E
$GPGGA,075302.00,3542.294147367,N,13943.288169383,E,5,07,2.05,24.420,M,36.996,M,5.0,3007*40
$PMSBATV,075302.00,2,2,2.21839,1.28888,176.12255,0.000,0.000,0.000,-164.14622,0.000*62
$GPGGA,075302.10,3542.294147346,N,13943.288169387,E,5,07,2.05,24.420,M,36.996,M,5.1,3007*47
$PMSBATV,075302.10,2,2,2.22324,1.28847,176.11960,0.000,0.000,0.000,-164.14622,0.000*6A
$GPGGA,075302.20,3542.294147322,N,13943.288169385,E,5,07,2.05,24.420,M,36.996,M,5.2,3007*47
$PMSBATV,075302.20,2,2,2.22427,1.28293,176.11560,-0.000,-0.000,0.000,-164.14622,0.000*62
$GPGGA,075302.30,3542.294147297,N,13943.288169380,E,5,07,2.05,24.420,M,36.996,M,5.3,3007*4D
$PMSBATV,075302.30,2,2,2.22466,1.27702,176.11609,0.000,0.000,0.000,-164.14622,0.000*68
$GPGGA,075302.40,3542.294147273,N,13943.288169376,E,5,07,2.05,24.420,M,36.996,M,5.4,3007*4E
$PMSBATV,075302.40,2,2,2.22555,1.27811,176.11951,0.000,0.000,0.000,-164.14622,0.000*61
$GPGGA,075302.50,3542.294147247,N,13943.288169369,E,5,07,2.05,24.420,M,36.996,M,5.5,3007*47
$PMSBATV,075302.50,2,2,2.22174,1.28016,176.11833,0.000,-0.000,0.000,-164.14622,0.000*4F
$GPGGA,075302.60,3542.294147226,N,13943.288169364,E,5,07,2.05,24.420,M,36.996,M,5.6,3007*4D
$PMSBATV,075302.60,2,2,2.22504,1.28269,176.12028,-0.000,0.000,0.000,-164.14622,0.000*44
$GPGGA,075302.70,3542.294147197,N,13943.288169359,E,5,07,2.05,24.420,M,36.996,M,5.7,3007*4A
$PMSBATV,075302.70,2,2,2.22491,1.28756,176.12400,0.000,0.000,0.000,-164.14622,0.000*62
$GPGGA,075302.80,3542.294147173,N,13943.288169349,E,5,07,2.05,24.420,M,36.996,M,5.8,3007*41
$PMSBATV,075302.80,2,2,2.22087,1.28768,176.11984,0.000,-0.000,0.000,-164.14622,0.000*4C
$GPGGA,075302.90,3542.294147147,N,13943.288169353,E,5,07,2.05,24.420,M,36.996,M,5.9,3007*4D
$PMSBATV,075302.90,2,2,2.22238,1.29245,176.11861,0.000,-0.000,0.000,-164.14622,0.000*4A
$GPGGA,075303.00,3542.294147123,N,13943.288169344,E,5,07,2.05,24.420,M,36.996,M,6.0,3007*4B
$PMSBATV,075303.00,2,2,2.22034,1.29693,176.12213,0.000,0.000,0.000,-164.14622,0.000*62
$GPGGA,075303.10,3542.294147104,N,13943.288169345,E,5,07,2.05,24.420,M,36.996,M,1.1,3007*48
$PMSBATV,075303.10,2,2,2.22544,1.29677,176.12196,-0.000,-0.000,0.000,-164.14622,0.000*65
$GPGGA,075303.20,3542.294147091,N,13943.288169342,E,5,07,2.05,24.420,M,36.996,M,1.2,3007*42
$PMSBATV,075303.20,2,2,2.23220,1.29776,176.12409,-0.000,0.000,0.000,-164.14622,0.000*4C
$GPGGA,075303.30,3542.294147074,N,13943.288169334,E,5,07,2.05,24.420,M,36.996,M,1.3,3007*48
$PMSBATV,075303.30,2,2,2.22597,1.29758,176.12714,0.000,0.000,0.000,-164.14622,0.000*69
$GPGGA,075303.40,3542.294147054,N,13943.288169328,E,5,07,2.05,24.420,M,36.996,M,1.4,3007*47
$PMSBATV,075303.40,2,2,2.22257,1.29505,176.12471,-0.000,0.000,0.000,-164.14622,0.000*42
$GPGGA,075303.50,3542.294147028,N,13943.288169324,E,5,07,2.05,24.420,M,36.996,M,1.5,3007*40
$PMSBATV,075303.50,2,2,2.22502,1.29906,176.12748,0.000,-0.000,0.000,-164.14622,0.000*42
$GPGGA,075303.60,3542.294147003,N,13943.288169321,E,5,07,2.05,24.420,M,36.996,M,1.6,3007*4C
$PMSBATV,075303.60,2,2,2.22723,1.29905,176.12211,0.000,-0.000,0.000,-164.14622,0.000*4A
$GPGGA,075303.70,3542.294146980,N,13943.288169321,E,5,07,2.05,24.420,M,36.996,M,1.7,3007*4F
$PMSBATV,075303.70,2,2,2.23171,1.30189,176.12032,0.000,-0.000,0.000,-164.14622,0.000*4C
$GPGGA,075303.80,3542.294146961,N,13943.288169314,E,5,07,2.05,24.420,M,36.996,M,1.8,3007*46
$PMSBATV,075303.80,2,2,2.23096,1.30456,176.11944,-0.000,0.000,0.000,-164.14622,0.000*47
$GPGGA,075303.90,3542.294146939,N,13943.288169305,E,5,07,2.05,24.420,M,36.996,M,1.9,3007*4B
$PMSBATV,075303.90,2,2,2.22501,1.30102,176.11560,0.000,0.000,0.000,-164.14622,0.000*6F
$GPGGA,075304.00,3542.294146918,N,13943.288169297,E,5,07,2.05,24.420,M,36.996,M,2.0,3007*46
$PMSBATV,075304.00,2,2,2.22084,1.30538,176.11100,-0.000,0.000,0.000,-164.14622,0.000*4B
$GPGGA,075304.10,3542.294146893,N,13943.288169293,E,5,07,2.05,24.420,M,36.996,M,2.1,3007*40
$PMSBATV,075304.10,2,2,2.21829,1.31162,176.11389,0.000,-0.000,0.000,-164.14622,0.000*4F
$GPGGA,075304.20,3542.294146871,N,13943.288169294,E,5,07,2.05,24.420,M,36.996,M,2.2,3007*4B
$PMSBATV,075304.20,2,2,2.21872,1.31133,176.11359,0.000,-0.000,0.000,-164.14622,0.000*4B
$GPGGA,075304.30,3542.294146858,N,13943.288169290,E,5,07,2.05,24.420,M,36.996,M,2.3,3007*44
$PMSBATV,075304.30,2,2,2.21724,1.30964,176.11728,-0.000,0.000,0.000,-164.14622,0.000*4F
$GPGGA,075304.40,3542.294146838,N,13943.288169287,E,5,07,2.05,24.420,M,36.996,M,2.4,3007*44
$PMSBATV,075304.40,2,2,2.22296,1.30828,176.11563,-0.000,-0.000,0.000,-164.14622,0.000*6E
$GPGGA,075304.50,3542.294146816,N,13943.288169282,E,5,07,2.05,24.420,M,36.996,M,2.5,3007*4D
$PMSBATV,075304.50,2,2,2.22315,1.30663,176.12011,0.000,-0.000,0.000,-164.14622,0.000*4A
$GPGGA,075304.60,3542.294146800,N,13943.288169286,E,5,07,2.05,24.420,M,36.996,M,2.6,3007*4E
$PMSBATV,075304.60,2,2,2.22586,1.30406,176.12039,0.000,-0.000,0.000,-164.14622,0.000*4E
$GPGGA,075304.70,3542.294146786,N,13943.288169283,E,5,07,2.05,24.420,M,36.996,M,2.7,3007*4A
$PMSBATV,075304.70,2,2,2.22678,1.29798,176.11965,-0.000,-0.000,0.000,-164.14622,0.000*6F
$GPGGA,075304.80,3542.294146762,N,13943.288169275,E,5,07,2.05,24.420,M,36.996,M,2.8,3007*49
$PMSBATV,075304.80,2,2,2.22215,1.29274,176.12024,0.000,-0.000,0.000,-164.14622,0.000*4A
$GPGGA,075304.90,3542.294146740,N,13943.288169272,E,5,07,2.05,24.420,M,36.996,M,2.9,3007*4E
$PMSBATV,075304.90,2,2,2.22719,1.28994,176.11967,0.000,-0.000,0.000,-164.14622,0.000*4B
$GPGGA,075305.00,3542.294146713,N,13943.288169267,E,5,07,2.05,24.420,M,36.996,M,3.0,3007*4C
$PMSBATV,075305.00,2,2,2.23002,1.29441,176.11519,0.000,0.000,0.000,-164.14622,0.000*63
$GPGGA,075305.10,3542.294146691,N,13943.288169262,E,5,07,2.05,24.420,M,36.996,M,3.1,3007*42
$PMSBATV,075305.10,2,2,2.22794,1.29289,176.11416,-0.000,0.000,0.000,-164.14622,0.000*4A
$GPGGA,075305.20,3542.294146675,N,13943.288169261,E,5,07,2.05,24.420,M,36.996,M,3.2,3007*4B
$PMSBATV,075305.20,2,2,2.22933,1.29106,176.11197,-0.000,-0.000,0.000,-164.14622,0.000*6F
$GPGGA,075305.30,3542.294146651,N,13943.288169252,E,5,07,2.05,24.419,M,36.996,M,3.3,3007*47
$PMSBATV,075305.30,2,2,2.22651,1.28594,176.10997,0.000,0.000,0.000,-164.14622,0.000*62
$GPGGA,075305.40,3542.294146626,N,13943.288169247,E,5,07,2.05,24.419,M,36.996,M,3.4,3007*43
$PMSBATV,075305.40,2,2,2.22703,1.29024,176.10968,0.000,0.000,0.000,-164.14622,0.000*6C
$GPGGA,075305.50,3542.294146604,N,13943.288169245,E,5,07,2.05,24.419,M,36.996,M,3.5,3007*41
$PMSBATV,075305.50,2,2,2.22607,1.28887,176.11248,0.000,-0.000,0.000,-164.14622,0.000*4D
$GPGGA,075305.60,3542.294146579,N,13943.288169243,E,5,07,2.05,24.419,M,36.996,M,3.6,3007*4E
$PMSBATV,075305.60,2,2,2.22280,1.29148,176.11067,0.000,-0.000,0.000,-164.14622,0.000*41
$GPGGA,075305.70,3542.294146553,N,13943.288169238,E,5,07,2.05,24.419,M,36.996,M,3.7,3007*4A
$PMSBATV,075305.70,2,2,2.22082,1.29804,176.10876,0.000,0.000,0.000,-164.14622,0.000*65
$GPGGA,075305.80,3542.294146527,N,13943.288169228,E,5,07,2.05,24.419,M,36.996,M,3.8,3007*48
$PMSBATV,075305.80,2,2,2.21666,1.30361,176.10810,0.000,0.000,0.000,-164.14622,0.000*65
$GPGGA,075305.90,3542.294146508,N,13943.288169222,E,5,07,2.05,24.419,M,36.996,M,3.9,3007*4F
$PMSBATV,075305.90,2,2,2.21208,1.30131,176.10563,0.000,-0.000,0.000,-164.14622,0.000*4B
$GPGGA,075306.00,3542.294146487,N,13943.288169218,E,5,07,2.05,24.419,M,36.996,M,4.0,3007*44
$PMSBATV,075306.00,2,2,2.21123,1.30458,176.10268,-0.000,-0.000,0.000,-164.14622,0.000*60
$GPGGA,075306.10,3542.294146463,N,13943.288169212,E,5,07,2.05,24.419,M,36.996,M,4.1,3007*44
$PMSBATV,075306.10,2,2,2.21677,1.31063,176.09882,0.000,0.000,0.000,-164.14622,0.000*6C
$GPGGA,075306.20,3542.294146438,N,13943.288169206,E,5,07,2.05,24.419,M,36.996,M,4.2,3007*4F
$PMSBATV,075306.20,2,2,2.22068,1.31300,176.10364,0.000,0.000,0.000,-164.14622,0.000*69
$GPGGA,075306.30,3542.294146425,N,13943.288169198,E,5,07,2.05,24.419,M,36.996,M,4.3,3007*47
$PMSBATV,075306.30,2,2,2.22057,1.30546,176.10148,-0.000,-0.000,0.000,-164.14622,0.000*6D
$GPGGA,075306.40,3542.294146404,N,13943.288169195,E,5,07,2.05,24.419,M,36.996,M,4.4,3007*49
$PMSBATV,075306.40,2,2,2.22237,1.30072,176.10350,-0.000,-0.000,0.000,-164.14622,0.000*67
$GPGGA,075306.50,3542.294146375,N,13943.288169194,E,5,07,2.05,24.419,M,36.996,M,4.5,3007*49
$PMSBATV,075306.50,2,2,2.22388,1.30603,176.10107,0.000,-0.000,0.000,-164.14622,0.000*4E
$GPGGA,075306.60,3542.294146355,N,13943.288169186,E,5,07,2.05,24.419,M,36.996,M,4.6,3007*48
$PMSBATV,075306.60,2,2,2.22420,1.30265,176.10027,0.000,-0.000,0.000,-164.14622,0.000*4F
$GPGGA,075306.70,3542.294146337,N,13943.288169176,E,5,07,2.05,24.419,M,36.996,M,4.7,3007*43
$PMSBATV,075306.70,2,2,2.22362,1.30133,176.10479,-0.000,0.000,0.000,-164.14622,0.000*40
$GPGGA,075306.80,3542.294146311,N,13943.288169175,E,5,07,2.05,24.419,M,36.996,M,4.8,3007*44
$PMSBATV,075306.80,2,2,2.22018,1.30500,176.10450,0.000,-0.000,0.000,-164.14622,0.000*4E
$GPGGA,075306.90,3542.294146295,N,13943.288169167,E,5,07,2.05,24.419,M,36.996,M,4.9,3007*4A
$PMSBATV,075306.90,2,2,2.21872,1.30098,176.10124,0.000,-0.000,0.000,-164.14622,0.000*4A
$GPGGA,075307.00,3542.294146268,N,13943.288169166,E,5,07,2.05,24.419,M,36.996,M,5.0,3007*49
$PMSBATV,075307.00,2,2,2.22178,1.30419,176.10020,0.000,0.000,0.000,-164.14622,0.000*67
$GPGGA,075307.10,3542.294146248,N,13943.288169160,E,5,07,2.05,24.419,M,36.996,M,5.1,3007*4D
$PMSBATV,075307.10,2,2,2.21684,1.30549,176.10306,0.000,0.000,0.000,-164.14622,0.000*62
$GPGGA,075307.20,3542.294146227,N,13943.288169151,E,5,07,2.05,24.419,M,36.996,M,5.2,3007*46
$PMSBATV,075307.20,2,2,2.21237,1.30081,176.10536,0.000,0.000,0.000,-164.14622,0.000*69
$GPGGA,075307.30,3542.294146202,N,13943.288169144,E,5,07,2.05,24.419,M,36.996,M,5.3,3007*45
$PMSBATV,075307.30,2,2,2.21047,1.30362,176.10793,0.000,-0.000,0.000,-164.14622,0.000*43
$GPGGA,075307.40,3542.294146182,N,13943.288169135,E,5,07,2.05,24.419,M,36.996,M,5.4,3007*48
$PMSBATV,075307.40,2,2,2.20682,1.30198,176.10776,0.000,0.000,0.000,-164.14622,0.000*6B
$GPGGA,075307.50,3542.294146161,N,13943.288169130,E,5,07,2.05,24.419,M,36.996,M,5.5,3007*40
$PMSBATV,075307.50,2,2,2.20258,1.30003,176.10115,0.000,-0.000,0.000,-164.14622,0.000*44
$GPGGA,075307.60,3542.294146141,N,13943.288169126,E,5,07,2.05,24.419,M,36.996,M,5.6,3007*45
$PMSBATV,075307.60,2,2,2.20280,1.29839,176.10284,0.000,-0.000,0.000,-164.14622,0.000*40
$GPGGA,075307.70,3542.294146118,N,13943.288169119,E,5,07,2.05,24.419,M,36.996,M,5.7,3007*45
$PMSBATV,075307.70,2,2,2.20337,1.29652,176.09946,-0.000,0.000,0.000,-164.14622,0.000*42
$GPGGA,075307.80,3542.294146095,N,13943.288169114,E,5,07,2.05,24.419,M,36.996,M,5.8,3007*4C
$PMSBATV,075307.80,2,2,2.20467,1.29845,176.10089,0.000,-0.000,0.000,-164.14622,0.000*45
$GPGGA,075307.90,3542.294146076,N,13943.288169107,E,5,07,2.05,24.419,M,36.996,M,5.9,3007*43
$PMSBATV,075307.90,2,2,2.20527,1.29717,176.10195,0.000,-0.000,0.000,-164.14622,0.000*45
$GPGGA,075308.00,3542.294146060,N,13943.288169097,E,5,07,2.05,24.419,M,36.996,M,6.0,3007*40
$PMSBATV,075308.00,2,2,2.20536,1.29196,176.09844,-0.000,-0.000,0.000,-164.14622,0.000*6C
$GPGGA,075308.10,3542.294146032,N,13943.288169094,E,5,07,2.05,24.419,M,36.996,M,1.1,3007*43
$PMSBATV,075308.10,2,2,2.20665,1.28943,176.09574,0.000,-0.000,0.000,-164.14622,0.000*4A
$GPGGA,075308.20,3542.294146010,N,13943.288169091,E,5,07,2.05,24.419,M,36.996,M,1.2,3007*46
$PMSBATV,075308.20,2,2,2.20801,1.28720,176.09658,0.000,0.000,0.000,-164.14622,0.000*6E
$GPGGA,075308.30,3542.294145985,N,13943.288169085,E,5,07,2.05,24.419,M,36.996,M,1.3,3007*45
$PMSBATV,075308.30,2,2,2.20816,1.28668,176.09892,0.000,0.000,0.000,-164.14622,0.000*6C
$GPGGA,075308.40,3542.294145965,N,13943.288169074,E,5,07,2.05,24.419,M,36.996,M,1.4,3007*45
$PMSBATV,075308.40,2,2,2.20322,1.28426,176.10128,-0.000,-0.000,0.000,-164.14622,0.000*6F
$GPGGA,075308.50,3542.294145942,N,13943.288169071,E,5,07,2.05,24.419,M,36.996,M,1.5,3007*45
$PMSBATV,075308.50,2,2,2.20424,1.27977,176.10614,0.000,-0.000,0.000,-164.14622,0.000*4C
$GPGGA,075308.60,3542.294145913,N,13943.288169065,E,5,07,2.05,24.419,M,36.996,M,1.6,3007*44
$PMSBATV,075308.60,2,2,2.20649,1.28285,176.10473,0.000,-0.000,0.000,-164.14622,0.000*4C
$GPGGA,075308.70,3542.294145890,N,13943.288169064,E,5,07,2.05,24.419,M,36.996,M,1.7,3007*4F
$PMSBATV,075308.70,2,2,2.21505,1.28665,176.10707,0.000,-0.000,0.000,-164.14622,0.000*4D
$GPGGA,075308.80,3542.294145863,N,13943.288169060,E,5,07,2.05,24.419,M,36.996,M,1.8,3007*47
$PMSBATV,075308.80,2,2,2.21896,1.28907,176.10462,0.000,-0.000,0.000,-164.14622,0.000*4E
$GPGGA,075308.90,3542.294145845,N,13943.288169056,E,5,07,2.05,24.419,M,36.996,M,1.9,3007*46
$PMSBATV,075308.90,2,2,2.21879,1.29573,176.09832,0.000,-0.000,0.000,-164.14622,0.000*41
$GPGGA,075309.00,3542.294145825,N,13943.288169055,E,5,07,2.05,24.419,M,36.996,M,2.0,3007*41
$PMSBATV,075309.00,2,2,2.22108,1.29707,176.09664,-0.000,0.000,0.000,-164.14622,0.000*49
$GPGGA,075309.10,3542.294145814,N,13943.288169049,E,5,07,2.05,24.419,M,36.996,M,2.1,3007*4E
$PMSBATV,075309.10,2,2,2.21909,1.29527,176.10234,-0.000,0.000,0.000,-164.14622,0.000*4B
$GPGGA,075309.20,3542.294145799,N,13943.288169049,E,5,07,2.05,24.419,M,36.996,M,2.2,3007*44
$PMSBATV,075309.20,2,2,2.21502,1.29382,176.10098,0.000,-0.000,0.000,-164.14622,0.000*42
$GPGGA,075309.30,3542.294145774,N,13943.288169044,E,5,07,2.05,24.419,M,36.996,M,2.3,3007*4A
$PMSBATV,075309.30,2,2,2.21667,1.29212,176.10581,0.000,-0.000,0.000,-164.14622,0.000*46
$GPGGA,075309.40,3542.294145747,N,13943.288169038,E,5,07,2.05,24.419,M,36.996,M,2.4,3007*41
$PMSBATV,075309.40,2,2,2.21952,1.29397,176.10828,0.000,0.000,0.000,-164.14622,0.000*67
$GPGGA,075309.50,3542.294145723,N,13943.288169033,E,5,07,2.05,24.419,M,36.996,M,2.5,3007*48
$PMSBATV,075309.50,2,2,2.21877,1.29090,176.10910,0.000,0.000,0.000,-164.14622,0.000*6E
$GPGGA,075309.60,3542.294145699,N,13943.288169030,E,5,07,2.05,24.419,M,36.996,M,2.6,3007*4B
